{"scottsdale": {"elem": [{"name": "Black Mountain Elementary School", "district": "Cave Creek Unified District (4244)", "city": "SCOTTSDALE", "level": 1, "low_grade": 0, "high_grade": 6, "enrollment": 495, "teachers": 33, "lunch_pct": 7.7, "charter": false, "lat": 33.7908, "lng": -111.954, "ratio": 15.0}, {"name": "Desert Sun Academy", "district": "Cave Creek Unified District (4244)", "city": "Scottsdale", "level": 1, "low_grade": -1, "high_grade": 6, "enrollment": 322, "teachers": 24, "lunch_pct": 13.7, "charter": false, "lat": 33.737316, "lng": -111.944769, "ratio": 13.4}, {"name": "Mission Montessori Academy", "district": "Little Lamb Community School (79050)", "city": "SCOTTSDALE", "level": 1, "low_grade": 0, "high_grade": 8, "enrollment": 133, "teachers": null, "lunch_pct": 0.0, "charter": true, "lat": 33.583533, "lng": -111.800844, "ratio": 133.0}, {"name": "Great Hearts Academies - Archway Scottsdale", "district": "Archway Classical Academy Scottsdale (90857)", "city": "Scottsdale", "level": 1, "low_grade": 0, "high_grade": 5, "enrollment": 1059, "teachers": null, "lunch_pct": 0.0, "charter": true, "lat": 33.635434, "lng": -111.87918, "ratio": 1059.0}, {"name": "Scottsdale Country Day School", "district": "Scottsdale Country Day School (91110)", "city": "SCOTTSDALE", "level": 1, "low_grade": 0, "high_grade": 6, "enrollment": 109, "teachers": null, "lunch_pct": 0.0, "charter": true, "lat": 33.5817, "lng": -111.9612, "ratio": 109.0}, {"name": "Hirsch Academy A Challenge Foundation", "district": "Hirsch Academy A Challenge Foundation (91275)", "city": "SCOTTSDALE", "level": 1, "low_grade": 0, "high_grade": 6, "enrollment": 177, "teachers": null, "lunch_pct": 88.7, "charter": true, "lat": 33.486988, "lng": -111.94024, "ratio": 177.0}, {"name": "Noah Webster Schools-Pima", "district": "Noah Webster Schools-Pima (92374)", "city": "SCOTTSDALE", "level": 1, "low_grade": 0, "high_grade": 6, "enrollment": 295, "teachers": null, "lunch_pct": 59.7, "charter": true, "lat": 33.515918, "lng": -111.890745, "ratio": 295.0}, {"name": "BASIS Scottsdale Primary - East Campus", "district": "BASIS Charter Schools Inc. (92863)", "city": "SCOTTSDALE", "level": 1, "low_grade": 0, "high_grade": 4, "enrollment": 534, "teachers": null, "lunch_pct": 0.0, "charter": true, "lat": 33.590361, "lng": -111.788012, "ratio": 534.0}, {"name": "BASIS Scottsdale Primary - West Campus", "district": "BASIS Charter Schools Inc. (783027)", "city": "Scottsdale", "level": 1, "low_grade": 0, "high_grade": 4, "enrollment": 439, "teachers": null, "lunch_pct": 0.0, "charter": true, "lat": 33.62988, "lng": -111.918021, "ratio": 439.0}, {"name": "Candeo North Scottsdale", "district": "Candeo Schools Inc. (1001161)", "city": "SCOTTSDALE", "level": 1, "low_grade": 0, "high_grade": 8, "enrollment": 349, "teachers": null, "lunch_pct": 0.0, "charter": true, "lat": 33.77625, "lng": -111.926627, "ratio": 349.0}, {"name": "Copper Canyon Elementary School", "district": "Paradise Valley Unified District (4241)", "city": "SCOTTSDALE", "level": 1, "low_grade": -1, "high_grade": 6, "enrollment": 484, "teachers": 36, "lunch_pct": 7.9, "charter": false, "lat": 33.6471, "lng": -111.9653, "ratio": 13.4}, {"name": "Desert Shadows Elementary School", "district": "Paradise Valley Unified District (4241)", "city": "SCOTTSDALE", "level": 1, "low_grade": -1, "high_grade": 6, "enrollment": 464, "teachers": 34, "lunch_pct": 14.9, "charter": false, "lat": 33.605625, "lng": -111.953291, "ratio": 13.6}, {"name": "Liberty Elementary School", "district": "Paradise Valley Unified District (4241)", "city": "SCOTTSDALE", "level": 1, "low_grade": -1, "high_grade": 6, "enrollment": 366, "teachers": 34, "lunch_pct": 22.7, "charter": false, "lat": 33.6206, "lng": -111.9702, "ratio": 10.8}, {"name": "Sonoran Sky Elementary School", "district": "Paradise Valley Unified District (4241)", "city": "SCOTTSDALE", "level": 1, "low_grade": 0, "high_grade": 6, "enrollment": 524, "teachers": 36, "lunch_pct": 6.9, "charter": false, "lat": 33.6031, "lng": -111.9209, "ratio": 14.6}, {"name": "Sandpiper Elementary School", "district": "Paradise Valley Unified District (4241)", "city": "SCOTTSDALE", "level": 1, "low_grade": -1, "high_grade": 6, "enrollment": 443, "teachers": 33, "lunch_pct": 7.7, "charter": false, "lat": 33.6155, "lng": -111.9355, "ratio": 13.4}, {"name": "Desert Springs Preparatory Elementary School", "district": "Paradise Valley Unified District (4241)", "city": "SCOTTSDALE", "level": 1, "low_grade": -1, "high_grade": 6, "enrollment": 371, "teachers": 31, "lunch_pct": 11.9, "charter": false, "lat": 33.6202, "lng": -111.9523, "ratio": 12.0}, {"name": "North Ranch Elementary School", "district": "Paradise Valley Unified District (4241)", "city": "SCOTTSDALE", "level": 1, "low_grade": -1, "high_grade": 6, "enrollment": 459, "teachers": 33, "lunch_pct": 10.7, "charter": false, "lat": 33.636, "lng": -111.949525, "ratio": 13.9}, {"name": "Grayhawk Elementary School", "district": "Paradise Valley Unified District (4241)", "city": "SCOTTSDALE", "level": 1, "low_grade": -1, "high_grade": 6, "enrollment": 358, "teachers": 26, "lunch_pct": 6.7, "charter": false, "lat": 33.6751, "lng": -111.9177, "ratio": 13.8}, {"name": "Pinnacle Peak Preparatory", "district": "Paradise Valley Unified District (4241)", "city": "SCOTTSDALE", "level": 1, "low_grade": -1, "high_grade": 8, "enrollment": 477, "teachers": 35, "lunch_pct": 4.8, "charter": false, "lat": 33.6935, "lng": -111.9137, "ratio": 13.6}, {"name": "Hohokam Elementary School", "district": "Scottsdale Unified District (4240)", "city": "SCOTTSDALE", "level": 1, "low_grade": -1, "high_grade": 6, "enrollment": 441, "teachers": 31, "lunch_pct": 66.7, "charter": false, "lat": 33.4725, "lng": -111.8989, "ratio": 14.2}, {"name": "Navajo Elementary School", "district": "Scottsdale Unified District (4240)", "city": "SCOTTSDALE", "level": 1, "low_grade": -1, "high_grade": 6, "enrollment": 472, "teachers": 32, "lunch_pct": 45.8, "charter": false, "lat": 33.5026, "lng": -111.8991, "ratio": 14.8}, {"name": "Pima Elementary School", "district": "Scottsdale Unified District (4240)", "city": "SCOTTSDALE", "level": 1, "low_grade": -1, "high_grade": 6, "enrollment": 389, "teachers": 29, "lunch_pct": 44.7, "charter": false, "lat": 33.488509, "lng": -111.900817, "ratio": 13.4}, {"name": "Pueblo Elementary School", "district": "Scottsdale Unified District (4240)", "city": "SCOTTSDALE", "level": 1, "low_grade": -1, "high_grade": 6, "enrollment": 425, "teachers": 32, "lunch_pct": 14.8, "charter": false, "lat": 33.5304, "lng": -111.9068, "ratio": 13.3}, {"name": "Yavapai Elementary School", "district": "Scottsdale Unified District (4240)", "city": "SCOTTSDALE", "level": 1, "low_grade": -1, "high_grade": 6, "enrollment": 387, "teachers": 25, "lunch_pct": 76.7, "charter": false, "lat": 33.4555, "lng": -111.9171, "ratio": 15.5}, {"name": "Cochise Elementary School", "district": "Scottsdale Unified District (4240)", "city": "SCOTTSDALE", "level": 1, "low_grade": -1, "high_grade": 5, "enrollment": 615, "teachers": 35, "lunch_pct": 3.9, "charter": false, "lat": 33.5712, "lng": -111.8987, "ratio": 17.6}, {"name": "Cheyenne Traditional School", "district": "Scottsdale Unified District (4240)", "city": "SCOTTSDALE", "level": 1, "low_grade": -1, "high_grade": 8, "enrollment": 880, "teachers": 46, "lunch_pct": 3.9, "charter": false, "lat": 33.609542, "lng": -111.866179, "ratio": 19.1}, {"name": "Anasazi Elementary", "district": "Scottsdale Unified District (4240)", "city": "SCOTTSDALE", "level": 1, "low_grade": -1, "high_grade": 5, "enrollment": 442, "teachers": 28, "lunch_pct": 12.7, "charter": false, "lat": 33.5962, "lng": -111.812, "ratio": 15.8}, {"name": "Laguna Elementary School", "district": "Scottsdale Unified District (4240)", "city": "SCOTTSDALE", "level": 1, "low_grade": -1, "high_grade": 5, "enrollment": 370, "teachers": 30, "lunch_pct": 11.9, "charter": false, "lat": 33.5784, "lng": -111.8565, "ratio": 12.3}, {"name": "Sequoya Elementary School", "district": "Scottsdale Unified District (4240)", "city": "SCOTTSDALE", "level": 1, "low_grade": -1, "high_grade": 5, "enrollment": 548, "teachers": 30, "lunch_pct": 15.7, "charter": false, "lat": 33.5929, "lng": -111.944, "ratio": 18.3}, {"name": "Redfield Elementary School", "district": "Scottsdale Unified District (4240)", "city": "SCOTTSDALE", "level": 1, "low_grade": -1, "high_grade": 6, "enrollment": 428, "teachers": 30, "lunch_pct": 19.9, "charter": false, "lat": 33.6145, "lng": -111.8838, "ratio": 14.3}, {"name": "Echo Canyon K-8", "district": "Scottsdale Unified District (4240)", "city": "SCOTTSDALE", "level": 1, "low_grade": -1, "high_grade": 8, "enrollment": 320, "teachers": 30, "lunch_pct": 53.8, "charter": false, "lat": 33.499814, "lng": -111.948008, "ratio": 10.7}, {"name": "Desert Canyon Elementary", "district": "Scottsdale Unified District (4240)", "city": "SCOTTSDALE", "level": 1, "low_grade": -1, "high_grade": 5, "enrollment": 496, "teachers": 34, "lunch_pct": 6.7, "charter": false, "lat": 33.626789, "lng": -111.860638, "ratio": 14.6}, {"name": "Copper Ridge School", "district": "Scottsdale Unified District (4240)", "city": "SCOTTSDALE", "level": 1, "low_grade": -1, "high_grade": 8, "enrollment": 600, "teachers": 39, "lunch_pct": 5.0, "charter": false, "lat": 33.6672, "lng": -111.8649, "ratio": 15.4}], "middle": [{"name": "Desert Shadows Middle School", "district": "Paradise Valley Unified District (4241)", "city": "SCOTTSDALE", "level": 2, "low_grade": 6, "high_grade": 8, "enrollment": 780, "teachers": 38, "lunch_pct": 6.9, "charter": false, "lat": 33.6059, "lng": -111.9544, "ratio": 20.5}, {"name": "Sunrise Middle School", "district": "Paradise Valley Unified District (4241)", "city": "SCOTTSDALE", "level": 2, "low_grade": 7, "high_grade": 8, "enrollment": 433, "teachers": 30, "lunch_pct": 30.7, "charter": false, "lat": 33.619332, "lng": -111.972479, "ratio": 14.4}, {"name": "Desert Canyon Middle School", "district": "Scottsdale Unified District (4240)", "city": "SCOTTSDALE", "level": 2, "low_grade": 6, "high_grade": 8, "enrollment": 490, "teachers": 29, "lunch_pct": 14.7, "charter": false, "lat": 33.6266, "lng": -111.8622, "ratio": 16.9}, {"name": "Cocopah Middle School", "district": "Scottsdale Unified District (4240)", "city": "SCOTTSDALE", "level": 2, "low_grade": 6, "high_grade": 8, "enrollment": 886, "teachers": 43, "lunch_pct": 8.8, "charter": false, "lat": 33.588829, "lng": -111.937469, "ratio": 20.6}, {"name": "Mohave Middle School", "district": "Scottsdale Unified District (4240)", "city": "SCOTTSDALE", "level": 2, "low_grade": 6, "high_grade": 8, "enrollment": 799, "teachers": 119, "lunch_pct": 30.8, "charter": false, "lat": 33.517543, "lng": -111.897393, "ratio": 6.7}, {"name": "Tonalea Middle School", "district": "Scottsdale Unified District (4240)", "city": "SCOTTSDALE", "level": 2, "low_grade": 6, "high_grade": 8, "enrollment": 442, "teachers": 30, "lunch_pct": 76.9, "charter": false, "lat": 33.459052, "lng": -111.937445, "ratio": 14.7}, {"name": "Mountainside Middle School", "district": "Scottsdale Unified District (4240)", "city": "SCOTTSDALE", "level": 2, "low_grade": 6, "high_grade": 8, "enrollment": 550, "teachers": 31, "lunch_pct": 10.9, "charter": false, "lat": 33.5887, "lng": -111.8061, "ratio": 17.7}], "high": [{"name": "Cactus Shadows High School", "district": "Cave Creek Unified District (4244)", "city": "Scottsdale", "level": 3, "low_grade": 8, "high_grade": 12, "enrollment": 1588, "teachers": 76, "lunch_pct": 5.9, "charter": false, "lat": 33.7855, "lng": -111.956, "ratio": 20.9}, {"name": "Salt River Accelerated Learning Academy", "district": "Salt River Pima-Maricopa  Community Schools (4320)", "city": "SCOTTSDALE", "level": 3, "low_grade": 9, "high_grade": 12, "enrollment": 73, "teachers": null, "lunch_pct": 32.9, "charter": true, "lat": 33.506913, "lng": -111.838363, "ratio": 73.0}, {"name": "West-MEC - Horizon High School", "district": "West-MEC - Western Maricopa Education Center (80923)", "city": "SCOTTSDALE", "level": 3, "low_grade": 9, "high_grade": 12, "enrollment": 13, "teachers": null, "lunch_pct": 0.0, "charter": false, "lat": 33.6251, "lng": -111.959, "ratio": 13.0}, {"name": "Great Hearts Academies - Scottsdale Prep", "district": "Scottsdale Preparatory Academy (89756)", "city": "Scottsdale", "level": 3, "low_grade": 5, "high_grade": 12, "enrollment": 875, "teachers": null, "lunch_pct": 0.0, "charter": true, "lat": 33.634365, "lng": -111.881805, "ratio": 875.0}, {"name": "Great Hearts Academies - Cicero Prep", "district": "Cicero Preparatory Academy (92316)", "city": "SCOTTSDALE", "level": 3, "low_grade": 6, "high_grade": 12, "enrollment": 502, "teachers": null, "lunch_pct": 0.0, "charter": true, "lat": 33.541508, "lng": -111.890873, "ratio": 502.0}, {"name": "Horizon High School", "district": "Paradise Valley Unified District (4241)", "city": "SCOTTSDALE", "level": 3, "low_grade": 7, "high_grade": 12, "enrollment": 1905, "teachers": 83, "lunch_pct": 7.0, "charter": false, "lat": 33.6251, "lng": -111.9589, "ratio": 23.0}, {"name": "Desert Mountain High School", "district": "Scottsdale Unified District (4240)", "city": "Scottsdale", "level": 3, "low_grade": 9, "high_grade": 12, "enrollment": 1880, "teachers": 87, "lunch_pct": 7.9, "charter": false, "lat": 33.5888, "lng": -111.8089, "ratio": 21.6}, {"name": "Chaparral High School", "district": "Scottsdale Unified District (4240)", "city": "SCOTTSDALE", "level": 3, "low_grade": 9, "high_grade": 12, "enrollment": 2038, "teachers": 90, "lunch_pct": 5.9, "charter": false, "lat": 33.5775, "lng": -111.9317, "ratio": 22.6}, {"name": "Coronado High School", "district": "Scottsdale Unified District (4240)", "city": "SCOTTSDALE", "level": 3, "low_grade": 9, "high_grade": 12, "enrollment": 740, "teachers": 48, "lunch_pct": 63.9, "charter": false, "lat": 33.47492, "lng": -111.919771, "ratio": 15.4}, {"name": "Saguaro High School", "district": "Scottsdale Unified District (4240)", "city": "SCOTTSDALE", "level": 3, "low_grade": 9, "high_grade": 12, "enrollment": 1466, "teachers": 68, "lunch_pct": 24.9, "charter": false, "lat": 33.5278, "lng": -111.9067, "ratio": 21.6}, {"name": "EVIT - Coronado High School", "district": "East Valley Institute of Technology (4516)", "city": "SCOTTSDALE", "level": 3, "low_grade": 9, "high_grade": 12, "enrollment": 0, "teachers": null, "lunch_pct": 0.0, "charter": false, "lat": 33.475395, "lng": -111.918034, "ratio": 1.0}, {"name": "EVIT - Saguaro High School", "district": "East Valley Institute of Technology (4516)", "city": "SCOTTSDALE", "level": 3, "low_grade": 9, "high_grade": 12, "enrollment": 0, "teachers": null, "lunch_pct": 0.0, "charter": false, "lat": 33.526633, "lng": -111.905461, "ratio": 1.0}, {"name": "EVIT - Chaparral High School", "district": "East Valley Institute of Technology (4516)", "city": "SCOTTSDALE", "level": 3, "low_grade": 9, "high_grade": 12, "enrollment": 1, "teachers": null, "lunch_pct": 0.0, "charter": false, "lat": 33.577489, "lng": -111.931685, "ratio": 1.0}, {"name": "EVIT - Desert Mountain High School", "district": "East Valley Institute of Technology (4516)", "city": "Scottsdale", "level": 3, "low_grade": 9, "high_grade": 12, "enrollment": 0, "teachers": null, "lunch_pct": 0.0, "charter": false, "lat": 33.588809, "lng": -111.808928, "ratio": 1.0}]}, "cave creek": {"elem": [{"name": "Desert Willow Elementary School", "district": "Cave Creek Unified District (4244)", "city": "Cave Creek", "level": 1, "low_grade": 0, "high_grade": 6, "enrollment": 456, "teachers": 25, "lunch_pct": 5.7, "charter": false, "lat": 33.7691, "lng": -111.9875, "ratio": 18.2}, {"name": "Lone Mountain Elementary School", "district": "Cave Creek Unified District (4244)", "city": "Cave Creek", "level": 1, "low_grade": 0, "high_grade": 6, "enrollment": 423, "teachers": 23, "lunch_pct": 7.8, "charter": false, "lat": 33.7638, "lng": -111.9673, "ratio": 18.4}], "middle": [], "high": [{"name": "EVIT Cactus Shadows High School", "district": "East Valley Institute of Technology (4516)", "city": "CAVE CREEK", "level": 3, "low_grade": 10, "high_grade": 12, "enrollment": 2, "teachers": null, "lunch_pct": 0.0, "charter": false, "lat": 33.785465, "lng": -111.955952, "ratio": 2.0}]}, "phoenix": {"elem": [{"name": "Horseshoe Trails Elementary School", "district": "Cave Creek Unified District (4244)", "city": "Phoenix", "level": 1, "low_grade": 0, "high_grade": 6, "enrollment": 433, "teachers": 25, "lunch_pct": 3.9, "charter": false, "lat": 33.733, "lng": -111.9663, "ratio": 17.3}, {"name": "Reid Traditional Schools' Valley Academy", "district": "Reid Traditional Schools' Valley Academy Inc. (4306)", "city": "PHOENIX", "level": 1, "low_grade": 0, "high_grade": 8, "enrollment": 685, "teachers": null, "lunch_pct": 0.0, "charter": true, "lat": 33.6779, "lng": -112.0919, "ratio": 685.0}, {"name": "Bennett Academy", "district": "Twenty First Century Charter School Inc. Bennett  (4310)", "city": "PHOENIX", "level": 1, "low_grade": 0, "high_grade": 8, "enrollment": 143, "teachers": null, "lunch_pct": 60.8, "charter": true, "lat": 33.5251, "lng": -112.1221, "ratio": 143.0}, {"name": "Bennett Academy - Venture Site", "district": "Twenty First Century Charter School Inc. Bennett  (4310)", "city": "PHOENIX", "level": 1, "low_grade": 0, "high_grade": 7, "enrollment": 73, "teachers": null, "lunch_pct": 54.8, "charter": true, "lat": 33.5672, "lng": -112.0924, "ratio": 73.0}, {"name": "Villa Montessori - Phoenix Campus", "district": "Villa Montessori Charter School (4339)", "city": "PHOENIX", "level": 1, "low_grade": 0, "high_grade": 8, "enrollment": 491, "teachers": null, "lunch_pct": 0.0, "charter": true, "lat": 33.504455, "lng": -112.021091, "ratio": 491.0}, {"name": "Montessori Day Public Schools Chartered - Mountainside", "district": "Montessori Day Public Schools Chartered Inc. (4359)", "city": "PHOENIX", "level": 1, "low_grade": 0, "high_grade": 8, "enrollment": 182, "teachers": null, "lunch_pct": 0.0, "charter": true, "lat": 33.569888, "lng": -112.052069, "ratio": 182.0}, {"name": "Khalsa Montessori Elementary School - Phoenix", "district": "Khalsa Montessori Elementary Schools (4360)", "city": "PHOENIX", "level": 1, "low_grade": 0, "high_grade": 6, "enrollment": 111, "teachers": null, "lunch_pct": 0.0, "charter": true, "lat": 33.4761, "lng": -112.0702, "ratio": 111.0}, {"name": "Hearn Academy The - A Ball Charter School", "district": "Ball Charter Schools (Hearn) (4294)", "city": "PHOENIX", "level": 1, "low_grade": 0, "high_grade": 8, "enrollment": 663, "teachers": null, "lunch_pct": 37.9, "charter": true, "lat": 33.6449, "lng": -112.0832, "ratio": 663.0}, {"name": "Friendly House Academia Del Pueblo Elem", "district": "Friendly House Inc. (4303)", "city": "PHOENIX", "level": 1, "low_grade": 0, "high_grade": 8, "enrollment": 303, "teachers": null, "lunch_pct": 83.8, "charter": true, "lat": 33.429, "lng": -112.0705, "ratio": 303.0}, {"name": "ACCLAIM Academy", "district": "Acclaim Charter School (4325)", "city": "PHOENIX", "level": 1, "low_grade": 0, "high_grade": 8, "enrollment": 268, "teachers": null, "lunch_pct": 89.9, "charter": true, "lat": 33.495776, "lng": -112.224385, "ratio": 268.0}, {"name": "Benchmark School", "district": "Benchmark School Inc. (10972)", "city": "PHOENIX", "level": 1, "low_grade": 0, "high_grade": 6, "enrollment": 410, "teachers": null, "lunch_pct": 0.0, "charter": true, "lat": 33.6199, "lng": -111.993, "ratio": 410.0}, {"name": "Pioneer Technology & Arts Academy of Arizona", "district": "Phoenix Education Management LLC (4340)", "city": "PHOENIX", "level": 1, "low_grade": 0, "high_grade": 8, "enrollment": 410, "teachers": null, "lunch_pct": 80.0, "charter": true, "lat": 33.3992, "lng": -112.04, "ratio": 410.0}, {"name": "Stepping Stones Academy", "district": "Stepping Stones Academy (10966)", "city": "PHOENIX", "level": 1, "low_grade": 0, "high_grade": 8, "enrollment": 217, "teachers": null, "lunch_pct": 0.0, "charter": true, "lat": 33.809572, "lng": -112.066225, "ratio": 217.0}, {"name": "Liberty Traditional Charter School", "district": "Liberty Traditional Charter School (10968)", "city": "PHOENIX", "level": 1, "low_grade": 0, "high_grade": 8, "enrollment": 196, "teachers": null, "lunch_pct": 71.4, "charter": true, "lat": 33.494004, "lng": -112.155302, "ratio": 196.0}, {"name": "Champion Schools", "district": "Fit Kids Inc. dba Champion Schools (78783)", "city": "PHOENIX", "level": 1, "low_grade": 0, "high_grade": 8, "enrollment": 485, "teachers": null, "lunch_pct": 92.8, "charter": true, "lat": 33.375347, "lng": -112.069951, "ratio": 485.0}, {"name": "Career Success School - Sage Campus", "district": "Career Success Schools (79047)", "city": "PHOENIX", "level": 1, "low_grade": 0, "high_grade": 8, "enrollment": 137, "teachers": null, "lunch_pct": 75.9, "charter": true, "lat": 33.4845, "lng": -112.0133, "ratio": 137.0}, {"name": "Kaizen Education Foundation dba South Pointe Elementary Scho", "district": "Kaizen Education Foundation dba South Pointe Eleme (79233)", "city": "PHOENIX", "level": 1, "low_grade": 0, "high_grade": 6, "enrollment": 293, "teachers": null, "lunch_pct": 91.8, "charter": true, "lat": 33.392483, "lng": -112.037219, "ratio": 293.0}, {"name": "Milestones Charter School", "district": "Milestones Charter School (79207)", "city": "PHOENIX", "level": 1, "low_grade": 0, "high_grade": 8, "enrollment": 186, "teachers": null, "lunch_pct": 16.7, "charter": true, "lat": 33.650574, "lng": -111.978762, "ratio": 186.0}, {"name": "Imagine Cortez Park Elementary", "district": "Pathfinder Charter School Foundation (79024)", "city": "PHOENIX", "level": 1, "low_grade": 0, "high_grade": 5, "enrollment": 472, "teachers": null, "lunch_pct": 93.6, "charter": true, "lat": 33.5661, "lng": -112.1348, "ratio": 472.0}, {"name": "Midtown Primary School", "district": "Midtown Primary School (79994)", "city": "PHOENIX", "level": 1, "low_grade": 0, "high_grade": 5, "enrollment": 108, "teachers": null, "lunch_pct": 84.3, "charter": true, "lat": 33.5071, "lng": -112.0993, "ratio": 108.0}, {"name": "Imagine Bell Canyon", "district": "Bell Canyon Charter School Inc (79983)", "city": "PHOENIX", "level": 1, "low_grade": 0, "high_grade": 8, "enrollment": 286, "teachers": null, "lunch_pct": 76.6, "charter": true, "lat": 33.651525, "lng": -112.115995, "ratio": 286.0}, {"name": "Imagine Online Academy of Arizona", "district": "West Gilbert Charter Middle School Inc. (79990)", "city": "PHOENIX", "level": 1, "low_grade": 0, "high_grade": 8, "enrollment": 79, "teachers": null, "lunch_pct": 0.0, "charter": true, "lat": 33.651525, "lng": -112.115995, "ratio": 79.0}, {"name": "Imagine Desert West Elementary", "district": "Imagine Charter Elementary at Desert West Inc. (88367)", "city": "PHOENIX", "level": 1, "low_grade": 0, "high_grade": 5, "enrollment": 694, "teachers": null, "lunch_pct": 91.8, "charter": true, "lat": 33.4672, "lng": -112.2048, "ratio": 694.0}, {"name": "Imagine Camelback Elementary", "district": "Imagine Charter Elementary at Camelback Inc. (88365)", "city": "Phoenix", "level": 1, "low_grade": 0, "high_grade": 5, "enrollment": 365, "teachers": null, "lunch_pct": 81.9, "charter": true, "lat": 33.5109, "lng": -112.1004, "ratio": 365.0}, {"name": "James W. Rice Elementary School", "district": "Alhambra Elementary District (4280)", "city": "PHOENIX", "level": 1, "low_grade": -1, "high_grade": 8, "enrollment": 739, "teachers": 39, "lunch_pct": 67.9, "charter": false, "lat": 33.5038, "lng": -112.1595, "ratio": 18.9}, {"name": "Catalina Ventura School", "district": "Alhambra Elementary District (4280)", "city": "Phoenix", "level": 1, "low_grade": 0, "high_grade": 8, "enrollment": 872, "teachers": 48, "lunch_pct": 74.9, "charter": false, "lat": 33.5301, "lng": -112.1421, "ratio": 18.2}, {"name": "Cordova Elementary School", "district": "Alhambra Elementary District (4280)", "city": "PHOENIX", "level": 1, "low_grade": -1, "high_grade": 8, "enrollment": 657, "teachers": 36, "lunch_pct": 89.8, "charter": false, "lat": 33.5188, "lng": -112.1333, "ratio": 18.2}, {"name": "Sevilla Elementary School-East Campus", "district": "Alhambra Elementary District (4280)", "city": "PHOENIX", "level": 1, "low_grade": -1, "high_grade": 4, "enrollment": 768, "teachers": 37, "lunch_pct": 93.9, "charter": false, "lat": 33.5156, "lng": -112.1415, "ratio": 20.8}, {"name": "Westwood Elementary School", "district": "Alhambra Elementary District (4280)", "city": "PHOENIX", "level": 1, "low_grade": 0, "high_grade": 5, "enrollment": 805, "teachers": 40, "lunch_pct": 92.9, "charter": false, "lat": 33.5065, "lng": -112.1076, "ratio": 20.1}, {"name": "Alhambra Traditional School", "district": "Alhambra Elementary District (4280)", "city": "Phoenix", "level": 1, "low_grade": 0, "high_grade": 8, "enrollment": 723, "teachers": 35, "lunch_pct": 55.9, "charter": false, "lat": 33.522302, "lng": -112.116018, "ratio": 20.7}, {"name": "Granada Elementary School-West Campus", "district": "Alhambra Elementary District (4280)", "city": "PHOENIX", "level": 1, "low_grade": -1, "high_grade": 4, "enrollment": 857, "teachers": 43, "lunch_pct": 72.9, "charter": false, "lat": 33.503, "lng": -112.1279, "ratio": 19.9}, {"name": "Valencia Newcomer School", "district": "Alhambra Elementary District (4280)", "city": "Phoenix", "level": 1, "low_grade": -1, "high_grade": 8, "enrollment": 136, "teachers": 9, "lunch_pct": 74.3, "charter": false, "lat": 33.531942, "lng": -112.14075, "ratio": 15.1}, {"name": "Madrid Neighborhood School", "district": "Alhambra Elementary District (4280)", "city": "Phoenix", "level": 1, "low_grade": -1, "high_grade": 8, "enrollment": 597, "teachers": 31, "lunch_pct": 74.7, "charter": false, "lat": 33.48808, "lng": -112.139416, "ratio": 19.3}, {"name": "Global Academy of Phoenix", "district": "Alhambra Elementary District (4280)", "city": "PHOENIX", "level": 1, "low_grade": 0, "high_grade": 8, "enrollment": 287, "teachers": 15, "lunch_pct": 58.5, "charter": false, "lat": 33.5325, "lng": -112.141453, "ratio": 19.1}, {"name": "Arizona K-8 Online Academy", "district": "Alhambra Elementary District (4280)", "city": "PHOENIX", "level": 1, "low_grade": 0, "high_grade": 8, "enrollment": 112, "teachers": 10, "lunch_pct": 0.0, "charter": false, "lat": 33.50269, "lng": -112.13899, "ratio": 11.2}, {"name": "Arizona Conservatory for Arts and Academics Elementary Schoo", "district": "Edkey Inc. - Redwood Academy (81043)", "city": "PHOENIX", "level": 1, "low_grade": 0, "high_grade": 5, "enrollment": 180, "teachers": null, "lunch_pct": 55.6, "charter": true, "lat": 33.636436, "lng": -112.119656, "ratio": 180.0}, {"name": "KELLY", "district": "Edkey Inc. - Sequoia School for the Deaf and Hard (81050)", "city": "PHOENIX", "level": 1, "low_grade": 0, "high_grade": 8, "enrollment": 25, "teachers": null, "lunch_pct": 52.0, "charter": true, "lat": 33.43182, "lng": -112.049351, "ratio": 25.0}, {"name": "Children First Leadership Academy", "district": "Edkey Inc. - Sequoia Ranch School (81052)", "city": "PHOENIX", "level": 1, "low_grade": 0, "high_grade": 8, "enrollment": 100, "teachers": null, "lunch_pct": 72.0, "charter": true, "lat": 33.43182, "lng": -112.049351, "ratio": 100.0}, {"name": "Sage Academy", "district": "Sage Academy Inc. (89414)", "city": "PHOENIX", "level": 1, "low_grade": 0, "high_grade": 8, "enrollment": 114, "teachers": null, "lunch_pct": 52.6, "charter": true, "lat": 33.578929, "lng": -112.115138, "ratio": 114.0}, {"name": "Freedom Academy", "district": "Freedom Academy Inc. (89506)", "city": "PHOENIX", "level": 1, "low_grade": 0, "high_grade": 8, "enrollment": 329, "teachers": null, "lunch_pct": 43.8, "charter": true, "lat": 33.633874, "lng": -111.99733, "ratio": 329.0}, {"name": "EAGLE College Prep", "district": "EAGLE South Mountain Charter Inc. (89850)", "city": "PHOENIX", "level": 1, "low_grade": 0, "high_grade": 8, "enrollment": 458, "teachers": null, "lunch_pct": 54.8, "charter": true, "lat": 33.371604, "lng": -112.112332, "ratio": 458.0}, {"name": "ASU Preparatory Academy- Phoenix Elementary", "district": "ASU Preparatory Academy (89949)", "city": "PHOENIX", "level": 1, "low_grade": 0, "high_grade": 4, "enrollment": 432, "teachers": null, "lunch_pct": 64.8, "charter": true, "lat": 33.454094, "lng": -112.063964, "ratio": 432.0}, {"name": "ASU Preparatory Academy Pilgrim Rest STEM K-5 School", "district": "ASU Preparatory Academy (89949)", "city": "PHOENIX", "level": 1, "low_grade": -1, "high_grade": 6, "enrollment": 82, "teachers": null, "lunch_pct": 75.6, "charter": true, "lat": 33.446855, "lng": -112.05163, "ratio": 82.0}, {"name": "ASU Preparatory Academy - South Phoenix Intermediate", "district": "ASU Preparatory Academy (90273)", "city": "Phoenix", "level": 1, "low_grade": 3, "high_grade": 6, "enrollment": 107, "teachers": null, "lunch_pct": 79.4, "charter": true, "lat": 33.3951, "lng": -112.0739, "ratio": 107.0}, {"name": "Sun Valley Academy", "district": "Morrison Education Group Inc. (90192)", "city": "PHOENIX", "level": 1, "low_grade": 0, "high_grade": 8, "enrollment": 575, "teachers": null, "lunch_pct": 62.8, "charter": true, "lat": 33.37686, "lng": -112.115528, "ratio": 575.0}, {"name": "Pioneer Preparatory - A Challenge Foundation", "district": "Pioneer Preparatory School (90140)", "city": "PHOENIX", "level": 1, "low_grade": 0, "high_grade": 6, "enrollment": 399, "teachers": null, "lunch_pct": 62.7, "charter": true, "lat": 33.49183, "lng": -112.200211, "ratio": 399.0}, {"name": "Adams Traditional Academy", "district": "Choice Academies Inc. (90138)", "city": "PHOENIX", "level": 1, "low_grade": 0, "high_grade": 8, "enrollment": 601, "teachers": null, "lunch_pct": 8.0, "charter": true, "lat": 33.695278, "lng": -112.109925, "ratio": 601.0}, {"name": "EAGLE College Prep Phoenix South", "district": "EAGLE College Prep Harmony LLC (91170)", "city": "PHOENIX", "level": 1, "low_grade": 0, "high_grade": 8, "enrollment": 158, "teachers": null, "lunch_pct": 70.9, "charter": true, "lat": 33.395228, "lng": -112.028461, "ratio": 158.0}, {"name": "Reid Traditional Schools' Painted Rock Academy", "district": "Reid Traditional Schools' Painted Rock Academy Inc (91317)", "city": "PHOENIX", "level": 1, "low_grade": 0, "high_grade": 8, "enrollment": 471, "teachers": null, "lunch_pct": 0.0, "charter": true, "lat": 33.6207, "lng": -112.115121, "ratio": 471.0}, {"name": "South Phoenix Prep and Arts Academy", "district": "South Phoenix Academy Inc. (91108)", "city": "PHOENIX", "level": 1, "low_grade": 0, "high_grade": 4, "enrollment": 323, "teachers": null, "lunch_pct": 76.8, "charter": true, "lat": 33.379666, "lng": -111.997217, "ratio": 323.0}, {"name": "Great Hearts Academies - Archway North Phoenix", "district": "Archway Classical Academy North Phoenix (91758)", "city": "PHOENIX", "level": 1, "low_grade": 0, "high_grade": 6, "enrollment": 818, "teachers": null, "lunch_pct": 0.0, "charter": true, "lat": 33.616104, "lng": -112.014214, "ratio": 818.0}, {"name": "George Gervin Prep Academy", "district": "George Gervin Youth Center Inc. (90884)", "city": "PHOENIX", "level": 1, "low_grade": 0, "high_grade": 8, "enrollment": 165, "teachers": null, "lunch_pct": 72.1, "charter": true, "lat": 33.392871, "lng": -112.020696, "ratio": 165.0}, {"name": "Empower College Prep", "district": "Empower College Prep (91277)", "city": "PHOENIX", "level": 1, "low_grade": 0, "high_grade": 8, "enrollment": 673, "teachers": null, "lunch_pct": 89.9, "charter": true, "lat": 33.512945, "lng": -112.111101, "ratio": 673.0}, {"name": "BASIS Phoenix Central Primary", "district": "BASIS Charter Schools Inc. (92349)", "city": "PHOENIX", "level": 1, "low_grade": 0, "high_grade": 5, "enrollment": 429, "teachers": null, "lunch_pct": 0.0, "charter": true, "lat": 33.492, "lng": -112.0713, "ratio": 429.0}, {"name": "South Mountain Preparatory Academy", "district": "Kaizen Education Foundation dba Advance U (91329)", "city": "PHOENIX", "level": 1, "low_grade": 0, "high_grade": 3, "enrollment": 67, "teachers": null, "lunch_pct": 64.2, "charter": true, "lat": 33.3917, "lng": -112.068, "ratio": 67.0}, {"name": "Incito Schools-Phoenix", "district": "Incito Schools (91326)", "city": "PHOENIX", "level": 1, "low_grade": 0, "high_grade": 5, "enrollment": 10, "teachers": null, "lunch_pct": 70.0, "charter": true, "lat": 33.466392, "lng": -112.054005, "ratio": 10.0}, {"name": "Great Hearts Academies - Archway Cicero", "district": "Archway Classical Academy Cicero (92314)", "city": "PHOENIX", "level": 1, "low_grade": 0, "high_grade": 5, "enrollment": 479, "teachers": null, "lunch_pct": 0.0, "charter": true, "lat": 33.541458, "lng": -111.889741, "ratio": 479.0}, {"name": "Vista College Preparatory - Hadley", "district": "Vista College Preparatory Inc. (91948)", "city": "PHOENIX", "level": 1, "low_grade": 0, "high_grade": 4, "enrollment": 279, "teachers": null, "lunch_pct": 74.6, "charter": true, "lat": 33.43949, "lng": -112.081829, "ratio": 279.0}, {"name": "Vista College Prep - Maryvale", "district": "Vista College Preparatory Inc. (91948)", "city": "PHOENIX", "level": 1, "low_grade": 0, "high_grade": 4, "enrollment": 436, "teachers": null, "lunch_pct": 66.7, "charter": true, "lat": 33.466285, "lng": -112.156535, "ratio": 436.0}, {"name": "Vista College Preparatory - Metro North Elementary", "district": "Vista College Preparatory Inc. (91948)", "city": "PHOENIX", "level": 1, "low_grade": 0, "high_grade": 4, "enrollment": 81, "teachers": null, "lunch_pct": 76.5, "charter": true, "lat": 33.581524, "lng": -112.106306, "ratio": 81.0}, {"name": "Academy of Mathematics and Science South", "district": "Academy of Mathematics and Science South Inc. (90878)", "city": "PHOENIX", "level": 1, "low_grade": 0, "high_grade": 8, "enrollment": 571, "teachers": null, "lunch_pct": 79.0, "charter": true, "lat": 33.485236, "lng": -112.130607, "ratio": 571.0}, {"name": "Academy of Math and Science Desert Sky", "district": "Academy of Mathematics and Science South Inc. (90878)", "city": "PHOENIX", "level": 1, "low_grade": 0, "high_grade": 8, "enrollment": 1294, "teachers": null, "lunch_pct": 62.9, "charter": true, "lat": 33.465488, "lng": -112.182807, "ratio": 1294.0}, {"name": "Academy of Math and Science Avondale", "district": "Academy of Mathematics and Science South Inc. (90878)", "city": "Phoenix", "level": 1, "low_grade": 0, "high_grade": 8, "enrollment": 990, "teachers": null, "lunch_pct": 66.0, "charter": true, "lat": 33.434499, "lng": -112.286551, "ratio": 990.0}, {"name": "Academy of Math and Science South Mountain", "district": "Academy of Mathematics and Science South Inc. (90878)", "city": "PHOENIX", "level": 1, "low_grade": 0, "high_grade": 8, "enrollment": 923, "teachers": null, "lunch_pct": 29.8, "charter": true, "lat": 33.376799, "lng": -112.091068, "ratio": 923.0}, {"name": "Reyes Maria Ruiz Leadership Academy", "district": "Espiritu Community Development Corp. (92250)", "city": "PHOENIX", "level": 1, "low_grade": 0, "high_grade": 6, "enrollment": 418, "teachers": null, "lunch_pct": 79.7, "charter": true, "lat": 33.401921, "lng": -112.071424, "ratio": 418.0}, {"name": "Arizona Autism Charter School", "district": "Arizona Autism Charter Schools Inc. (91958)", "city": "PHOENIX", "level": 1, "low_grade": 0, "high_grade": 6, "enrollment": 227, "teachers": null, "lunch_pct": 48.5, "charter": true, "lat": 33.49609, "lng": -112.051421, "ratio": 227.0}, {"name": "Arizona Autism Charter School-Online K-8", "district": "Arizona Autism Charter Schools Inc. (91958)", "city": "PHOENIX", "level": 1, "low_grade": 0, "high_grade": 8, "enrollment": 80, "teachers": null, "lunch_pct": 0.0, "charter": true, "lat": 33.495072, "lng": -112.05085, "ratio": 80.0}, {"name": "Franklin Phonetic Primary School-Sunnyslope", "district": "Franklin Phonetic Primary School Inc. (92596)", "city": "PHOENIX", "level": 1, "low_grade": 0, "high_grade": 6, "enrollment": 78, "teachers": null, "lunch_pct": 70.5, "charter": true, "lat": 33.571103, "lng": -112.071276, "ratio": 78.0}, {"name": "CASA Academy", "district": "CASA Academy (91934)", "city": "PHOENIX", "level": 1, "low_grade": 0, "high_grade": 5, "enrollment": 281, "teachers": null, "lunch_pct": 98.9, "charter": true, "lat": 33.555053, "lng": -112.132395, "ratio": 281.0}, {"name": "EAGLE College Prep Maryvale", "district": "EAGLE College Prep Maryvale LLC (91938)", "city": "PHOENIX", "level": 1, "low_grade": 0, "high_grade": 8, "enrollment": 390, "teachers": null, "lunch_pct": 83.6, "charter": true, "lat": 33.493295, "lng": -112.174051, "ratio": 390.0}, {"name": "Arizona Language Preparatory", "district": "Arizona Language Preparatory (92566)", "city": "PHOENIX", "level": 1, "low_grade": 0, "high_grade": 6, "enrollment": 85, "teachers": null, "lunch_pct": 0.0, "charter": true, "lat": 33.619966, "lng": -111.980411, "ratio": 85.0}, {"name": "Horizon Honors Elementary School", "district": "Horizon Community Learning Center Inc. (92620)", "city": "PHOENIX", "level": 1, "low_grade": 0, "high_grade": 6, "enrollment": 820, "teachers": null, "lunch_pct": 0.0, "charter": true, "lat": 33.2986, "lng": -111.9789, "ratio": 820.0}, {"name": "Self Development Academy-Phoenix", "district": "Self Development Academy-Phoenix (92381)", "city": "PHOENIX", "level": 1, "low_grade": 0, "high_grade": 8, "enrollment": 303, "teachers": null, "lunch_pct": 86.8, "charter": true, "lat": 33.494346, "lng": -112.050099, "ratio": 303.0}, {"name": "Academy of Math and Science Camelback", "district": "Academy of Mathematics and Science Inc. (92768)", "city": "PHOENIX", "level": 1, "low_grade": 0, "high_grade": 8, "enrollment": 1058, "teachers": null, "lunch_pct": 68.0, "charter": true, "lat": 33.50852, "lng": -112.202391, "ratio": 1058.0}, {"name": "ASU Preparatory Academy - South Phoenix Primary", "district": "ASU Preparatory Academy (92716)", "city": "Phoenix", "level": 1, "low_grade": 0, "high_grade": 4, "enrollment": 58, "teachers": null, "lunch_pct": 81.0, "charter": true, "lat": 33.394253, "lng": -112.071701, "ratio": 58.0}, {"name": "Legacy Traditional School - Phoenix", "district": "Legacy Traditional School - Phoenix (873957)", "city": "PHOENIX", "level": 1, "low_grade": 0, "high_grade": 8, "enrollment": 1312, "teachers": null, "lunch_pct": 49.9, "charter": true, "lat": 33.502648, "lng": -112.27143, "ratio": 1312.0}, {"name": "Synergy Public School", "district": "Synergy Public School Inc. (92981)", "city": "PHOENIX", "level": 1, "low_grade": 0, "high_grade": 8, "enrollment": 595, "teachers": null, "lunch_pct": 78.8, "charter": true, "lat": 33.523536, "lng": -112.117369, "ratio": 595.0}, {"name": "BASIS Phoenix Primary", "district": "BASIS Charter Schools Inc. (934316)", "city": "PHOENIX", "level": 1, "low_grade": 0, "high_grade": 5, "enrollment": 770, "teachers": null, "lunch_pct": 0.0, "charter": true, "lat": 33.59384, "lng": -112.014065, "ratio": 770.0}, {"name": "Victory Collegiate Academy", "district": "Victory Collegiate Academy Corporation (92985)", "city": "PHOENIX", "level": 1, "low_grade": 0, "high_grade": 8, "enrollment": 337, "teachers": null, "lunch_pct": 86.9, "charter": true, "lat": 33.490567, "lng": -112.19418, "ratio": 337.0}, {"name": "Phoenix International Academy", "district": "Phoenix International Academy (903484)", "city": "PHOENIX", "level": 1, "low_grade": 0, "high_grade": 8, "enrollment": 139, "teachers": null, "lunch_pct": 91.4, "charter": true, "lat": 33.407993, "lng": -111.988639, "ratio": 139.0}, {"name": "Phoenix Modern", "district": "New Learning Ventures Inc. (320470)", "city": "Phoenix", "level": 1, "low_grade": 0, "high_grade": 8, "enrollment": 117, "teachers": null, "lunch_pct": 0.0, "charter": true, "lat": 33.489048, "lng": -112.069759, "ratio": 117.0}, {"name": "Kaleidoscope School", "district": "Kaleidoscope School (1000164)", "city": "PHOENIX", "level": 1, "low_grade": 0, "high_grade": 6, "enrollment": 286, "teachers": null, "lunch_pct": 0.0, "charter": true, "lat": 33.639083, "lng": -112.050536, "ratio": 286.0}, {"name": "Legacy Traditional School - North Phoenix", "district": "Legacy Traditional School - North Phoenix (1000568)", "city": "Phoenix", "level": 1, "low_grade": 0, "high_grade": 8, "enrollment": 535, "teachers": null, "lunch_pct": 52.7, "charter": true, "lat": 33.502076, "lng": -112.269078, "ratio": 535.0}, {"name": "Scholars Academy Sunnyslope", "district": "Scholars Academy Sunnyslope (1000377)", "city": "PHOENIX", "level": 1, "low_grade": 0, "high_grade": 8, "enrollment": 203, "teachers": null, "lunch_pct": 81.8, "charter": true, "lat": 33.614519, "lng": -112.059704, "ratio": 203.0}, {"name": "Legacy Traditional School - Deer Valley", "district": "Legacy Traditional School - Deer Valley (1001398)", "city": "Phoenix", "level": 1, "low_grade": 0, "high_grade": 6, "enrollment": 451, "teachers": null, "lunch_pct": 48.8, "charter": true, "lat": 33.653941, "lng": -112.119416, "ratio": 451.0}, {"name": "David Crockett Elementary School", "district": "Balsz Elementary District (4268)", "city": "PHOENIX", "level": 1, "low_grade": 0, "high_grade": 5, "enrollment": 516, "teachers": 31, "lunch_pct": 92.8, "charter": false, "lat": 33.4546, "lng": -112.0036, "ratio": 16.6}, {"name": "Griffith Elementary School", "district": "Balsz Elementary District (4268)", "city": "PHOENIX", "level": 1, "low_grade": 0, "high_grade": 5, "enrollment": 489, "teachers": 32, "lunch_pct": 84.9, "charter": false, "lat": 33.4686, "lng": -111.9835, "ratio": 15.3}, {"name": "Brunson-Lee Elementary School", "district": "Balsz Elementary District (4268)", "city": "PHOENIX", "level": 1, "low_grade": 0, "high_grade": 5, "enrollment": 443, "teachers": 24, "lunch_pct": 91.6, "charter": false, "lat": 33.4629, "lng": -111.9795, "ratio": 18.5}, {"name": "Balsz Online Academy (B.O.A.)", "district": "Balsz Elementary District (4268)", "city": "PHOENIX", "level": 1, "low_grade": 0, "high_grade": 8, "enrollment": 42, "teachers": 7, "lunch_pct": 0.0, "charter": false, "lat": 33.458079, "lng": -111.977873, "ratio": 6.0}, {"name": "Cartwright School", "district": "Cartwright Elementary District (4282)", "city": "PHOENIX", "level": 1, "low_grade": -1, "high_grade": 8, "enrollment": 754, "teachers": 32, "lunch_pct": 60.9, "charter": false, "lat": 33.4798, "lng": -112.1854, "ratio": 23.6}, {"name": "Charles W. Harris School", "district": "Cartwright Elementary District (4282)", "city": "PHOENIX", "level": 1, "low_grade": -1, "high_grade": 8, "enrollment": 931, "teachers": 39, "lunch_pct": 83.9, "charter": false, "lat": 33.4723, "lng": -112.1784, "ratio": 23.9}, {"name": "Frank Borman School", "district": "Cartwright Elementary District (4282)", "city": "PHOENIX", "level": 1, "low_grade": -1, "high_grade": 8, "enrollment": 1040, "teachers": 39, "lunch_pct": 56.0, "charter": false, "lat": 33.4906, "lng": -112.1774, "ratio": 26.7}, {"name": "Glenn L. Downs Social Sciences Academy", "district": "Cartwright Elementary District (4282)", "city": "PHOENIX", "level": 1, "low_grade": -1, "high_grade": 8, "enrollment": 692, "teachers": 30, "lunch_pct": 79.9, "charter": false, "lat": 33.48987, "lng": -112.161112, "ratio": 23.1}, {"name": "Heatherbrae School", "district": "Cartwright Elementary District (4282)", "city": "PHOENIX", "level": 1, "low_grade": -1, "high_grade": 6, "enrollment": 612, "teachers": 22, "lunch_pct": 77.9, "charter": false, "lat": 33.4989, "lng": -112.2107, "ratio": 27.8}, {"name": "Holiday Park School", "district": "Cartwright Elementary District (4282)", "city": "PHOENIX", "level": 1, "low_grade": -1, "high_grade": 6, "enrollment": 619, "teachers": 29, "lunch_pct": 73.8, "charter": false, "lat": 33.5003, "lng": -112.2017, "ratio": 21.3}, {"name": "John F. Long", "district": "Cartwright Elementary District (4282)", "city": "PHOENIX", "level": 1, "low_grade": -1, "high_grade": 6, "enrollment": 657, "teachers": 29, "lunch_pct": 76.9, "charter": false, "lat": 33.5012, "lng": -112.1762, "ratio": 22.7}, {"name": "Justine Spitalny STE3AM School", "district": "Cartwright Elementary District (4282)", "city": "PHOENIX", "level": 1, "low_grade": -1, "high_grade": 8, "enrollment": 682, "teachers": 31, "lunch_pct": 77.9, "charter": false, "lat": 33.4864, "lng": -112.1574, "ratio": 22.0}, {"name": "Palm Lane", "district": "Cartwright Elementary District (4282)", "city": "PHOENIX", "level": 1, "low_grade": -1, "high_grade": 8, "enrollment": 638, "teachers": 29, "lunch_pct": 77.9, "charter": false, "lat": 33.4705, "lng": -112.1975, "ratio": 22.0}, {"name": "Peralta School", "district": "Cartwright Elementary District (4282)", "city": "PHOENIX", "level": 1, "low_grade": -1, "high_grade": 6, "enrollment": 871, "teachers": 35, "lunch_pct": 78.0, "charter": false, "lat": 33.472583, "lng": -112.212923, "ratio": 24.9}, {"name": "Starlight Park College Preparatory and Community School", "district": "Cartwright Elementary District (4282)", "city": "PHOENIX", "level": 1, "low_grade": -1, "high_grade": 8, "enrollment": 709, "teachers": 42, "lunch_pct": 66.9, "charter": false, "lat": 33.4877, "lng": -112.2312, "ratio": 16.9}, {"name": "Sunset School", "district": "Cartwright Elementary District (4282)", "city": "PHOENIX", "level": 1, "low_grade": -1, "high_grade": 6, "enrollment": 727, "teachers": 31, "lunch_pct": 69.7, "charter": false, "lat": 33.4881, "lng": -112.201, "ratio": 23.5}, {"name": "Tomahawk School", "district": "Cartwright Elementary District (4282)", "city": "PHOENIX", "level": 1, "low_grade": -1, "high_grade": 6, "enrollment": 868, "teachers": 37, "lunch_pct": 72.9, "charter": false, "lat": 33.499938, "lng": -112.22835, "ratio": 23.5}, {"name": "G. Frank Davidson", "district": "Cartwright Elementary District (4282)", "city": "PHOENIX", "level": 1, "low_grade": -1, "high_grade": 6, "enrollment": 740, "teachers": 31, "lunch_pct": 83.0, "charter": false, "lat": 33.4865, "lng": -112.2105, "ratio": 23.9}, {"name": "Bret R. Tarver Leadership Academy", "district": "Cartwright Elementary District (4282)", "city": "PHOENIX", "level": 1, "low_grade": -1, "high_grade": 6, "enrollment": 551, "teachers": 30, "lunch_pct": 71.9, "charter": false, "lat": 33.4989, "lng": -112.1705, "ratio": 18.4}, {"name": "Manuel Pena Jr. School", "district": "Cartwright Elementary District (4282)", "city": "PHOENIX", "level": 1, "low_grade": -1, "high_grade": 6, "enrollment": 749, "teachers": 33, "lunch_pct": 67.8, "charter": false, "lat": 33.4759, "lng": -112.2303, "ratio": 22.7}, {"name": "Cartwright Virtual Academy", "district": "Cartwright Elementary District (4282)", "city": "Phoenix", "level": 1, "low_grade": 0, "high_grade": 8, "enrollment": 130, "teachers": 6, "lunch_pct": 0.0, "charter": false, "lat": 33.496909, "lng": -112.170418, "ratio": 21.7}, {"name": "The Creighton Academy", "district": "Creighton Elementary District (4263)", "city": "Phoenix", "level": 1, "low_grade": -1, "high_grade": 8, "enrollment": 334, "teachers": 18, "lunch_pct": 84.7, "charter": false, "lat": 33.4663, "lng": -112.0213, "ratio": 18.6}, {"name": "Larry C Kennedy School", "district": "Creighton Elementary District (4263)", "city": "PHOENIX", "level": 1, "low_grade": -1, "high_grade": 8, "enrollment": 359, "teachers": 27, "lunch_pct": 84.7, "charter": false, "lat": 33.488038, "lng": -112.02236, "ratio": 13.3}, {"name": "Loma Linda Elementary School", "district": "Creighton Elementary District (4263)", "city": "PHOENIX", "level": 1, "low_grade": -1, "high_grade": 8, "enrollment": 477, "teachers": 26, "lunch_pct": 78.8, "charter": false, "lat": 33.4917, "lng": -112.0375, "ratio": 18.3}, {"name": "Monte Vista Elementary School", "district": "Creighton Elementary District (4263)", "city": "PHOENIX", "level": 1, "low_grade": -1, "high_grade": 8, "enrollment": 795, "teachers": 48, "lunch_pct": 89.8, "charter": false, "lat": 33.4873, "lng": -112.0056, "ratio": 16.6}, {"name": "Papago School", "district": "Creighton Elementary District (4263)", "city": "PHOENIX", "level": 1, "low_grade": -1, "high_grade": 8, "enrollment": 822, "teachers": 44, "lunch_pct": 85.9, "charter": false, "lat": 33.4707, "lng": -112.003464, "ratio": 18.7}, {"name": "Biltmore Preparatory Academy", "district": "Creighton Elementary District (4263)", "city": "PHOENIX", "level": 1, "low_grade": 0, "high_grade": 8, "enrollment": 544, "teachers": 33, "lunch_pct": 48.9, "charter": false, "lat": 33.505633, "lng": -112.009061, "ratio": 16.5}, {"name": "William T Machan Elementary School", "district": "Creighton Elementary District (4263)", "city": "PHOENIX", "level": 1, "low_grade": -1, "high_grade": 8, "enrollment": 595, "teachers": 33, "lunch_pct": 95.8, "charter": false, "lat": 33.4772, "lng": -112.0356, "ratio": 18.0}, {"name": "Gateway School", "district": "Creighton Elementary District (4263)", "city": "PHOENIX", "level": 1, "low_grade": -1, "high_grade": 8, "enrollment": 543, "teachers": 34, "lunch_pct": 91.9, "charter": false, "lat": 33.4614, "lng": -112.0069, "ratio": 16.0}, {"name": "Excelencia School", "district": "Creighton Elementary District (4263)", "city": "PHOENIX", "level": 1, "low_grade": 0, "high_grade": 8, "enrollment": 506, "teachers": 33, "lunch_pct": 90.7, "charter": false, "lat": 33.4646, "lng": -112.0343, "ratio": 15.3}, {"name": "Creighton Virtual Academy", "district": "Creighton Elementary District (4263)", "city": "PHOENIX", "level": 1, "low_grade": 0, "high_grade": 8, "enrollment": 100, "teachers": 7, "lunch_pct": 0.0, "charter": false, "lat": 33.4663, "lng": -112.0213, "ratio": 14.3}, {"name": "Fowler Elementary School", "district": "Fowler Elementary District (4273)", "city": "PHOENIX", "level": 1, "low_grade": -1, "high_grade": 5, "enrollment": 407, "teachers": 21, "lunch_pct": 84.8, "charter": false, "lat": 33.451, "lng": -112.2045, "ratio": 19.4}, {"name": "Sunridge Elementary School", "district": "Fowler Elementary District (4273)", "city": "PHOENIX", "level": 1, "low_grade": -1, "high_grade": 5, "enrollment": 349, "teachers": 21, "lunch_pct": 63.6, "charter": false, "lat": 33.4594, "lng": -112.1943, "ratio": 16.6}, {"name": "Sun Canyon School", "district": "Fowler Elementary District (4273)", "city": "PHOENIX", "level": 1, "low_grade": -1, "high_grade": 5, "enrollment": 528, "teachers": 25, "lunch_pct": 65.9, "charter": false, "lat": 33.4312, "lng": -112.2352, "ratio": 21.1}, {"name": "Tuscano Elementary School", "district": "Fowler Elementary District (4273)", "city": "PHOENIX", "level": 1, "low_grade": -1, "high_grade": 5, "enrollment": 720, "teachers": 29, "lunch_pct": 54.9, "charter": false, "lat": 33.4147, "lng": -112.2322, "ratio": 24.8}, {"name": "Western Valley Elementary School", "district": "Fowler Elementary District (4273)", "city": "PHOENIX", "level": 1, "low_grade": -1, "high_grade": 5, "enrollment": 548, "teachers": 25, "lunch_pct": 66.8, "charter": false, "lat": 33.4315, "lng": -112.1944, "ratio": 21.9}, {"name": "Fowler Elementary School District Virtual Academy", "district": "Fowler Elementary District (4273)", "city": "PHOENIX", "level": 1, "low_grade": 0, "high_grade": 8, "enrollment": 91, "teachers": 8, "lunch_pct": 0.0, "charter": false, "lat": 33.431338, "lng": -112.193059, "ratio": 11.4}, {"name": "Alta E Butler School", "district": "Isaac Elementary District (4259)", "city": "PHOENIX", "level": 1, "low_grade": 0, "high_grade": 5, "enrollment": 550, "teachers": 34, "lunch_pct": 88.9, "charter": false, "lat": 33.4581, "lng": -112.1422, "ratio": 16.2}, {"name": "Mitchell Elementary School", "district": "Isaac Elementary District (4259)", "city": "PHOENIX", "level": 1, "low_grade": 0, "high_grade": 5, "enrollment": 384, "teachers": 25, "lunch_pct": 80.7, "charter": false, "lat": 33.4682, "lng": -112.149, "ratio": 15.4}, {"name": "P T Coe Elementary School", "district": "Isaac Elementary District (4259)", "city": "PHOENIX", "level": 1, "low_grade": 0, "high_grade": 5, "enrollment": 380, "teachers": 24, "lunch_pct": 85.8, "charter": false, "lat": 33.478115, "lng": -112.142548, "ratio": 15.8}, {"name": "J B Sutton Elementary School", "district": "Isaac Elementary District (4259)", "city": "PHOENIX", "level": 1, "low_grade": 0, "high_grade": 5, "enrollment": 544, "teachers": 33, "lunch_pct": 94.7, "charter": false, "lat": 33.459, "lng": -112.1256, "ratio": 16.5}, {"name": "Joseph Zito Elementary School", "district": "Isaac Elementary District (4259)", "city": "PHOENIX", "level": 1, "low_grade": 0, "high_grade": 5, "enrollment": 346, "teachers": 22, "lunch_pct": 78.9, "charter": false, "lat": 33.4726, "lng": -112.1574, "ratio": 15.7}, {"name": "Pueblo Del Sol Middle School", "district": "Isaac Elementary District (4259)", "city": "PHOENIX", "level": 1, "low_grade": 0, "high_grade": 8, "enrollment": 745, "teachers": 43, "lunch_pct": 100.9, "charter": false, "lat": 33.4893, "lng": -112.1423, "ratio": 17.3}, {"name": "Esperanza Elementary School", "district": "Isaac Elementary District (4259)", "city": "PHOENIX", "level": 1, "low_grade": 0, "high_grade": 5, "enrollment": 368, "teachers": 22, "lunch_pct": 87.8, "charter": false, "lat": 33.464842, "lng": -112.125453, "ratio": 16.7}, {"name": "Moya Elementary", "district": "Isaac Elementary District (4259)", "city": "PHOENIX", "level": 1, "low_grade": 0, "high_grade": 5, "enrollment": 379, "teachers": 23, "lunch_pct": 87.6, "charter": false, "lat": 33.4539, "lng": -112.1479, "ratio": 16.5}, {"name": "Isaac Online Prep Academy", "district": "Isaac Elementary District (4259)", "city": "PHOENIX", "level": 1, "low_grade": 0, "high_grade": 8, "enrollment": 108, "teachers": 9, "lunch_pct": 0.0, "charter": false, "lat": 33.466619, "lng": -112.131672, "ratio": 12.0}, {"name": "Kyrene de la Esperanza School", "district": "Kyrene Elementary District (4267)", "city": "PHOENIX", "level": 1, "low_grade": -1, "high_grade": 5, "enrollment": 467, "teachers": 34, "lunch_pct": 39.8, "charter": false, "lat": 33.3119, "lng": -111.9933, "ratio": 13.7}, {"name": "Kyrene de las Lomas School", "district": "Kyrene Elementary District (4267)", "city": "PHOENIX", "level": 1, "low_grade": -1, "high_grade": 5, "enrollment": 451, "teachers": 30, "lunch_pct": 44.8, "charter": false, "lat": 33.3394, "lng": -111.9955, "ratio": 15.0}, {"name": "Kyrene de los Cerritos School", "district": "Kyrene Elementary District (4267)", "city": "PHOENIX", "level": 1, "low_grade": -1, "high_grade": 5, "enrollment": 396, "teachers": 24, "lunch_pct": 12.6, "charter": false, "lat": 33.3127, "lng": -112.0568, "ratio": 16.5}, {"name": "Kyrene de la Colina School", "district": "Kyrene Elementary District (4267)", "city": "PHOENIX", "level": 1, "low_grade": -1, "high_grade": 5, "enrollment": 472, "teachers": 34, "lunch_pct": 40.9, "charter": false, "lat": 33.3234, "lng": -112.0071, "ratio": 13.9}, {"name": "Kyrene De Los Lagos School", "district": "Kyrene Elementary District (4267)", "city": "PHOENIX", "level": 1, "low_grade": -1, "high_grade": 5, "enrollment": 499, "teachers": 28, "lunch_pct": 14.6, "charter": false, "lat": 33.2925, "lng": -112.008, "ratio": 17.8}, {"name": "Kyrene Monte Vista School", "district": "Kyrene Elementary District (4267)", "city": "PHOENIX", "level": 1, "low_grade": -1, "high_grade": 5, "enrollment": 507, "teachers": 31, "lunch_pct": 9.9, "charter": false, "lat": 33.3084, "lng": -112.0265, "ratio": 16.4}, {"name": "Kyrene de la Sierra School", "district": "Kyrene Elementary District (4267)", "city": "PHOENIX", "level": 1, "low_grade": -1, "high_grade": 5, "enrollment": 514, "teachers": 25, "lunch_pct": 11.9, "charter": false, "lat": 33.2963, "lng": -112.0584, "ratio": 20.6}, {"name": "Kyrene de la Estrella Elementary School", "district": "Kyrene Elementary District (4267)", "city": "PHOENIX", "level": 1, "low_grade": -1, "high_grade": 5, "enrollment": 448, "teachers": 33, "lunch_pct": 27.9, "charter": false, "lat": 33.2932, "lng": -112.0274, "ratio": 13.6}, {"name": "Kyrene del Milenio", "district": "Kyrene Elementary District (4267)", "city": "PHOENIX", "level": 1, "low_grade": -1, "high_grade": 5, "enrollment": 536, "teachers": 38, "lunch_pct": 38.8, "charter": false, "lat": 33.299, "lng": -111.9836, "ratio": 14.1}, {"name": "Maurice C. Cash Elementary School", "district": "Laveen Elementary District (4276)", "city": "PHOENIX", "level": 1, "low_grade": -1, "high_grade": 8, "enrollment": 839, "teachers": 47, "lunch_pct": 89.9, "charter": false, "lat": 33.399728, "lng": -112.14096, "ratio": 17.9}, {"name": "Madison Heights Elementary School", "district": "Madison Elementary District (4270)", "city": "PHOENIX", "level": 1, "low_grade": -1, "high_grade": 4, "enrollment": 687, "teachers": 34, "lunch_pct": 15.9, "charter": false, "lat": 33.5414, "lng": -112.0353, "ratio": 20.2}, {"name": "Madison Richard Simis School", "district": "Madison Elementary District (4270)", "city": "PHOENIX", "level": 1, "low_grade": -1, "high_grade": 4, "enrollment": 955, "teachers": 41, "lunch_pct": 13.9, "charter": false, "lat": 33.5428, "lng": -112.0617, "ratio": 23.3}, {"name": "Madison Rose Lane School", "district": "Madison Elementary District (4270)", "city": "PHOENIX", "level": 1, "low_grade": -1, "high_grade": 4, "enrollment": 733, "teachers": 38, "lunch_pct": 37.9, "charter": false, "lat": 33.5264, "lng": -112.0567, "ratio": 19.3}, {"name": "Madison Camelview Elementary", "district": "Madison Elementary District (4270)", "city": "PHOENIX", "level": 1, "low_grade": -1, "high_grade": 4, "enrollment": 593, "teachers": 30, "lunch_pct": 54.8, "charter": false, "lat": 33.5033, "lng": -112.038, "ratio": 19.8}, {"name": "Madison Traditional Academy", "district": "Madison Elementary District (4270)", "city": "PHOENIX", "level": 1, "low_grade": 0, "high_grade": 8, "enrollment": 736, "teachers": 29, "lunch_pct": 12.9, "charter": false, "lat": 33.530699, "lng": -112.061233, "ratio": 25.4}, {"name": "Madison Virtual Academy", "district": "Madison Elementary District (4270)", "city": "PHOENIX", "level": 1, "low_grade": 0, "high_grade": 8, "enrollment": 0, "teachers": null, "lunch_pct": 0.0, "charter": false, "lat": 33.518198, "lng": -112.046832, "ratio": 1.0}, {"name": "Arthur M Hamilton School", "district": "Murphy Elementary District (4265)", "city": "PHOENIX", "level": 1, "low_grade": -1, "high_grade": 8, "enrollment": 229, "teachers": 12, "lunch_pct": 88.6, "charter": false, "lat": 33.4299, "lng": -112.1029, "ratio": 19.1}, {"name": "William R Sullivan Elementary School", "district": "Murphy Elementary District (4265)", "city": "PHOENIX", "level": 1, "low_grade": -1, "high_grade": 8, "enrollment": 553, "teachers": 22, "lunch_pct": 86.8, "charter": false, "lat": 33.448, "lng": -112.1267, "ratio": 25.1}, {"name": "Jack L Kuban Elementary School", "district": "Murphy Elementary District (4265)", "city": "PHOENIX", "level": 1, "low_grade": -1, "high_grade": 8, "enrollment": 447, "teachers": 19, "lunch_pct": 92.6, "charter": false, "lat": 33.439375, "lng": -112.128147, "ratio": 23.5}, {"name": "Clarendon School", "district": "Osborn Elementary District (4262)", "city": "PHOENIX", "level": 1, "low_grade": -1, "high_grade": 8, "enrollment": 420, "teachers": 27, "lunch_pct": 73.8, "charter": false, "lat": 33.490661, "lng": -112.088709, "ratio": 15.6}, {"name": "Encanto School", "district": "Osborn Elementary District (4262)", "city": "PHOENIX", "level": 1, "low_grade": -1, "high_grade": 8, "enrollment": 665, "teachers": 34, "lunch_pct": 59.8, "charter": false, "lat": 33.488773, "lng": -112.090052, "ratio": 19.6}, {"name": "Solano School", "district": "Osborn Elementary District (4262)", "city": "PHOENIX", "level": 1, "low_grade": -1, "high_grade": 8, "enrollment": 443, "teachers": 23, "lunch_pct": 77.9, "charter": false, "lat": 33.518475, "lng": -112.092671, "ratio": 19.3}, {"name": "Longview Elementary School", "district": "Osborn Elementary District (4262)", "city": "PHOENIX", "level": 1, "low_grade": -1, "high_grade": 8, "enrollment": 466, "teachers": 27, "lunch_pct": 76.8, "charter": false, "lat": 33.4931, "lng": -112.0549, "ratio": 17.3}, {"name": "Montecito Community School", "district": "Osborn Elementary District (4262)", "city": "PHOENIX", "level": 1, "low_grade": -1, "high_grade": 8, "enrollment": 40, "teachers": 7, "lunch_pct": 85.0, "charter": false, "lat": 33.49868, "lng": -112.064064, "ratio": 5.7}, {"name": "Osborn Community iSchool", "district": "Osborn Elementary District (4262)", "city": "PHOENIX", "level": 1, "low_grade": 0, "high_grade": 8, "enrollment": 0, "teachers": null, "lunch_pct": 0.0, "charter": false, "lat": 33.488082, "lng": -112.088506, "ratio": 1.0}, {"name": "Cactus View Elementary School", "district": "Paradise Valley Unified District (4241)", "city": "PHOENIX", "level": 1, "low_grade": -1, "high_grade": 6, "enrollment": 562, "teachers": 41, "lunch_pct": 58.9, "charter": false, "lat": 33.6466, "lng": -112.0749, "ratio": 13.7}, {"name": "Campo Bello Elementary School", "district": "Paradise Valley Unified District (4241)", "city": "PHOENIX", "level": 1, "low_grade": -1, "high_grade": 6, "enrollment": 619, "teachers": 43, "lunch_pct": 70.8, "charter": false, "lat": 33.647407, "lng": -112.02562, "ratio": 14.4}, {"name": "Desert Cove Elementary School", "district": "Paradise Valley Unified District (4241)", "city": "PHOENIX", "level": 1, "low_grade": -1, "high_grade": 6, "enrollment": 396, "teachers": 32, "lunch_pct": 35.6, "charter": false, "lat": 33.5874, "lng": -112.0229, "ratio": 12.4}, {"name": "Indian Bend Elementary School", "district": "Paradise Valley Unified District (4241)", "city": "PHOENIX", "level": 1, "low_grade": -1, "high_grade": 6, "enrollment": 566, "teachers": 46, "lunch_pct": 67.8, "charter": false, "lat": 33.6126, "lng": -112.0037, "ratio": 12.3}, {"name": "Larkspur Elementary School", "district": "Paradise Valley Unified District (4241)", "city": "PHOENIX", "level": 1, "low_grade": -1, "high_grade": 6, "enrollment": 353, "teachers": 34, "lunch_pct": 66.6, "charter": false, "lat": 33.601291, "lng": -112.028951, "ratio": 10.4}, {"name": "Mercury Mine Elementary School", "district": "Paradise Valley Unified District (4241)", "city": "PHOENIX", "level": 1, "low_grade": -1, "high_grade": 6, "enrollment": 506, "teachers": 33, "lunch_pct": 12.8, "charter": false, "lat": 33.5738, "lng": -112.0223, "ratio": 15.3}, {"name": "Palomino Primary School", "district": "Paradise Valley Unified District (4241)", "city": "PHOENIX", "level": 1, "low_grade": -1, "high_grade": 3, "enrollment": 575, "teachers": 36, "lunch_pct": 83.0, "charter": false, "lat": 33.6321, "lng": -112.0189, "ratio": 16.0}, {"name": "Whispering Wind Academy", "district": "Paradise Valley Unified District (4241)", "city": "PHOENIX", "level": 1, "low_grade": 0, "high_grade": 6, "enrollment": 518, "teachers": 45, "lunch_pct": 45.8, "charter": false, "lat": 33.6314, "lng": -111.9894, "ratio": 11.5}, {"name": "Boulder Creek Elementary School", "district": "Paradise Valley Unified District (4241)", "city": "PHOENIX", "level": 1, "low_grade": -1, "high_grade": 6, "enrollment": 605, "teachers": 36, "lunch_pct": 12.9, "charter": false, "lat": 33.6936, "lng": -112.0353, "ratio": 16.8}, {"name": "Echo Mountain Primary School", "district": "Paradise Valley Unified District (4241)", "city": "PHOENIX", "level": 1, "low_grade": -1, "high_grade": 3, "enrollment": 530, "teachers": 36, "lunch_pct": 73.8, "charter": false, "lat": 33.6506, "lng": -112.0431, "ratio": 14.7}, {"name": "Desert Trails Elementary School", "district": "Paradise Valley Unified District (4241)", "city": "PHOENIX", "level": 1, "low_grade": -1, "high_grade": 7, "enrollment": 613, "teachers": 41, "lunch_pct": 10.0, "charter": false, "lat": 33.6905, "lng": -111.9799, "ratio": 15.0}, {"name": "Eagle Ridge Elementary School", "district": "Paradise Valley Unified District (4241)", "city": "PHOENIX", "level": 1, "low_grade": -1, "high_grade": 6, "enrollment": 374, "teachers": 30, "lunch_pct": 60.7, "charter": false, "lat": 33.6669, "lng": -112.0541, "ratio": 12.5}, {"name": "Quail Run Elementary School", "district": "Paradise Valley Unified District (4241)", "city": "PHOENIX", "level": 1, "low_grade": -1, "high_grade": 6, "enrollment": 526, "teachers": 35, "lunch_pct": 26.8, "charter": false, "lat": 33.6618, "lng": -112.0101, "ratio": 15.0}, {"name": "Hidden Hills Elementary School", "district": "Paradise Valley Unified District (4241)", "city": "PHOENIX", "level": 1, "low_grade": -1, "high_grade": 6, "enrollment": 329, "teachers": 29, "lunch_pct": 47.7, "charter": false, "lat": 33.6109, "lng": -112.0423, "ratio": 11.3}, {"name": "Sunset Canyon School", "district": "Paradise Valley Unified District (4241)", "city": "PHOENIX", "level": 1, "low_grade": -1, "high_grade": 6, "enrollment": 366, "teachers": 34, "lunch_pct": 53.8, "charter": false, "lat": 33.6581, "lng": -112.0233, "ratio": 10.8}, {"name": "Wildfire Elementary School", "district": "Paradise Valley Unified District (4241)", "city": "PHOENIX", "level": 1, "low_grade": -1, "high_grade": 6, "enrollment": 457, "teachers": 30, "lunch_pct": 6.8, "charter": false, "lat": 33.6931, "lng": -111.988, "ratio": 15.2}, {"name": "Fireside Elementary School", "district": "Paradise Valley Unified District (4241)", "city": "Phoenix", "level": 1, "low_grade": -1, "high_grade": 6, "enrollment": 730, "teachers": 46, "lunch_pct": 4.9, "charter": false, "lat": 33.681063, "lng": -112.001265, "ratio": 15.9}, {"name": "Sky Crossing Elementary School", "district": "Paradise Valley Unified District (4241)", "city": "Phoenix", "level": 1, "low_grade": -1, "high_grade": 6, "enrollment": 509, "teachers": 36, "lunch_pct": 3.9, "charter": false, "lat": 33.688345, "lng": -112.010714, "ratio": 14.1}, {"name": "Desert Horizon Elementary School", "district": "Pendergast Elementary District (4283)", "city": "PHOENIX", "level": 1, "low_grade": -1, "high_grade": 8, "enrollment": 732, "teachers": 38, "lunch_pct": 76.9, "charter": false, "lat": 33.4861, "lng": -112.2444, "ratio": 19.3}, {"name": "Pendergast Elementary School", "district": "Pendergast Elementary District (4283)", "city": "PHOENIX", "level": 1, "low_grade": -1, "high_grade": 8, "enrollment": 658, "teachers": 33, "lunch_pct": 76.7, "charter": false, "lat": 33.490258, "lng": -112.258266, "ratio": 19.9}, {"name": "Villa De Paz Elementary School", "district": "Pendergast Elementary District (4283)", "city": "PHOENIX", "level": 1, "low_grade": -1, "high_grade": 8, "enrollment": 618, "teachers": 32, "lunch_pct": 68.0, "charter": false, "lat": 33.507097, "lng": -112.284552, "ratio": 19.3}, {"name": "Copper King Elementary", "district": "Pendergast Elementary District (4283)", "city": "PHOENIX", "level": 1, "low_grade": -1, "high_grade": 8, "enrollment": 786, "teachers": 41, "lunch_pct": 73.8, "charter": false, "lat": 33.5021, "lng": -112.2918, "ratio": 19.2}, {"name": "Amberlea Elementary School", "district": "Pendergast Elementary District (4283)", "city": "PHOENIX", "level": 1, "low_grade": -1, "high_grade": 8, "enrollment": 522, "teachers": 25, "lunch_pct": 69.7, "charter": false, "lat": 33.4756, "lng": -112.2402, "ratio": 20.9}, {"name": "Westwind Elementary School", "district": "Pendergast Elementary District (4283)", "city": "Phoenix", "level": 1, "low_grade": -1, "high_grade": 8, "enrollment": 973, "teachers": 48, "lunch_pct": 81.8, "charter": false, "lat": 33.5025, "lng": -112.2518, "ratio": 20.3}, {"name": "Mary Mcleod Bethune School", "district": "Phoenix Elementary District (4256)", "city": "PHOENIX", "level": 1, "low_grade": -1, "high_grade": 8, "enrollment": 370, "teachers": 22, "lunch_pct": 90.8, "charter": false, "lat": 33.434707, "lng": -112.092211, "ratio": 16.8}, {"name": "Paul Dunbar Lawrence School", "district": "Phoenix Elementary District (4256)", "city": "PHOENIX", "level": 1, "low_grade": -1, "high_grade": 8, "enrollment": 138, "teachers": 11, "lunch_pct": 88.4, "charter": false, "lat": 33.4407, "lng": -112.0841, "ratio": 12.5}, {"name": "Thomas A Edison School", "district": "Phoenix Elementary District (4256)", "city": "PHOENIX", "level": 1, "low_grade": -1, "high_grade": 8, "enrollment": 426, "teachers": 29, "lunch_pct": 83.8, "charter": false, "lat": 33.4574, "lng": -112.044, "ratio": 14.7}, {"name": "Ralph Waldo Emerson Elementary School", "district": "Phoenix Elementary District (4256)", "city": "PHOENIX", "level": 1, "low_grade": -1, "high_grade": 8, "enrollment": 303, "teachers": 21, "lunch_pct": 71.6, "charter": false, "lat": 33.4688, "lng": -112.0617, "ratio": 14.4}, {"name": "Garfield School", "district": "Phoenix Elementary District (4256)", "city": "PHOENIX", "level": 1, "low_grade": -1, "high_grade": 8, "enrollment": 454, "teachers": 27, "lunch_pct": 89.6, "charter": false, "lat": 33.4575, "lng": -112.0536, "ratio": 16.8}, {"name": "Maie Bartlett Heard School", "district": "Phoenix Elementary District (4256)", "city": "PHOENIX", "level": 1, "low_grade": -1, "high_grade": 8, "enrollment": 422, "teachers": 25, "lunch_pct": 86.7, "charter": false, "lat": 33.4799, "lng": -112.1092, "ratio": 16.9}, {"name": "Silvestre S Herrera School", "district": "Phoenix Elementary District (4256)", "city": "PHOENIX", "level": 1, "low_grade": -1, "high_grade": 8, "enrollment": 517, "teachers": 33, "lunch_pct": 80.9, "charter": false, "lat": 33.4348, "lng": -112.0594, "ratio": 15.7}, {"name": "Kenilworth Elementary School", "district": "Phoenix Elementary District (4256)", "city": "PHOENIX", "level": 1, "low_grade": -1, "high_grade": 8, "enrollment": 488, "teachers": 25, "lunch_pct": 70.7, "charter": false, "lat": 33.4622, "lng": -112.0808, "ratio": 19.5}, {"name": "Lowell Elementary School", "district": "Phoenix Elementary District (4256)", "city": "PHOENIX", "level": 1, "low_grade": -1, "high_grade": 8, "enrollment": 273, "teachers": 16, "lunch_pct": 83.9, "charter": false, "lat": 33.436354, "lng": -112.076791, "ratio": 17.1}, {"name": "Whittier Elementary School", "district": "Phoenix Elementary District (4256)", "city": "PHOENIX", "level": 1, "low_grade": -1, "high_grade": 8, "enrollment": 364, "teachers": 22, "lunch_pct": 87.6, "charter": false, "lat": 33.4697, "lng": -112.0482, "ratio": 16.5}, {"name": "Capitol Elementary School", "district": "Phoenix Elementary District (4256)", "city": "PHOENIX", "level": 1, "low_grade": -1, "high_grade": 8, "enrollment": 466, "teachers": 22, "lunch_pct": 82.8, "charter": false, "lat": 33.4517, "lng": -112.095, "ratio": 21.2}, {"name": "Magnet Traditional School", "district": "Phoenix Elementary District (4256)", "city": "PHOENIX", "level": 1, "low_grade": 0, "high_grade": 8, "enrollment": 419, "teachers": 20, "lunch_pct": 71.8, "charter": false, "lat": 33.4773, "lng": -112.109, "ratio": 20.9}, {"name": "Augustus H. Shaw Montessori", "district": "Phoenix Elementary District (4256)", "city": "PHOENIX", "level": 1, "low_grade": -1, "high_grade": 8, "enrollment": 453, "teachers": 20, "lunch_pct": 31.8, "charter": false, "lat": 33.44904, "lng": -112.053508, "ratio": 22.6}, {"name": "Faith North Early Childhood Learning Center", "district": "Phoenix Elementary District (4256)", "city": "PHOENIX", "level": 1, "low_grade": -1, "high_grade": 0, "enrollment": 91, "teachers": 7, "lunch_pct": 62.6, "charter": false, "lat": 33.449032, "lng": -112.061574, "ratio": 13.0}, {"name": "Phoenix #1 iAcademy", "district": "Phoenix Elementary District (4256)", "city": "PHOENIX", "level": 1, "low_grade": 0, "high_grade": 8, "enrollment": 65, "teachers": 1, "lunch_pct": 0.0, "charter": false, "lat": 33.46882, "lng": -112.064663, "ratio": 65.0}, {"name": "Riverside Traditional School", "district": "Riverside Elementary District (4257)", "city": "Phoenix", "level": 1, "low_grade": -1, "high_grade": 4, "enrollment": 400, "teachers": 22, "lunch_pct": 83.0, "charter": false, "lat": 33.4342, "lng": -112.1697, "ratio": 18.2}, {"name": "Riverside Elementary School District (RESD) STEM2 Online Sch", "district": "Riverside Elementary District (4257)", "city": "Phoenix", "level": 1, "low_grade": 0, "high_grade": 8, "enrollment": 12, "teachers": null, "lunch_pct": 0.0, "charter": false, "lat": 33.43368, "lng": -112.170641, "ratio": 12.0}, {"name": "T G Barr School", "district": "Roosevelt Elementary District (4279)", "city": "PHOENIX", "level": 1, "low_grade": -1, "high_grade": 8, "enrollment": 317, "teachers": 30, "lunch_pct": 91.5, "charter": false, "lat": 33.3856, "lng": -112.037, "ratio": 10.6}, {"name": "C J Jorgensen School", "district": "Roosevelt Elementary District (4279)", "city": "PHOENIX", "level": 1, "low_grade": -1, "high_grade": 8, "enrollment": 285, "teachers": 23, "lunch_pct": 80.7, "charter": false, "lat": 33.3985, "lng": -112.0955, "ratio": 12.4}, {"name": "John F Kennedy Elementary School", "district": "Roosevelt Elementary District (4279)", "city": "PHOENIX", "level": 1, "low_grade": -1, "high_grade": 3, "enrollment": 360, "teachers": 24, "lunch_pct": 80.6, "charter": false, "lat": 33.3839, "lng": -112.0574, "ratio": 15.0}, {"name": "V H Lassen Elementary School", "district": "Roosevelt Elementary District (4279)", "city": "PHOENIX", "level": 1, "low_grade": -1, "high_grade": 8, "enrollment": 281, "teachers": 19, "lunch_pct": 83.6, "charter": false, "lat": 33.3838, "lng": -112.0847, "ratio": 14.8}, {"name": "Martin Luther King Early Childhood Center", "district": "Roosevelt Elementary District (4279)", "city": "PHOENIX", "level": 1, "low_grade": -1, "high_grade": 3, "enrollment": 217, "teachers": 16, "lunch_pct": 89.4, "charter": false, "lat": 33.4043, "lng": -112.0333, "ratio": 13.6}, {"name": "Amy L. Houston Academy", "district": "Roosevelt Elementary District (4279)", "city": "PHOENIX", "level": 1, "low_grade": -1, "high_grade": 8, "enrollment": 0, "teachers": 10, "lunch_pct": 0.0, "charter": false, "lat": 33.3807, "lng": -112.0572, "ratio": 0.1}, {"name": "Cesar E Chavez Community School", "district": "Roosevelt Elementary District (4279)", "city": "PHOENIX", "level": 1, "low_grade": -1, "high_grade": 8, "enrollment": 418, "teachers": 26, "lunch_pct": 95.7, "charter": false, "lat": 33.4108, "lng": -112.0674, "ratio": 16.1}, {"name": "Irene Lopez School", "district": "Roosevelt Elementary District (4279)", "city": "PHOENIX", "level": 1, "low_grade": -1, "high_grade": 8, "enrollment": 433, "teachers": 25, "lunch_pct": 94.7, "charter": false, "lat": 33.403935, "lng": -112.056839, "ratio": 17.3}, {"name": "Sunland Elementary School", "district": "Roosevelt Elementary District (4279)", "city": "PHOENIX", "level": 1, "low_grade": -1, "high_grade": 8, "enrollment": 569, "teachers": 32, "lunch_pct": 81.7, "charter": false, "lat": 33.3971, "lng": -112.0817, "ratio": 17.8}, {"name": "Valley View School", "district": "Roosevelt Elementary District (4279)", "city": "PHOENIX", "level": 1, "low_grade": -1, "high_grade": 8, "enrollment": 500, "teachers": 28, "lunch_pct": 88.0, "charter": false, "lat": 33.371419, "lng": -112.084311, "ratio": 17.9}, {"name": "Ignacio Conchos School", "district": "Roosevelt Elementary District (4279)", "city": "PHOENIX", "level": 1, "low_grade": -1, "high_grade": 8, "enrollment": 328, "teachers": 24, "lunch_pct": 85.7, "charter": false, "lat": 33.386, "lng": -112.096, "ratio": 13.7}, {"name": "John R Davis School", "district": "Roosevelt Elementary District (4279)", "city": "PHOENIX", "level": 1, "low_grade": -1, "high_grade": 8, "enrollment": 346, "teachers": 18, "lunch_pct": 81.5, "charter": false, "lat": 33.3906, "lng": -112.0898, "ratio": 19.2}, {"name": "Maxine O Bush Elementary School", "district": "Roosevelt Elementary District (4279)", "city": "PHOENIX", "level": 1, "low_grade": -1, "high_grade": 8, "enrollment": 262, "teachers": 19, "lunch_pct": 80.9, "charter": false, "lat": 33.3657, "lng": -112.069, "ratio": 13.8}, {"name": "Southwest Elementary School", "district": "Roosevelt Elementary District (4279)", "city": "PHOENIX", "level": 1, "low_grade": -1, "high_grade": 8, "enrollment": 534, "teachers": 32, "lunch_pct": 84.8, "charter": false, "lat": 33.3625, "lng": -112.0876, "ratio": 16.7}, {"name": "Ed & Verma Pastor Elementary School", "district": "Roosevelt Elementary District (4279)", "city": "PHOENIX", "level": 1, "low_grade": -1, "high_grade": 8, "enrollment": 482, "teachers": 32, "lunch_pct": 89.8, "charter": false, "lat": 33.3877, "lng": -112.1048, "ratio": 15.1}, {"name": "Cloves C Campbell Sr Elementary School", "district": "Roosevelt Elementary District (4279)", "city": "PHOENIX", "level": 1, "low_grade": -1, "high_grade": 8, "enrollment": 413, "teachers": 30, "lunch_pct": 85.7, "charter": false, "lat": 33.3715, "lng": -112.0256, "ratio": 13.8}, {"name": "Bernard Black Elementary School", "district": "Roosevelt Elementary District (4279)", "city": "PHOENIX", "level": 1, "low_grade": -1, "high_grade": 8, "enrollment": 617, "teachers": 29, "lunch_pct": 79.7, "charter": false, "lat": 33.3875, "lng": -112.1177, "ratio": 21.3}, {"name": "iAmRSDOnline Academy", "district": "Roosevelt Elementary District (4279)", "city": "PHOENIX", "level": 1, "low_grade": 0, "high_grade": 8, "enrollment": 87, "teachers": 11, "lunch_pct": 0.0, "charter": false, "lat": 33.391668, "lng": -112.065563, "ratio": 7.9}, {"name": "Hopi Elementary School", "district": "Scottsdale Unified District (4240)", "city": "PHOENIX", "level": 1, "low_grade": 0, "high_grade": 5, "enrollment": 676, "teachers": 35, "lunch_pct": 9.9, "charter": false, "lat": 33.497191, "lng": -111.968942, "ratio": 19.3}, {"name": "Tavan Elementary School", "district": "Scottsdale Unified District (4240)", "city": "PHOENIX", "level": 1, "low_grade": -1, "high_grade": 5, "enrollment": 608, "teachers": 39, "lunch_pct": 58.9, "charter": false, "lat": 33.488904, "lng": -111.98178, "ratio": 15.6}, {"name": "Constitution Elementary School", "district": "Deer Valley Unified District (4246)", "city": "PHOENIX", "level": 1, "low_grade": -1, "high_grade": 6, "enrollment": 671, "teachers": 41, "lunch_pct": 77.9, "charter": false, "lat": 33.6536, "lng": -112.0924, "ratio": 16.4}, {"name": "New River Elementary School", "district": "Deer Valley Unified District (4246)", "city": "PHOENIX", "level": 1, "low_grade": -1, "high_grade": 6, "enrollment": 201, "teachers": 15, "lunch_pct": 34.8, "charter": false, "lat": 33.9263, "lng": -112.1405, "ratio": 13.4}, {"name": "Village Meadows Elementary School", "district": "Deer Valley Unified District (4246)", "city": "PHOENIX", "level": 1, "low_grade": -1, "high_grade": 6, "enrollment": 444, "teachers": 25, "lunch_pct": 74.8, "charter": false, "lat": 33.6495, "lng": -112.1036, "ratio": 17.8}, {"name": "Sunrise Elementary School", "district": "Deer Valley Unified District (4246)", "city": "PHOENIX", "level": 1, "low_grade": -1, "high_grade": 6, "enrollment": 475, "teachers": 31, "lunch_pct": 67.8, "charter": false, "lat": 33.6463, "lng": -112.1266, "ratio": 15.3}, {"name": "Esperanza Elementary School", "district": "Deer Valley Unified District (4246)", "city": "PHOENIX", "level": 1, "low_grade": -1, "high_grade": 6, "enrollment": 499, "teachers": 36, "lunch_pct": 58.7, "charter": false, "lat": 33.6739, "lng": -112.0773, "ratio": 13.9}, {"name": "Paseo Hills School", "district": "Deer Valley Unified District (4246)", "city": "PHOENIX", "level": 1, "low_grade": -1, "high_grade": 8, "enrollment": 743, "teachers": 43, "lunch_pct": 59.9, "charter": false, "lat": 33.6873, "lng": -112.1299, "ratio": 17.3}, {"name": "Stetson Hills School", "district": "Deer Valley Unified District (4246)", "city": "Phoenix", "level": 1, "low_grade": -1, "high_grade": 8, "enrollment": 912, "teachers": 51, "lunch_pct": 13.9, "charter": false, "lat": 33.717898, "lng": -112.150506, "ratio": 17.9}, {"name": "Norterra Canyon School", "district": "Deer Valley Unified District (4246)", "city": "PHOENIX", "level": 1, "low_grade": -1, "high_grade": 8, "enrollment": 584, "teachers": 38, "lunch_pct": 22.8, "charter": false, "lat": 33.730315, "lng": -112.106837, "ratio": 15.4}, {"name": "Sunset Ridge School", "district": "Deer Valley Unified District (4246)", "city": "PHOENIX", "level": 1, "low_grade": -1, "high_grade": 8, "enrollment": 620, "teachers": 36, "lunch_pct": 18.9, "charter": false, "lat": 33.809017, "lng": -112.130738, "ratio": 17.2}, {"name": "Sonoran Foothills School", "district": "Deer Valley Unified District (4246)", "city": "PHOENIX", "level": 1, "low_grade": -1, "high_grade": 8, "enrollment": 860, "teachers": 49, "lunch_pct": 14.9, "charter": false, "lat": 33.775573, "lng": -112.105507, "ratio": 17.6}, {"name": "Union Park School", "district": "Deer Valley Unified District (4246)", "city": "Phoenix", "level": 1, "low_grade": -1, "high_grade": 8, "enrollment": 753, "teachers": 46, "lunch_pct": 13.8, "charter": false, "lat": 33.718586, "lng": -112.107466, "ratio": 16.4}, {"name": "Inspiration Mountain School", "district": "Deer Valley Unified District (4246)", "city": "Phoenix", "level": 1, "low_grade": 0, "high_grade": 8, "enrollment": 486, "teachers": 31, "lunch_pct": 9.7, "charter": false, "lat": 33.731417, "lng": -112.181514, "ratio": 15.7}, {"name": "Nevitt Elementary School", "district": "Tempe School District (4258)", "city": "PHOENIX", "level": 1, "low_grade": -1, "high_grade": 5, "enrollment": 702, "teachers": 47, "lunch_pct": 71.9, "charter": false, "lat": 33.387343, "lng": -111.984675, "ratio": 14.9}, {"name": "Sheely Farms Elementary School", "district": "Tolleson Elementary District (4264)", "city": "PHOENIX", "level": 1, "low_grade": -1, "high_grade": 8, "enrollment": 679, "teachers": 33, "lunch_pct": 81.7, "charter": false, "lat": 33.473701, "lng": -112.262747, "ratio": 20.6}, {"name": "Desert Oasis Elementary School", "district": "Tolleson Elementary District (4264)", "city": "PHOENIX", "level": 1, "low_grade": -1, "high_grade": 8, "enrollment": 681, "teachers": 28, "lunch_pct": 79.9, "charter": false, "lat": 33.4662, "lng": -112.2498, "ratio": 24.3}, {"name": "Abraham Lincoln Traditional School", "district": "Washington Elementary School District (4260)", "city": "PHOENIX", "level": 1, "low_grade": -1, "high_grade": 8, "enrollment": 544, "teachers": 33, "lunch_pct": 43.8, "charter": false, "lat": 33.5813, "lng": -112.144, "ratio": 16.5}, {"name": "Acacia Elementary School", "district": "Washington Elementary School District (4260)", "city": "PHOENIX", "level": 1, "low_grade": 0, "high_grade": 6, "enrollment": 788, "teachers": 41, "lunch_pct": 74.9, "charter": false, "lat": 33.6162, "lng": -112.1238, "ratio": 19.2}, {"name": "Alta Vista Elementary School", "district": "Washington Elementary School District (4260)", "city": "PHOENIX", "level": 1, "low_grade": 0, "high_grade": 6, "enrollment": 559, "teachers": 31, "lunch_pct": 91.8, "charter": false, "lat": 33.5648, "lng": -112.1264, "ratio": 18.0}, {"name": "Cactus Wren Elementary School", "district": "Washington Elementary School District (4260)", "city": "PHOENIX", "level": 1, "low_grade": 0, "high_grade": 6, "enrollment": 422, "teachers": 34, "lunch_pct": 90.8, "charter": false, "lat": 33.5743, "lng": -112.1436, "ratio": 12.4}, {"name": "Chaparral Elementary School", "district": "Washington Elementary School District (4260)", "city": "PHOENIX", "level": 1, "low_grade": -1, "high_grade": 6, "enrollment": 426, "teachers": 25, "lunch_pct": 63.8, "charter": false, "lat": 33.6081, "lng": -112.1403, "ratio": 17.0}, {"name": "Desert View Elementary School", "district": "Washington Elementary School District (4260)", "city": "PHOENIX", "level": 1, "low_grade": -1, "high_grade": 6, "enrollment": 350, "teachers": 30, "lunch_pct": 92.9, "charter": false, "lat": 33.563146, "lng": -112.068748, "ratio": 11.7}, {"name": "Ironwood Elementary School", "district": "Washington Elementary School District (4260)", "city": "PHOENIX", "level": 1, "low_grade": -1, "high_grade": 6, "enrollment": 444, "teachers": 29, "lunch_pct": 65.8, "charter": false, "lat": 33.6193, "lng": -112.1434, "ratio": 15.3}, {"name": "Lakeview Elementary School", "district": "Washington Elementary School District (4260)", "city": "PHOENIX", "level": 1, "low_grade": 0, "high_grade": 6, "enrollment": 455, "teachers": 27, "lunch_pct": 82.6, "charter": false, "lat": 33.5898, "lng": -112.1247, "ratio": 16.9}, {"name": "Lookout Mountain School", "district": "Washington Elementary School District (4260)", "city": "PHOENIX", "level": 1, "low_grade": -1, "high_grade": 6, "enrollment": 881, "teachers": 43, "lunch_pct": 24.0, "charter": false, "lat": 33.625151, "lng": -112.076268, "ratio": 20.5}, {"name": "Manzanita Elementary School", "district": "Washington Elementary School District (4260)", "city": "PHOENIX", "level": 1, "low_grade": -1, "high_grade": 6, "enrollment": 618, "teachers": 40, "lunch_pct": 90.9, "charter": false, "lat": 33.5597, "lng": -112.1438, "ratio": 15.4}, {"name": "Maryland Elementary School", "district": "Washington Elementary School District (4260)", "city": "PHOENIX", "level": 1, "low_grade": -1, "high_grade": 8, "enrollment": 554, "teachers": 35, "lunch_pct": 82.7, "charter": false, "lat": 33.53204, "lng": -112.103247, "ratio": 15.8}, {"name": "Moon Mountain School", "district": "Washington Elementary School District (4260)", "city": "PHOENIX", "level": 1, "low_grade": -1, "high_grade": 6, "enrollment": 508, "teachers": 34, "lunch_pct": 82.7, "charter": false, "lat": 33.6078, "lng": -112.0976, "ratio": 14.9}, {"name": "Mountain View Elementary School", "district": "Washington Elementary School District (4260)", "city": "PHOENIX", "level": 1, "low_grade": -1, "high_grade": 8, "enrollment": 1031, "teachers": 61, "lunch_pct": 102.8, "charter": false, "lat": 33.581, "lng": -112.0832, "ratio": 16.9}, {"name": "Ocotillo School", "district": "Washington Elementary School District (4260)", "city": "PHOENIX", "level": 1, "low_grade": 0, "high_grade": 6, "enrollment": 650, "teachers": 36, "lunch_pct": 78.9, "charter": false, "lat": 33.5339, "lng": -112.1279, "ratio": 18.1}, {"name": "Orangewood School", "district": "Washington Elementary School District (4260)", "city": "PHOENIX", "level": 1, "low_grade": -1, "high_grade": 8, "enrollment": 850, "teachers": 45, "lunch_pct": 81.9, "charter": false, "lat": 33.5449, "lng": -112.0969, "ratio": 18.9}, {"name": "Richard E Miller School", "district": "Washington Elementary School District (4260)", "city": "PHOENIX", "level": 1, "low_grade": 0, "high_grade": 5, "enrollment": 398, "teachers": 26, "lunch_pct": 86.7, "charter": false, "lat": 33.5634, "lng": -112.1022, "ratio": 15.3}, {"name": "Roadrunner Elementary School", "district": "Washington Elementary School District (4260)", "city": "PHOENIX", "level": 1, "low_grade": -1, "high_grade": 6, "enrollment": 691, "teachers": 33, "lunch_pct": 87.8, "charter": false, "lat": 33.5504, "lng": -112.1439, "ratio": 20.9}, {"name": "Sahuaro School", "district": "Washington Elementary School District (4260)", "city": "PHOENIX", "level": 1, "low_grade": -1, "high_grade": 6, "enrollment": 591, "teachers": 35, "lunch_pct": 76.8, "charter": false, "lat": 33.6024, "lng": -112.129, "ratio": 16.9}, {"name": "Shaw Butte School", "district": "Washington Elementary School District (4260)", "city": "PHOENIX", "level": 1, "low_grade": -1, "high_grade": 6, "enrollment": 682, "teachers": 39, "lunch_pct": 83.9, "charter": false, "lat": 33.5977, "lng": -112.1048, "ratio": 17.5}, {"name": "Sunnyslope Elementary School", "district": "Washington Elementary School District (4260)", "city": "PHOENIX", "level": 1, "low_grade": 0, "high_grade": 8, "enrollment": 688, "teachers": 38, "lunch_pct": 92.9, "charter": false, "lat": 33.57409, "lng": -112.070641, "ratio": 18.1}, {"name": "Tumbleweed Elementary School", "district": "Washington Elementary School District (4260)", "city": "PHOENIX", "level": 1, "low_grade": -1, "high_grade": 6, "enrollment": 448, "teachers": 26, "lunch_pct": 76.8, "charter": false, "lat": 33.593975, "lng": -112.144511, "ratio": 17.2}, {"name": "Washington Elementary School", "district": "Washington Elementary School District (4260)", "city": "PHOENIX", "level": 1, "low_grade": -1, "high_grade": 6, "enrollment": 722, "teachers": 44, "lunch_pct": 90.9, "charter": false, "lat": 33.5547, "lng": -112.115817, "ratio": 16.4}, {"name": "John Jacobs Elementary School", "district": "Washington Elementary School District (4260)", "city": "PHOENIX", "level": 1, "low_grade": -1, "high_grade": 6, "enrollment": 415, "teachers": 26, "lunch_pct": 74.9, "charter": false, "lat": 33.6174, "lng": -112.1094, "ratio": 16.0}, {"name": "Washington Elementary School District Online Learning Academ", "district": "Washington Elementary School District (4260)", "city": "PHOENIX", "level": 1, "low_grade": 0, "high_grade": 8, "enrollment": 143, "teachers": null, "lunch_pct": 0.0, "charter": false, "lat": 33.561226, "lng": -112.100539, "ratio": 143.0}, {"name": "Wilson Primary School", "district": "Wilson Elementary District (4261)", "city": "PHOENIX", "level": 1, "low_grade": -1, "high_grade": 3, "enrollment": 495, "teachers": 30, "lunch_pct": 86.9, "charter": false, "lat": 33.4533, "lng": -112.0167, "ratio": 16.5}], "middle": [{"name": "Sonoran Trails Middle School", "district": "Cave Creek Unified District (4244)", "city": "Phoenix", "level": 2, "low_grade": 6, "high_grade": 8, "enrollment": 761, "teachers": 35, "lunch_pct": 6.8, "charter": false, "lat": 33.732355, "lng": -111.96185, "ratio": 21.7}, {"name": "South Pointe Junior High School", "district": "Kaizen Education Foundation dba South Pointe Junio (78965)", "city": "PHOENIX", "level": 2, "low_grade": 6, "high_grade": 8, "enrollment": 133, "teachers": null, "lunch_pct": 79.7, "charter": true, "lat": 33.37353, "lng": -112.071697, "ratio": 133.0}, {"name": "Imagine Cortez Park Middle", "district": "Cortez Park Charter Middle School Inc. (79988)", "city": "PHOENIX", "level": 2, "low_grade": 6, "high_grade": 8, "enrollment": 270, "teachers": null, "lunch_pct": 91.5, "charter": true, "lat": 33.565712, "lng": -112.13477, "ratio": 270.0}, {"name": "Granada Elementary School-East Campus", "district": "Alhambra Elementary District (4280)", "city": "PHOENIX", "level": 2, "low_grade": 4, "high_grade": 8, "enrollment": 783, "teachers": 37, "lunch_pct": 65.9, "charter": false, "lat": 33.5028, "lng": -112.124, "ratio": 21.2}, {"name": "Choice Learning Academy", "district": "Alhambra Elementary District (4280)", "city": "PHOENIX", "level": 2, "low_grade": 6, "high_grade": 8, "enrollment": 450, "teachers": 25, "lunch_pct": 93.8, "charter": false, "lat": 33.5161, "lng": -112.1089, "ratio": 18.0}, {"name": "Sevilla Elementary School-West Campus", "district": "Alhambra Elementary District (4280)", "city": "PHOENIX", "level": 2, "low_grade": 5, "high_grade": 8, "enrollment": 667, "teachers": 32, "lunch_pct": 76.8, "charter": false, "lat": 33.5162, "lng": -112.1436, "ratio": 20.8}, {"name": "Arizona Conservatory for Arts and Academics Middle School", "district": "Edkey Inc. - Arizona Conservatory for Arts and Ac (79981)", "city": "PHOENIX", "level": 2, "low_grade": 6, "high_grade": 8, "enrollment": 141, "teachers": null, "lunch_pct": 46.8, "charter": true, "lat": 33.6373, "lng": -112.1196, "ratio": 141.0}, {"name": "Imagine Desert West Middle", "district": "Imagine Desert West Middle Inc. (89563)", "city": "PHOENIX", "level": 2, "low_grade": 6, "high_grade": 8, "enrollment": 444, "teachers": null, "lunch_pct": 92.8, "charter": true, "lat": 33.466749, "lng": -112.207211, "ratio": 444.0}, {"name": "Imagine Camelback Middle", "district": "Imagine Camelback Middle Inc. (89561)", "city": "Phoenix", "level": 2, "low_grade": 6, "high_grade": 8, "enrollment": 161, "teachers": null, "lunch_pct": 86.3, "charter": true, "lat": 33.5108, "lng": -112.1002, "ratio": 161.0}, {"name": "South Valley Prep and Arts School", "district": "South Valley Academy Inc. (90540)", "city": "PHOENIX", "level": 2, "low_grade": 5, "high_grade": 8, "enrollment": 212, "teachers": null, "lunch_pct": 77.8, "charter": true, "lat": 33.379666, "lng": -111.997217, "ratio": 212.0}, {"name": "Vista College Prep Sueno Park", "district": "Vista College Preparatory Inc. (91948)", "city": "PHOENIX", "level": 2, "low_grade": 5, "high_grade": 8, "enrollment": 498, "teachers": null, "lunch_pct": 66.7, "charter": true, "lat": 33.467213, "lng": -112.156387, "ratio": 498.0}, {"name": "Vista College Preparatory - Metro North Middle", "district": "Vista College Preparatory Inc. (91948)", "city": "PHOENIX", "level": 2, "low_grade": 5, "high_grade": 8, "enrollment": 48, "teachers": null, "lunch_pct": 72.9, "charter": true, "lat": 33.581524, "lng": -112.106306, "ratio": 48.0}, {"name": "ASU Preparatory Academy - Phoenix Middle School", "district": "ASU Preparatory Academy (92325)", "city": "PHOENIX", "level": 2, "low_grade": 5, "high_grade": 8, "enrollment": 409, "teachers": null, "lunch_pct": 54.8, "charter": true, "lat": 33.454094, "lng": -112.063964, "ratio": 409.0}, {"name": "Mission Montessori Academy's Middle Years Program", "district": "The Farm at Mission Montessori Academy (91340)", "city": "PHOENIX", "level": 2, "low_grade": 4, "high_grade": 8, "enrollment": 51, "teachers": null, "lunch_pct": 0.0, "charter": true, "lat": 33.587521, "lng": -111.874885, "ratio": 51.0}, {"name": "Pat Tillman Middle School", "district": "Balsz Elementary District (4268)", "city": "Phoenix", "level": 2, "low_grade": 6, "high_grade": 8, "enrollment": 652, "teachers": 39, "lunch_pct": 99.8, "charter": false, "lat": 33.4613, "lng": -111.9893, "ratio": 16.7}, {"name": "Desert Sands Academy of Mass Communication & Journalism", "district": "Cartwright Elementary District (4282)", "city": "PHOENIX", "level": 2, "low_grade": 6, "high_grade": 8, "enrollment": 572, "teachers": 29, "lunch_pct": 71.9, "charter": false, "lat": 33.5029, "lng": -112.1955, "ratio": 19.7}, {"name": "Estrella Middle School", "district": "Cartwright Elementary District (4282)", "city": "PHOENIX", "level": 2, "low_grade": 6, "high_grade": 8, "enrollment": 810, "teachers": 41, "lunch_pct": 62.0, "charter": false, "lat": 33.4906, "lng": -112.2179, "ratio": 19.8}, {"name": "Marc T. Atkinson Middle School & Gifted Academy", "district": "Cartwright Elementary District (4282)", "city": "PHOENIX", "level": 2, "low_grade": 6, "high_grade": 8, "enrollment": 184, "teachers": 11, "lunch_pct": 76.1, "charter": false, "lat": 33.4991, "lng": -112.1726, "ratio": 16.7}, {"name": "Raul H. Castro Middle School: Academy of Fine Arts", "district": "Cartwright Elementary District (4282)", "city": "PHOENIX", "level": 2, "low_grade": 6, "high_grade": 8, "enrollment": 598, "teachers": 23, "lunch_pct": 76.8, "charter": false, "lat": 33.478378, "lng": -112.230234, "ratio": 26.0}, {"name": "Compass Center", "district": "Creighton Elementary District (4263)", "city": "PHOENIX", "level": 2, "low_grade": 4, "high_grade": 8, "enrollment": 0, "teachers": null, "lunch_pct": 0.0, "charter": false, "lat": 33.4902, "lng": -112.0226, "ratio": 1.0}, {"name": "Santa Maria Middle School", "district": "Fowler Elementary District (4273)", "city": "PHOENIX", "level": 2, "low_grade": 6, "high_grade": 8, "enrollment": 622, "teachers": 27, "lunch_pct": 56.8, "charter": false, "lat": 33.4238, "lng": -112.2158, "ratio": 23.0}, {"name": "Western Valley Middle School", "district": "Fowler Elementary District (4273)", "city": "PHOENIX", "level": 2, "low_grade": 6, "high_grade": 8, "enrollment": 550, "teachers": 25, "lunch_pct": 60.9, "charter": false, "lat": 33.4304, "lng": -112.1933, "ratio": 22.0}, {"name": "Isaac Middle School", "district": "Isaac Elementary District (4259)", "city": "PHOENIX", "level": 2, "low_grade": 6, "high_grade": 8, "enrollment": 546, "teachers": 32, "lunch_pct": 86.8, "charter": false, "lat": 33.4668, "lng": -112.1331, "ratio": 17.1}, {"name": "Morris K. Udall Escuela de Bellas Artes", "district": "Isaac Elementary District (4259)", "city": "PHOENIX", "level": 2, "low_grade": 6, "high_grade": 8, "enrollment": 566, "teachers": 30, "lunch_pct": 79.9, "charter": false, "lat": 33.4582, "lng": -112.1394, "ratio": 18.9}, {"name": "Kyrene Akimel A-Al Middle School", "district": "Kyrene Elementary District (4267)", "city": "PHOENIX", "level": 2, "low_grade": 5, "high_grade": 8, "enrollment": 845, "teachers": 49, "lunch_pct": 23.9, "charter": false, "lat": 33.2932, "lng": -112.025, "ratio": 17.2}, {"name": "Kyrene Altadena Middle School", "district": "Kyrene Elementary District (4267)", "city": "Phoenix", "level": 2, "low_grade": 5, "high_grade": 8, "enrollment": 962, "teachers": 41, "lunch_pct": 9.9, "charter": false, "lat": 33.3135, "lng": -112.0572, "ratio": 23.5}, {"name": "Kyrene Centennial Middle School", "district": "Kyrene Elementary District (4267)", "city": "PHOENIX", "level": 2, "low_grade": 5, "high_grade": 8, "enrollment": 648, "teachers": 38, "lunch_pct": 41.8, "charter": false, "lat": 33.3211, "lng": -112.0074, "ratio": 17.1}, {"name": "Madison Meadows School", "district": "Madison Elementary District (4270)", "city": "PHOENIX", "level": 2, "low_grade": 5, "high_grade": 8, "enrollment": 803, "teachers": 34, "lunch_pct": 18.9, "charter": false, "lat": 33.533909, "lng": -112.076548, "ratio": 23.6}, {"name": "Madison #1 Elementary School", "district": "Madison Elementary District (4270)", "city": "PHOENIX", "level": 2, "low_grade": 5, "high_grade": 8, "enrollment": 913, "teachers": 45, "lunch_pct": 32.0, "charter": false, "lat": 33.5172, "lng": -112.0453, "ratio": 20.3}, {"name": "Madison Park School", "district": "Madison Elementary District (4270)", "city": "Phoenix", "level": 2, "low_grade": 5, "high_grade": 8, "enrollment": 424, "teachers": 20, "lunch_pct": 53.8, "charter": false, "lat": 33.50129, "lng": -112.050022, "ratio": 21.2}, {"name": "Osborn Middle School", "district": "Osborn Elementary District (4262)", "city": "PHOENIX", "level": 2, "low_grade": 7, "high_grade": 8, "enrollment": 504, "teachers": 32, "lunch_pct": 80.0, "charter": false, "lat": 33.5075, "lng": -112.088, "ratio": 15.8}, {"name": "Greenway Middle School", "district": "Paradise Valley Unified District (4241)", "city": "PHOENIX", "level": 2, "low_grade": 7, "high_grade": 8, "enrollment": 419, "teachers": 25, "lunch_pct": 73.7, "charter": false, "lat": 33.6234, "lng": -112.0173, "ratio": 16.8}, {"name": "Shea Middle School", "district": "Paradise Valley Unified District (4241)", "city": "PHOENIX", "level": 2, "low_grade": 5, "high_grade": 8, "enrollment": 511, "teachers": 36, "lunch_pct": 36.8, "charter": false, "lat": 33.5838, "lng": -112.0229, "ratio": 14.2}, {"name": "Vista Verde Middle School", "district": "Paradise Valley Unified District (4241)", "city": "PHOENIX", "level": 2, "low_grade": 7, "high_grade": 8, "enrollment": 544, "teachers": 35, "lunch_pct": 70.8, "charter": false, "lat": 33.6488, "lng": -112.0217, "ratio": 15.5}, {"name": "Explorer Middle School", "district": "Paradise Valley Unified District (4241)", "city": "PHOENIX", "level": 2, "low_grade": 7, "high_grade": 8, "enrollment": 678, "teachers": 34, "lunch_pct": 5.8, "charter": false, "lat": 33.688, "lng": -111.9856, "ratio": 19.9}, {"name": "Mountain Trail Middle School", "district": "Paradise Valley Unified District (4241)", "city": "PHOENIX", "level": 2, "low_grade": 7, "high_grade": 8, "enrollment": 680, "teachers": 34, "lunch_pct": 24.0, "charter": false, "lat": 33.6939, "lng": -112.0338, "ratio": 20.0}, {"name": "Echo Mountain Intermediate School", "district": "Paradise Valley Unified District (4241)", "city": "PHOENIX", "level": 2, "low_grade": 4, "high_grade": 6, "enrollment": 361, "teachers": 23, "lunch_pct": 75.6, "charter": false, "lat": 33.6507, "lng": -112.0431, "ratio": 15.7}, {"name": "Palomino Intermediate School", "district": "Paradise Valley Unified District (4241)", "city": "PHOENIX", "level": 2, "low_grade": 4, "high_grade": 6, "enrollment": 435, "teachers": 27, "lunch_pct": 81.8, "charter": false, "lat": 33.6307, "lng": -112.0186, "ratio": 16.1},