{"hanover": {"elem": [{"name": "River Ridge Elementary School", "district": "River Ridge CUSD 210", "city": "Hanover", "level": 1, "low_grade": -1, "high_grade": 5, "enrollment": 220, "teachers": 21, "lunch_pct": 57.7, "charter": false, "lat": 42.3119, "lng": -90.2707, "ratio": 10.5}], "middle": [{"name": "River Ridge Middle School", "district": "River Ridge CUSD 210", "city": "Hanover", "level": 2, "low_grade": 6, "high_grade": 8, "enrollment": 105, "teachers": 9, "lunch_pct": 47.6, "charter": false, "lat": 42.3119, "lng": -90.2707, "ratio": 11.7}], "high": [{"name": "River Ridge High School", "district": "River Ridge CUSD 210", "city": "Hanover", "level": 3, "low_grade": 9, "high_grade": 12, "enrollment": 135, "teachers": 14, "lunch_pct": 34.8, "charter": false, "lat": 42.3119, "lng": -90.2707, "ratio": 9.6}]}, "casey": {"elem": [{"name": "Monroe Elem School", "district": "Casey-Westfield CUSD 4C", "city": "Casey", "level": 1, "low_grade": -1, "high_grade": 6, "enrollment": 534, "teachers": 29, "lunch_pct": 45.1, "charter": false, "lat": 39.294349, "lng": -87.988484, "ratio": 18.4}], "middle": [], "high": [{"name": "Casey-Westfield Jr/Sr HS", "district": "Casey-Westfield CUSD 4C", "city": "Casey", "level": 3, "low_grade": 7, "high_grade": 12, "enrollment": 365, "teachers": 25, "lunch_pct": 49.6, "charter": false, "lat": 39.304955, "lng": -87.988365, "ratio": 14.6}]}, "farmer city": {"elem": [{"name": "Ruth M Schneider Elem School", "district": "Blue Ridge CUSD 18", "city": "Farmer City", "level": 1, "low_grade": -1, "high_grade": 3, "enrollment": 272, "teachers": 18, "lunch_pct": 47.8, "charter": false, "lat": 40.2468, "lng": -88.6472, "ratio": 15.1}], "middle": [], "high": [{"name": "Blue Ridge High School", "district": "Blue Ridge CUSD 18", "city": "Farmer City", "level": 3, "low_grade": 9, "high_grade": 12, "enrollment": 188, "teachers": 20, "lunch_pct": 46.3, "charter": false, "lat": 40.2478, "lng": -88.647, "ratio": 9.4}]}, "mansfield": {"elem": [], "middle": [{"name": "Blue Ridge Intermediate-Jr HS", "district": "Blue Ridge CUSD 18", "city": "Mansfield", "level": 2, "low_grade": 4, "high_grade": 8, "enrollment": 210, "teachers": 17, "lunch_pct": 47.6, "charter": false, "lat": 40.210485, "lng": -88.500697, "ratio": 12.4}], "high": []}, "norris city": {"elem": [{"name": "Norris City-Omaha Elem School", "district": "Norris City-Omaha-Enfield CUSD 3", "city": "Norris City", "level": 1, "low_grade": -1, "high_grade": 8, "enrollment": 414, "teachers": 26, "lunch_pct": 51.2, "charter": false, "lat": 37.963308, "lng": -88.330116, "ratio": 15.9}], "middle": [], "high": [{"name": "Norris City-Omaha-Enfield H S", "district": "Norris City-Omaha-Enfield CUSD 3", "city": "Norris City", "level": 3, "low_grade": 9, "high_grade": 12, "enrollment": 203, "teachers": 19, "lunch_pct": 50.7, "charter": false, "lat": 37.974405, "lng": -88.326858, "ratio": 10.7}, {"name": "ROE 20 Learning Alt Branch School", "district": "Edw/Glt/Hlt/Hdn/Pop/Sln/Wbh/Wn/Wh", "city": "Norris City", "level": 3, "low_grade": 6, "high_grade": 12, "enrollment": 0, "teachers": 2, "lunch_pct": 0.0, "charter": false, "lat": 37.978176, "lng": -88.324961, "ratio": 0.5}, {"name": "ROE20 Learning Alternative Branch", "district": "Edw/Glt/Hlt/Hdn/Pop/Sln/Wbh/Wn/Wh", "city": "Norris City", "level": 3, "low_grade": 6, "high_grade": 12, "enrollment": 0, "teachers": 2, "lunch_pct": 0.0, "charter": false, "lat": 37.978176, "lng": -88.324961, "ratio": 0.5}]}, "enfield": {"elem": [{"name": "Booth Elementary School", "district": "Norris City-Omaha-Enfield CUSD 3", "city": "Enfield", "level": 1, "low_grade": -1, "high_grade": 5, "enrollment": 82, "teachers": 11, "lunch_pct": 84.1, "charter": false, "lat": 38.101299, "lng": -88.338512, "ratio": 7.5}], "middle": [], "high": []}, "forrest": {"elem": [], "middle": [{"name": "Prairie Central Upper Elementary", "district": "Prairie Central CUSD 8", "city": "Forrest", "level": 2, "low_grade": 5, "high_grade": 6, "enrollment": 237, "teachers": 21, "lunch_pct": 48.1, "charter": false, "lat": 40.752021, "lng": -88.411475, "ratio": 11.3}, {"name": "Prairie Central Jr High School", "district": "Prairie Central CUSD 8", "city": "Forrest", "level": 2, "low_grade": 7, "high_grade": 8, "enrollment": 228, "teachers": 20, "lunch_pct": 42.5, "charter": false, "lat": 40.757261, "lng": -88.413361, "ratio": 11.4}], "high": []}, "fairbury": {"elem": [{"name": "Prairie Central  Elem School", "district": "Prairie Central CUSD 8", "city": "Fairbury", "level": 1, "low_grade": 2, "high_grade": 4, "enrollment": 322, "teachers": 29, "lunch_pct": 45.3, "charter": false, "lat": 40.740007, "lng": -88.517315, "ratio": 11.1}], "middle": [], "high": [{"name": "Prairie Central High School", "district": "Prairie Central CUSD 8", "city": "Fairbury", "level": 3, "low_grade": 9, "high_grade": 12, "enrollment": 516, "teachers": 42, "lunch_pct": 35.9, "charter": false, "lat": 40.751846, "lng": -88.506294, "ratio": 12.3}]}, "chatsworth": {"elem": [{"name": "Prairie Central Primary East", "district": "Prairie Central CUSD 8", "city": "Chatsworth", "level": 1, "low_grade": -1, "high_grade": 1, "enrollment": 144, "teachers": 12, "lunch_pct": 63.9, "charter": false, "lat": 40.74921, "lng": -88.291659, "ratio": 12.0}], "middle": [], "high": []}, "chenoa": {"elem": [{"name": "Prairie Central Primary West", "district": "Prairie Central CUSD 8", "city": "Chenoa", "level": 1, "low_grade": -1, "high_grade": 1, "enrollment": 278, "teachers": 16, "lunch_pct": 37.8, "charter": false, "lat": 40.737561, "lng": -88.719101, "ratio": 17.4}], "middle": [], "high": []}, "chicago": {"elem": [{"name": "Horizon Science Acad-Belmont", "district": "Horizon Science Acad-Belmont", "city": "Chicago", "level": 1, "low_grade": 0, "high_grade": 8, "enrollment": 555, "teachers": 42, "lunch_pct": 97.5, "charter": true, "lat": 41.925459, "lng": -87.770026, "ratio": 13.2}, {"name": "Betty Shabazz Internl Charter Sch", "district": "Betty Shabazz  Internl Chrtr Sch", "city": "Chicago", "level": 1, "low_grade": 0, "high_grade": 8, "enrollment": 312, "teachers": 17, "lunch_pct": 90.4, "charter": true, "lat": 41.752403, "lng": -87.599982, "ratio": 18.4}, {"name": "Barbara A Sizemore Campus", "district": "Betty Shabazz  Internl Chrtr Sch", "city": "Chicago", "level": 1, "low_grade": 0, "high_grade": 8, "enrollment": 262, "teachers": 15, "lunch_pct": 90.1, "charter": true, "lat": 41.775011, "lng": -87.634407, "ratio": 17.5}, {"name": "Bronzeville Academy Charter Sch", "district": "Bronzeville Academy Chtr School", "city": "Chicago", "level": 1, "low_grade": 0, "high_grade": 8, "enrollment": 330, "teachers": 1, "lunch_pct": 95.8, "charter": true, "lat": 41.8052, "lng": -87.606919, "ratio": 330.0}, {"name": "Avondale - Logandale Elem Sch", "district": "City of Chicago SD 299", "city": "Chicago", "level": 1, "low_grade": -1, "high_grade": 8, "enrollment": 512, "teachers": 36, "lunch_pct": 90.8, "charter": false, "lat": 41.9343, "lng": -87.708, "ratio": 14.2}, {"name": "Chavez Elem Multicultural Acad Ct", "district": "City of Chicago SD 299", "city": "Chicago", "level": 1, "low_grade": -1, "high_grade": 8, "enrollment": 813, "teachers": 51, "lunch_pct": 96.8, "charter": false, "lat": 41.807577, "lng": -87.665725, "ratio": 15.9}, {"name": "Jordan Elem Community School", "district": "City of Chicago SD 299", "city": "Chicago", "level": 1, "low_grade": -1, "high_grade": 8, "enrollment": 499, "teachers": 40, "lunch_pct": 89.2, "charter": false, "lat": 42.0173, "lng": -87.6781, "ratio": 12.5}, {"name": "Audubon Elem School", "district": "City of Chicago SD 299", "city": "Chicago", "level": 1, "low_grade": -1, "high_grade": 8, "enrollment": 577, "teachers": 44, "lunch_pct": 11.6, "charter": false, "lat": 41.9454, "lng": -87.6816, "ratio": 13.1}, {"name": "Avalon Park Elem School", "district": "City of Chicago SD 299", "city": "Chicago", "level": 1, "low_grade": -1, "high_grade": 8, "enrollment": 226, "teachers": 17, "lunch_pct": 95.1, "charter": false, "lat": 41.7485, "lng": -87.5913, "ratio": 13.3}, {"name": "Barnard Elem Comp Math & Sci Ctr", "district": "City of Chicago SD 299", "city": "Chicago", "level": 1, "low_grade": -1, "high_grade": 8, "enrollment": 265, "teachers": 19, "lunch_pct": 72.1, "charter": false, "lat": 41.7055, "lng": -87.6585, "ratio": 13.9}, {"name": "Barry Elem School", "district": "City of Chicago SD 299", "city": "Chicago", "level": 1, "low_grade": -1, "high_grade": 6, "enrollment": 443, "teachers": 32, "lunch_pct": 85.3, "charter": false, "lat": 41.9328, "lng": -87.7397, "ratio": 13.8}, {"name": "Barton Elem School", "district": "City of Chicago SD 299", "city": "Chicago", "level": 1, "low_grade": -1, "high_grade": 8, "enrollment": 393, "teachers": 25, "lunch_pct": 92.9, "charter": false, "lat": 41.7546, "lng": -87.6714, "ratio": 15.7}, {"name": "Bass Elem School", "district": "City of Chicago SD 299", "city": "Chicago", "level": 1, "low_grade": -1, "high_grade": 8, "enrollment": 341, "teachers": 31, "lunch_pct": 97.7, "charter": false, "lat": 41.7745, "lng": -87.6535, "ratio": 11.0}, {"name": "Bateman Elem School", "district": "City of Chicago SD 299", "city": "Chicago", "level": 1, "low_grade": -1, "high_grade": 8, "enrollment": 885, "teachers": 59, "lunch_pct": 66.4, "charter": false, "lat": 41.9582, "lng": -87.7024, "ratio": 15.0}, {"name": "Nicholson Tech Acad Elem Sch", "district": "City of Chicago SD 299", "city": "Chicago", "level": 1, "low_grade": -1, "high_grade": 8, "enrollment": 430, "teachers": 28, "lunch_pct": 98.1, "charter": false, "lat": 41.7844, "lng": -87.6476, "ratio": 15.4}, {"name": "Beaubien Elem School", "district": "City of Chicago SD 299", "city": "Chicago", "level": 1, "low_grade": -1, "high_grade": 8, "enrollment": 966, "teachers": 60, "lunch_pct": 40.6, "charter": false, "lat": 41.9721, "lng": -87.7571, "ratio": 16.1}, {"name": "Beethoven Elem School", "district": "City of Chicago SD 299", "city": "Chicago", "level": 1, "low_grade": -1, "high_grade": 8, "enrollment": 264, "teachers": 20, "lunch_pct": 95.1, "charter": false, "lat": 41.8083, "lng": -87.6272, "ratio": 13.2}, {"name": "Beidler Elem School", "district": "City of Chicago SD 299", "city": "Chicago", "level": 1, "low_grade": -1, "high_grade": 8, "enrollment": 261, "teachers": 22, "lunch_pct": 96.6, "charter": false, "lat": 41.8852, "lng": -87.7053, "ratio": 11.9}, {"name": "Belding Elem School", "district": "City of Chicago SD 299", "city": "Chicago", "level": 1, "low_grade": -1, "high_grade": 8, "enrollment": 564, "teachers": 39, "lunch_pct": 49.8, "charter": false, "lat": 41.9587, "lng": -87.7337, "ratio": 14.5}, {"name": "Bell Elem School", "district": "City of Chicago SD 299", "city": "Chicago", "level": 1, "low_grade": 0, "high_grade": 8, "enrollment": 886, "teachers": 58, "lunch_pct": 14.1, "charter": false, "lat": 41.9495, "lng": -87.6866, "ratio": 15.3}, {"name": "Bennett Elem School", "district": "City of Chicago SD 299", "city": "Chicago", "level": 1, "low_grade": -1, "high_grade": 8, "enrollment": 258, "teachers": 17, "lunch_pct": 87.2, "charter": false, "lat": 41.7103, "lng": -87.617, "ratio": 15.2}, {"name": "Black Magnet Elem School", "district": "City of Chicago SD 299", "city": "Chicago", "level": 1, "low_grade": 0, "high_grade": 8, "enrollment": 395, "teachers": 26, "lunch_pct": 62.3, "charter": false, "lat": 41.7294, "lng": -87.5764, "ratio": 15.2}, {"name": "Blaine Elem School", "district": "City of Chicago SD 299", "city": "Chicago", "level": 1, "low_grade": -1, "high_grade": 8, "enrollment": 643, "teachers": 48, "lunch_pct": 12.9, "charter": false, "lat": 41.9509, "lng": -87.665, "ratio": 13.4}, {"name": "Bond Elem School", "district": "City of Chicago SD 299", "city": "Chicago", "level": 1, "low_grade": -1, "high_grade": 8, "enrollment": 229, "teachers": 22, "lunch_pct": 95.6, "charter": false, "lat": 41.7653, "lng": -87.6533, "ratio": 10.4}, {"name": "Boone Elem School", "district": "City of Chicago SD 299", "city": "Chicago", "level": 1, "low_grade": -1, "high_grade": 8, "enrollment": 724, "teachers": 56, "lunch_pct": 88.4, "charter": false, "lat": 42.0036, "lng": -87.6979, "ratio": 12.9}, {"name": "Bradwell Comm Arts & Sci Elem Sch", "district": "City of Chicago SD 299", "city": "Chicago", "level": 1, "low_grade": -1, "high_grade": 8, "enrollment": 424, "teachers": 30, "lunch_pct": 96.2, "charter": false, "lat": 41.7546, "lng": -87.5574, "ratio": 14.1}, {"name": "Haley Elem Academy", "district": "City of Chicago SD 299", "city": "Chicago", "level": 1, "low_grade": -1, "high_grade": 8, "enrollment": 440, "teachers": 30, "lunch_pct": 96.6, "charter": false, "lat": 41.686416, "lng": -87.633381, "ratio": 14.7}, {"name": "Brennemann Elem School", "district": "City of Chicago SD 299", "city": "Chicago", "level": 1, "low_grade": -1, "high_grade": 8, "enrollment": 440, "teachers": 39, "lunch_pct": 85.0, "charter": false, "lat": 41.9602, "lng": -87.6494, "ratio": 11.3}, {"name": "Brentano Elem Math & Science Acad", "district": "City of Chicago SD 299", "city": "Chicago", "level": 1, "low_grade": -1, "high_grade": 8, "enrollment": 685, "teachers": 46, "lunch_pct": 43.6, "charter": false, "lat": 41.9311, "lng": -87.6961, "ratio": 14.9}, {"name": "Bridge Elem School", "district": "City of Chicago SD 299", "city": "Chicago", "level": 1, "low_grade": -1, "high_grade": 8, "enrollment": 1088, "teachers": 65, "lunch_pct": 56.1, "charter": false, "lat": 41.949686, "lng": -87.799, "ratio": 16.7}, {"name": "Bright Elem School", "district": "City of Chicago SD 299", "city": "Chicago", "level": 1, "low_grade": -1, "high_grade": 8, "enrollment": 230, "teachers": 12, "lunch_pct": 90.0, "charter": false, "lat": 41.6998, "lng": -87.5623, "ratio": 19.2}, {"name": "Brown  W Elem School", "district": "City of Chicago SD 299", "city": "Chicago", "level": 1, "low_grade": -1, "high_grade": 8, "enrollment": 205, "teachers": 20, "lunch_pct": 94.6, "charter": false, "lat": 41.883, "lng": -87.6711, "ratio": 10.2}, {"name": "Brownell Elem School", "district": "City of Chicago SD 299", "city": "Chicago", "level": 1, "low_grade": -1, "high_grade": 6, "enrollment": 135, "teachers": 14, "lunch_pct": 97.0, "charter": false, "lat": 41.7716, "lng": -87.6214, "ratio": 9.6}, {"name": "Bouchet Elem Math & Science Acad", "district": "City of Chicago SD 299", "city": "Chicago", "level": 1, "low_grade": -1, "high_grade": 8, "enrollment": 589, "teachers": 41, "lunch_pct": 96.3, "charter": false, "lat": 41.7614, "lng": -87.5758, "ratio": 14.4}, {"name": "Budlong Elem School", "district": "City of Chicago SD 299", "city": "Chicago", "level": 1, "low_grade": -1, "high_grade": 8, "enrollment": 682, "teachers": 50, "lunch_pct": 60.9, "charter": false, "lat": 41.9753, "lng": -87.6968, "ratio": 13.6}, {"name": "Burbank Elem School", "district": "City of Chicago SD 299", "city": "Chicago", "level": 1, "low_grade": -1, "high_grade": 8, "enrollment": 708, "teachers": 49, "lunch_pct": 86.4, "charter": false, "lat": 41.9177, "lng": -87.7822, "ratio": 14.4}, {"name": "Turner-Drew Elem Language Academy", "district": "City of Chicago SD 299", "city": "Chicago", "level": 1, "low_grade": 0, "high_grade": 8, "enrollment": 199, "teachers": 14, "lunch_pct": 83.4, "charter": false, "lat": 41.7257, "lng": -87.6305, "ratio": 14.2}, {"name": "Burke Elem School", "district": "City of Chicago SD 299", "city": "Chicago", "level": 1, "low_grade": -1, "high_grade": 8, "enrollment": 281, "teachers": 26, "lunch_pct": 96.8, "charter": false, "lat": 41.7972, "lng": -87.6165, "ratio": 10.8}, {"name": "Burley Elem School", "district": "City of Chicago SD 299", "city": "Chicago", "level": 1, "low_grade": 0, "high_grade": 8, "enrollment": 497, "teachers": 30, "lunch_pct": 12.9, "charter": false, "lat": 41.9381, "lng": -87.6698, "ratio": 16.6}, {"name": "Burnham Elem Inclusive Academy", "district": "City of Chicago SD 299", "city": "Chicago", "level": 1, "low_grade": -1, "high_grade": 8, "enrollment": 421, "teachers": 32, "lunch_pct": 93.6, "charter": false, "lat": 41.7203, "lng": -87.5778, "ratio": 13.2}, {"name": "Burnside Elem Scholastic Academy", "district": "City of Chicago SD 299", "city": "Chicago", "level": 1, "low_grade": -1, "high_grade": 8, "enrollment": 308, "teachers": 27, "lunch_pct": 77.3, "charter": false, "lat": 41.7286, "lng": -87.6076, "ratio": 11.4}, {"name": "Burr Elem School", "district": "City of Chicago SD 299", "city": "Chicago", "level": 1, "low_grade": 0, "high_grade": 8, "enrollment": 478, "teachers": 30, "lunch_pct": 26.2, "charter": false, "lat": 41.9121, "lng": -87.6687, "ratio": 15.9}, {"name": "Burroughs Elem School", "district": "City of Chicago SD 299", "city": "Chicago", "level": 1, "low_grade": -1, "high_grade": 8, "enrollment": 323, "teachers": 29, "lunch_pct": 92.9, "charter": false, "lat": 41.8288, "lng": -87.6926, "ratio": 11.1}, {"name": "Brunson Math & Sci Specialty Elem", "district": "City of Chicago SD 299", "city": "Chicago", "level": 1, "low_grade": -1, "high_grade": 8, "enrollment": 421, "teachers": 31, "lunch_pct": 92.9, "charter": false, "lat": 41.8977, "lng": -87.7659, "ratio": 13.6}, {"name": "Byrne Elem School", "district": "City of Chicago SD 299", "city": "Chicago", "level": 1, "low_grade": 0, "high_grade": 8, "enrollment": 628, "teachers": 42, "lunch_pct": 51.0, "charter": false, "lat": 41.795, "lng": -87.7913, "ratio": 15.0}, {"name": "Caldwell Elem Acad of Math & Sci", "district": "City of Chicago SD 299", "city": "Chicago", "level": 1, "low_grade": -1, "high_grade": 8, "enrollment": 205, "teachers": 19, "lunch_pct": 94.1, "charter": false, "lat": 41.7392, "lng": -87.5811, "ratio": 10.8}, {"name": "De Diego Elem Community Academy", "district": "City of Chicago SD 299", "city": "Chicago", "level": 1, "low_grade": -1, "high_grade": 8, "enrollment": 417, "teachers": 42, "lunch_pct": 89.2, "charter": false, "lat": 41.9057, "lng": -87.6854, "ratio": 9.9}, {"name": "Cameron Elem School", "district": "City of Chicago SD 299", "city": "Chicago", "level": 1, "low_grade": -1, "high_grade": 8, "enrollment": 570, "teachers": 53, "lunch_pct": 97.4, "charter": false, "lat": 41.904256, "lng": -87.718108, "ratio": 10.8}, {"name": "Canty Elem School", "district": "City of Chicago SD 299", "city": "Chicago", "level": 1, "low_grade": -1, "high_grade": 8, "enrollment": 818, "teachers": 58, "lunch_pct": 50.2, "charter": false, "lat": 41.9479, "lng": -87.8298, "ratio": 14.1}, {"name": "Carnegie Elem School", "district": "City of Chicago SD 299", "city": "Chicago", "level": 1, "low_grade": -1, "high_grade": 8, "enrollment": 443, "teachers": 33, "lunch_pct": 81.5, "charter": false, "lat": 41.7836, "lng": -87.5911, "ratio": 13.4}, {"name": "Curtis Elem School", "district": "City of Chicago SD 299", "city": "Chicago", "level": 1, "low_grade": -1, "high_grade": 8, "enrollment": 381, "teachers": 28, "lunch_pct": 97.1, "charter": false, "lat": 41.6857, "lng": -87.6217, "ratio": 13.6}, {"name": "Mays Elem Academy", "district": "City of Chicago SD 299", "city": "Chicago", "level": 1, "low_grade": -1, "high_grade": 8, "enrollment": 238, "teachers": 19, "lunch_pct": 77.7, "charter": false, "lat": 41.7728, "lng": -87.6462, "ratio": 12.5}, {"name": "Carroll Elem School", "district": "City of Chicago SD 299", "city": "Chicago", "level": 1, "low_grade": -1, "high_grade": 8, "enrollment": 421, "teachers": 31, "lunch_pct": 87.9, "charter": false, "lat": 41.7421, "lng": -87.6969, "ratio": 13.6}, {"name": "Carter Elem School", "district": "City of Chicago SD 299", "city": "Chicago", "level": 1, "low_grade": -1, "high_grade": 8, "enrollment": 299, "teachers": 18, "lunch_pct": 79.9, "charter": false, "lat": 41.7897, "lng": -87.6234, "ratio": 16.6}, {"name": "Cassell Elem School", "district": "City of Chicago SD 299", "city": "Chicago", "level": 1, "low_grade": 0, "high_grade": 8, "enrollment": 351, "teachers": 30, "lunch_pct": 21.9, "charter": false, "lat": 41.687334, "lng": -87.704067, "ratio": 11.7}, {"name": "Cather Elem School", "district": "City of Chicago SD 299", "city": "Chicago", "level": 1, "low_grade": -1, "high_grade": 8, "enrollment": 327, "teachers": 28, "lunch_pct": 96.6, "charter": false, "lat": 41.883295, "lng": -87.699339, "ratio": 11.7}, {"name": "Chalmers Elem Specialty School", "district": "City of Chicago SD 299", "city": "Chicago", "level": 1, "low_grade": -1, "high_grade": 8, "enrollment": 209, "teachers": 22, "lunch_pct": 93.3, "charter": false, "lat": 41.8662, "lng": -87.6953, "ratio": 9.5}, {"name": "Chappell Elem School", "district": "City of Chicago SD 299", "city": "Chicago", "level": 1, "low_grade": -1, "high_grade": 8, "enrollment": 539, "teachers": 38, "lunch_pct": 38.8, "charter": false, "lat": 41.9753, "lng": -87.6834, "ratio": 14.2}, {"name": "Chase Elem School", "district": "City of Chicago SD 299", "city": "Chicago", "level": 1, "low_grade": -1, "high_grade": 8, "enrollment": 373, "teachers": 41, "lunch_pct": 56.0, "charter": false, "lat": 41.9181, "lng": -87.6944, "ratio": 9.1}, {"name": "Clay Elem School", "district": "City of Chicago SD 299", "city": "Chicago", "level": 1, "low_grade": -1, "high_grade": 8, "enrollment": 532, "teachers": 40, "lunch_pct": 91.9, "charter": false, "lat": 41.6547, "lng": -87.544, "ratio": 13.3}, {"name": "Cleveland Elem School", "district": "City of Chicago SD 299", "city": "Chicago", "level": 1, "low_grade": -1, "high_grade": 8, "enrollment": 474, "teachers": 48, "lunch_pct": 80.4, "charter": false, "lat": 41.9516, "lng": -87.7064, "ratio": 9.9}, {"name": "Clinton Elem School", "district": "City of Chicago SD 299", "city": "Chicago", "level": 1, "low_grade": -1, "high_grade": 8, "enrollment": 1016, "teachers": 71, "lunch_pct": 90.6, "charter": false, "lat": 41.9929, "lng": -87.6987, "ratio": 14.3}, {"name": "Clissold Elem School", "district": "City of Chicago SD 299", "city": "Chicago", "level": 1, "low_grade": -1, "high_grade": 8, "enrollment": 398, "teachers": 33, "lunch_pct": 43.0, "charter": false, "lat": 41.6935, "lng": -87.6796, "ratio": 12.1}, {"name": "Coles Elem Language Academy", "district": "City of Chicago SD 299", "city": "Chicago", "level": 1, "low_grade": -1, "high_grade": 8, "enrollment": 265, "teachers": 20, "lunch_pct": 92.5, "charter": false, "lat": 41.7414, "lng": -87.5652, "ratio": 13.2}, {"name": "Beasley Elem Magnet Academic Ctr", "district": "City of Chicago SD 299", "city": "Chicago", "level": 1, "low_grade": -1, "high_grade": 8, "enrollment": 1046, "teachers": 64, "lunch_pct": 70.9, "charter": false, "lat": 41.799, "lng": -87.6251, "ratio": 16.3}, {"name": "Columbus Elem School", "district": "City of Chicago SD 299", "city": "Chicago", "level": 1, "low_grade": -1, "high_grade": 8, "enrollment": 282, "teachers": 17, "lunch_pct": 68.8, "charter": false, "lat": 41.8997, "lng": -87.6816, "ratio": 16.6}, {"name": "Cook Elem School", "district": "City of Chicago SD 299", "city": "Chicago", "level": 1, "low_grade": -1, "high_grade": 8, "enrollment": 322, "teachers": 20, "lunch_pct": 81.4, "charter": false, "lat": 41.7456, "lng": -87.6601, "ratio": 16.1}, {"name": "Coonley Elem School", "district": "City of Chicago SD 299", "city": "Chicago", "level": 1, "low_grade": 0, "high_grade": 8, "enrollment": 795, "teachers": 53, "lunch_pct": 11.1, "charter": false, "lat": 41.9555, "lng": -87.684, "ratio": 15.0}, {"name": "Metcalfe Elem Community Academy", "district": "City of Chicago SD 299", "city": "Chicago", "level": 1, "low_grade": -1, "high_grade": 8, "enrollment": 330, "teachers": 22, "lunch_pct": 95.8, "charter": false, "lat": 41.6696, "lng": -87.634, "ratio": 15.0}, {"name": "Cooper Elem Dual Language Academy", "district": "City of Chicago SD 299", "city": "Chicago", "level": 1, "low_grade": -1, "high_grade": 8, "enrollment": 406, "teachers": 36, "lunch_pct": 91.9, "charter": false, "lat": 41.8562, "lng": -87.6676, "ratio": 11.3}, {"name": "Corkery Elem School", "district": "City of Chicago SD 299", "city": "Chicago", "level": 1, "low_grade": -1, "high_grade": 8, "enrollment": 434, "teachers": 35, "lunch_pct": 94.5, "charter": false, "lat": 41.8455, "lng": -87.7322, "ratio": 12.4}, {"name": "Crown Elem Comm Acd Fine Arts Ctr", "district": "City of Chicago SD 299", "city": "Chicago", "level": 1, "low_grade": -1, "high_grade": 8, "enrollment": 120, "teachers": 11, "lunch_pct": 96.7, "charter": false, "lat": 41.852537, "lng": -87.712786, "ratio": 10.9}, {"name": "Darwin Elem School", "district": "City of Chicago SD 299", "city": "Chicago", "level": 1, "low_grade": -1, "high_grade": 8, "enrollment": 508, "teachers": 38, "lunch_pct": 80.5, "charter": false, "lat": 41.9235, "lng": -87.7051, "ratio": 13.4}, {"name": "Dulles Elem School", "district": "City of Chicago SD 299", "city": "Chicago", "level": 1, "low_grade": -1, "high_grade": 8, "enrollment": 665, "teachers": 41, "lunch_pct": 80.9, "charter": false, "lat": 41.7797, "lng": -87.6169, "ratio": 16.2}, {"name": "Davis N Elem School", "district": "City of Chicago SD 299", "city": "Chicago", "level": 1, "low_grade": -1, "high_grade": 8, "enrollment": 522, "teachers": 42, "lunch_pct": 94.4, "charter": false, "lat": 41.8222, "lng": -87.7003, "ratio": 12.4}, {"name": "Dawes Elem School", "district": "City of Chicago SD 299", "city": "Chicago", "level": 1, "low_grade": -1, "high_grade": 8, "enrollment": 982, "teachers": 68, "lunch_pct": 96.0, "charter": false, "lat": 41.7455, "lng": -87.7174, "ratio": 14.4}, {"name": "Deneen Elem School", "district": "City of Chicago SD 299", "city": "Chicago", "level": 1, "low_grade": -1, "high_grade": 8, "enrollment": 460, "teachers": 29, "lunch_pct": 89.6, "charter": false, "lat": 41.7623, "lng": -87.6237, "ratio": 15.9}, {"name": "Decatur Classical Elem School", "district": "City of Chicago SD 299", "city": "Chicago", "level": 1, "low_grade": 0, "high_grade": 8, "enrollment": 323, "teachers": 21, "lunch_pct": 14.9, "charter": false, "lat": 42.009593, "lng": -87.704874, "ratio": 15.4}, {"name": "Robinson Elem School", "district": "City of Chicago SD 299", "city": "Chicago", "level": 1, "low_grade": -1, "high_grade": 3, "enrollment": 111, "teachers": 11, "lunch_pct": 93.7, "charter": false, "lat": 41.8172, "lng": -87.5986, "ratio": 10.1}, {"name": "Dett Elem School", "district": "City of Chicago SD 299", "city": "Chicago", "level": 1, "low_grade": -1, "high_grade": 8, "enrollment": 253, "teachers": 24, "lunch_pct": 95.7, "charter": false, "lat": 41.8796, "lng": -87.6808, "ratio": 10.5}, {"name": "Chopin Elem School", "district": "City of Chicago SD 299", "city": "Chicago", "level": 1, "low_grade": -1, "high_grade": 8, "enrollment": 273, "teachers": 29, "lunch_pct": 92.7, "charter": false, "lat": 41.8972, "lng": -87.6887, "ratio": 9.4}, {"name": "Dever Elem School", "district": "City of Chicago SD 299", "city": "Chicago", "level": 1, "low_grade": -1, "high_grade": 8, "enrollment": 751, "teachers": 55, "lunch_pct": 55.0, "charter": false, "lat": 41.9426, "lng": -87.8135, "ratio": 13.7}, {"name": "Dewey Elem Academy of Fine Arts", "district": "City of Chicago SD 299", "city": "Chicago", "level": 1, "low_grade": -1, "high_grade": 8, "enrollment": 238, "teachers": 26, "lunch_pct": 98.3, "charter": false, "lat": 41.796, "lng": -87.6423, "ratio": 9.2}, {"name": "Disney Elem Magnet School", "district": "City of Chicago SD 299", "city": "Chicago", "level": 1, "low_grade": -1, "high_grade": 8, "enrollment": 1455, "teachers": 91, "lunch_pct": 61.7, "charter": false, "lat": 41.9568, "lng": -87.6469, "ratio": 16.0}, {"name": "Dixon Elem School", "district": "City of Chicago SD 299", "city": "Chicago", "level": 1, "low_grade": -1, "high_grade": 8, "enrollment": 464, "teachers": 29, "lunch_pct": 78.0, "charter": false, "lat": 41.743338, "lng": -87.610487, "ratio": 16.0}, {"name": "Garvey  M Elem School", "district": "City of Chicago SD 299", "city": "Chicago", "level": 1, "low_grade": -1, "high_grade": 8, "enrollment": 241, "teachers": 17, "lunch_pct": 92.1, "charter": false, "lat": 41.7066, "lng": -87.6471, "ratio": 14.2}, {"name": "Hanson Park Elem School", "district": "City of Chicago SD 299", "city": "Chicago", "level": 1, "low_grade": -1, "high_grade": 8, "enrollment": 1146, "teachers": 87, "lunch_pct": 86.7, "charter": false, "lat": 41.9233, "lng": -87.7621, "ratio": 13.2}, {"name": "Dore Elem School", "district": "City of Chicago SD 299", "city": "Chicago", "level": 1, "low_grade": -1, "high_grade": 8, "enrollment": 720, "teachers": 53, "lunch_pct": 52.4, "charter": false, "lat": 41.774023, "lng": -87.799597, "ratio": 13.6}, {"name": "Drake Elem School", "district": "City of Chicago SD 299", "city": "Chicago", "level": 1, "low_grade": -1, "high_grade": 8, "enrollment": 243, "teachers": 22, "lunch_pct": 96.3, "charter": false, "lat": 41.843492, "lng": -87.628695, "ratio": 11.0}, {"name": "Drummond Elem School", "district": "City of Chicago SD 299", "city": "Chicago", "level": 1, "low_grade": -1, "high_grade": 8, "enrollment": 301, "teachers": 23, "lunch_pct": 14.6, "charter": false, "lat": 41.9158, "lng": -87.6744, "ratio": 13.1}, {"name": "Leland Elem School", "district": "City of Chicago SD 299", "city": "Chicago", "level": 1, "low_grade": -1, "high_grade": 8, "enrollment": 368, "teachers": 35, "lunch_pct": 96.7, "charter": false, "lat": 41.8736, "lng": -87.7497, "ratio": 10.5}, {"name": "Dubois Elem School", "district": "City of Chicago SD 299", "city": "Chicago", "level": 1, "low_grade": -1, "high_grade": 8, "enrollment": 201, "teachers": 17, "lunch_pct": 96.5, "charter": false, "lat": 41.654, "lng": -87.6143, "ratio": 11.8}, {"name": "Dunne Technology Acad Elem Sch", "district": "City of Chicago SD 299", "city": "Chicago", "level": 1, "low_grade": -1, "high_grade": 8, "enrollment": 206, "teachers": 19, "lunch_pct": 85.9, "charter": false, "lat": 41.6964, "lng": -87.6398, "ratio": 10.8}, {"name": "Dvorak Technology Acad Elem Sch", "district": "City of Chicago SD 299", "city": "Chicago", "level": 1, "low_grade": -1, "high_grade": 8, "enrollment": 274, "teachers": 22, "lunch_pct": 97.1, "charter": false, "lat": 41.8585, "lng": -87.7158, "ratio": 12.5}, {"name": "Earle Elem School", "district": "City of Chicago SD 299", "city": "Chicago", "level": 1, "low_grade": -1, "high_grade": 8, "enrollment": 244, "teachers": 19, "lunch_pct": 98.8, "charter": false, "lat": 41.781665, "lng": -87.675686, "ratio": 12.8}, {"name": "Eberhart Elem School", "district": "City of Chicago SD 299", "city": "Chicago", "level": 1, "low_grade": 0, "high_grade": 8, "enrollment": 1037, "teachers": 69, "lunch_pct": 93.5, "charter": false, "lat": 41.7747, "lng": -87.7086, "ratio": 15.0}, {"name": "Ebinger Elem School", "district": "City of Chicago SD 299", "city": "Chicago", "level": 1, "low_grade": 0, "high_grade": 8, "enrollment": 749, "teachers": 52, "lunch_pct": 16.3, "charter": false, "lat": 42.0046, "lng": -87.8108, "ratio": 14.4}, {"name": "Edgebrook Elem School", "district": "City of Chicago SD 299", "city": "Chicago", "level": 1, "low_grade": 0, "high_grade": 8, "enrollment": 460, "teachers": 29, "lunch_pct": 12.6, "charter": false, "lat": 41.9994, "lng": -87.7611, "ratio": 15.9}, {"name": "Edwards Elem School", "district": "City of Chicago SD 299", "city": "Chicago", "level": 1, "low_grade": -1, "high_grade": 8, "enrollment": 1258, "teachers": 86, "lunch_pct": 83.4, "charter": false, "lat": 41.8054, "lng": -87.7256, "ratio": 14.6}, {"name": "Gunsaulus Elem Scholastic Academy", "district": "City of Chicago SD 299", "city": "Chicago", "level": 1, "low_grade": -1, "high_grade": 8, "enrollment": 651, "teachers": 50, "lunch_pct": 82.0, "charter": false, "lat": 41.812753, "lng": -87.699739, "ratio": 13.0}, {"name": "Ellington Elem School", "district": "City of Chicago SD 299", "city": "Chicago", "level": 1, "low_grade": -1, "high_grade": 8, "enrollment": 425, "teachers": 38, "lunch_pct": 93.6, "charter": false, "lat": 41.8853, "lng": -87.7662, "ratio": 11.2}, {"name": "Ericson Elem Scholastic Academy", "district": "City of Chicago SD 299", "city": "Chicago", "level": 1, "low_grade": -1, "high_grade": 8, "enrollment": 363, "teachers": 27, "lunch_pct": 87.9, "charter": false, "lat": 41.8759, "lng": -87.7163, "ratio": 13.4}, {"name": "Esmond Elem School", "district": "City of Chicago SD 299", "city": "Chicago", "level": 1, "low_grade": -1, "high_grade": 8, "enrollment": 247, "teachers": 19, "lunch_pct": 94.7, "charter": false, "lat": 41.6893, "lng": -87.6696, "ratio": 13.0}, {"name": "Everett Elem School", "district": "City of Chicago SD 299", "city": "Chicago", "level": 1, "low_grade": -1, "high_grade": 5, "enrollment": 117, "teachers": 16, "lunch_pct": 86.3, "charter": false, "lat": 41.8317, "lng": -87.6811, "ratio": 7.3}, {"name": "Evers Elem School", "district": "City of Chicago SD 299", "city": "Chicago", "level": 1, "low_grade": -1, "high_grade": 8, "enrollment": 211, "teachers": 17, "lunch_pct": 89.6, "charter": false, "lat": 41.7157, "lng": -87.6391, "ratio": 12.4}, {"name": "Falconer Elem School", "district": "City of Chicago SD 299", "city": "Chicago", "level": 1, "low_grade": -1, "high_grade": 6, "enrollment": 896, "teachers": 68, "lunch_pct": 92.5, "charter": false, "lat": 41.9356, "lng": -87.7499, "ratio": 13.2}, {"name": "Kellman Corporate Community Elem", "district": "City of Chicago SD 299", "city": "Chicago", "level": 1, "low_grade": -1, "high_grade": 8, "enrollment": 202, "teachers": 19, "lunch_pct": 98.0, "charter": false, "lat": 41.8703, "lng": -87.7023, "ratio": 10.6}, {"name": "Faraday Elem School", "district": "City of Chicago SD 299", "city": "Chicago", "level": 1, "low_grade": -1, "high_grade": 8, "enrollment": 159, "teachers": 16, "lunch_pct": 100.0, "charter": false, "lat": 41.8799, "lng": -87.7078, "ratio": 9.9}, {"name": "Harriet Tubman Elem School", "district": "City of Chicago SD 299", "city": "Chicago", "level": 1, "low_grade": -1, "high_grade": 8, "enrollment": 296, "teachers": 39, "lunch_pct": 29.7, "charter": false, "lat": 41.934, "lng": -87.6557, "ratio": 7.6}, {"name": "Farnsworth Elem School", "district": "City of Chicago SD 299", "city": "Chicago", "level": 1, "low_grade": -1, "high_grade": 8, "enrollment": 478, "teachers": 43, "lunch_pct": 65.9, "charter": false, "lat": 41.98, "lng": -87.7663, "ratio": 11.1}, {"name": "Randolph Elem School", "district": "City of Chicago SD 299", "city": "Chicago", "level": 1, "low_grade": -1, "high_grade": 8, "enrollment": 334, "teachers": 26, "lunch_pct": 95.5, "charter": false, "lat": 41.7606, "lng": -87.6769, "ratio": 12.8}, {"name": "Fernwood Elem School", "district": "City of Chicago SD 299", "city": "Chicago", "level": 1, "low_grade": -1, "high_grade": 8, "enrollment": 265, "teachers": 15, "lunch_pct": 87.5, "charter": false, "lat": 41.7111, "lng": -87.6403, "ratio": 17.7}, {"name": "Fiske Elem School", "district": "City of Chicago SD 299", "city": "Chicago", "level": 1, "low_grade": -1, "high_grade": 8, "enrollment": 343, "teachers": 30, "lunch_pct": 84.8, "charter": false, "lat": 41.7855, "lng": -87.6091, "ratio": 11.4}, {"name": "Fort Dearborn Elem School", "district": "City of Chicago SD 299", "city": "Chicago", "level": 1, "low_grade": -1, "high_grade": 8, "enrollment": 324, "teachers": 26, "lunch_pct": 87.3, "charter": false, "lat": 41.7298, "lng": -87.655, "ratio": 12.5}, {"name": "Franklin Elem Fine Arts Center", "district": "City of Chicago SD 299", "city": "Chicago", "level": 1, "low_grade": 0, "high_grade": 8, "enrollment": 367, "teachers": 24, "lunch_pct": 47.7, "charter": false, "lat": 41.9064, "lng": -87.6361, "ratio": 15.3}, {"name": "Fuller Elem School", "district": "City of Chicago SD 299", "city": "Chicago", "level": 1, "low_grade": -1, "high_grade": 8, "enrollment": 317, "teachers": 17, "lunch_pct": 94.3, "charter": false, "lat": 41.81806, "lng": -87.612147, "ratio": 18.6}, {"name": "Fulton Elem School", "district": "City of Chicago SD 299", "city": "Chicago", "level": 1, "low_grade": -1, "high_grade": 8, "enrollment": 297, "teachers": 28, "lunch_pct": 98.0, "charter": false, "lat": 41.7973, "lng": -87.6687, "ratio": 10.6}, {"name": "Funston Elem School", "district": "City of Chicago SD 299", "city": "Chicago", "level": 1, "low_grade": -1, "high_grade": 8, "enrollment": 406, "teachers": 38, "lunch_pct": 97.3, "charter": false, "lat": 41.917794, "lng": -87.717105, "ratio": 10.7}, {"name": "Gale Elem Community Academy", "district": "City of Chicago SD 299", "city": "Chicago", "level": 1, "low_grade": -1, "high_grade": 8, "enrollment": 222, "teachers": 26, "lunch_pct": 93.2, "charter": false, "lat": 42.0209, "lng": -87.6713, "ratio": 8.5}, {"name": "Gallistel Elem Language Academy", "district": "City of Chicago SD 299", "city": "Chicago", "level": 1, "low_grade": -1, "high_grade": 8, "enrollment": 618, "teachers": 48, "lunch_pct": 90.1, "charter": false, "lat": 41.7068, "lng": -87.5349, "ratio": 12.9}, {"name": "Garvy  J Elem School", "district": "City of Chicago SD 299", "city": "Chicago", "level": 1, "low_grade": 0, "high_grade": 8, "enrollment": 761, "teachers": 47, "lunch_pct": 39.7, "charter": false, "lat": 41.9763, "lng": -87.796, "ratio": 16.2}, {"name": "Kanoon Elem Magnet School", "district": "City of Chicago SD 299", "city": "Chicago", "level": 1, "low_grade": -1, "high_grade": 8, "enrollment": 412, "teachers": 32, "lunch_pct": 96.8, "charter": false, "lat": 41.8505, "lng": -87.7044, "ratio": 12.9}, {"name": "Goethe Elem School", "district": "City of Chicago SD 299", "city": "Chicago", "level": 1, "low_grade": -1, "high_grade": 8, "enrollment": 705, "teachers": 51, "lunch_pct": 52.1, "charter": false, "lat": 41.9228, "lng": -87.6931, "ratio": 13.8}, {"name": "Owens Community Academy ES", "district": "City of Chicago SD 299", "city": "Chicago", "level": 1, "low_grade": -1, "high_grade": 8, "enrollment": 331, "teachers": 25, "lunch_pct": 94.3, "charter": false, "lat": 41.670266, "lng": -87.623255, "ratio": 13.2}, {"name": "Goudy Technology Academy", "district": "City of Chicago SD 299", "city": "Chicago", "level": 1, "low_grade": -1, "high_grade": 8, "enrollment": 554, "teachers": 44, "lunch_pct": 80.0, "charter": false, "lat": 41.976, "lng": -87.6581, "ratio": 12.6}, {"name": "Graham  A Elem School", "district": "City of Chicago SD 299", "city": "Chicago", "level": 1, "low_grade": -1, "high_grade": 8, "enrollment": 329, "teachers": 26, "lunch_pct": 92.4, "charter": false, "lat": 41.8131, "lng": -87.6436, "ratio": 12.7}, {"name": "White Elem Career Academy", "district": "City of Chicago SD 299", "city": "Chicago", "level": 1, "low_grade": -1, "high_grade": 8, "enrollment": 113, "teachers": 13, "lunch_pct": 94.7, "charter": false, "lat": 41.6727, "lng": -87.6507, "ratio": 8.7}, {"name": "Gray Elem School", "district": "City of Chicago SD 299", "city": "Chicago", "level": 1, "low_grade": -1, "high_grade": 8, "enrollment": 1004, "teachers": 64, "lunch_pct": 83.9, "charter": false, "lat": 41.949175, "lng": -87.757416, "ratio": 15.7}, {"name": "Alcott Elem School", "district": "City of Chicago SD 299", "city": "Chicago", "level": 1, "low_grade": -1, "high_grade": 8, "enrollment": 601, "teachers": 2, "lunch_pct": 14.3, "charter": false, "lat": 41.9296, "lng": -87.646, "ratio": 300.5}, {"name": "Greeley Elem School", "district": "City of Chicago SD 299", "city": "Chicago", "level": 1, "low_grade": -1, "high_grade": 8, "enrollment": 319, "teachers": 27, "lunch_pct": 80.3, "charter": false, "lat": 41.9531, "lng": -87.6506, "ratio": 11.8}, {"name": "Greene N Elem School", "district": "City of Chicago SD 299", "city": "Chicago", "level": 1, "low_grade": -1, "high_grade": 5, "enrollment": 308, "teachers": 26, "lunch_pct": 90.9, "charter": false, "lat": 41.8297, "lng": -87.6712, "ratio": 11.8}, {"name": "Gregory Math & Sci Elem Academy", "district": "City of Chicago SD 299", "city": "Chicago", "level": 1, "low_grade": -1, "high_grade": 8, "enrollment": 279, "teachers": 17, "lunch_pct": 96.4, "charter": false, "lat": 41.8705, "lng": -87.7187, "ratio": 16.4}, {"name": "Grissom Elem School", "district": "City of Chicago SD 299", "city": "Chicago", "level": 1, "low_grade": -1, "high_grade": 8, "enrollment": 297, "teachers": 22, "lunch_pct": 75.1, "charter": false, "lat": 41.6624, "lng": -87.5536, "ratio": 13.5}, {"name": "Gresham Elem School", "district": "City of Chicago SD 299", "city": "Chicago", "level": 1, "low_grade": -1, "high_grade": 8, "enrollment": 334, "teachers": 27, "lunch_pct": 97.3, "charter": false, "lat": 41.7388, "lng": -87.6452, "ratio": 12.4}, {"name": "Grimes Elem School", "district": "City of Chicago SD 299", "city": "Chicago", "level": 1, "low_grade": -1, "high_grade": 8, "enrollment": 395, "teachers": 30, "lunch_pct": 76.7, "charter": false, "lat": 41.7757, "lng": -87.7585, "ratio": 13.2}, {"name": "Haines Elem School", "district": "City of Chicago SD 299", "city": "Chicago", "level": 1, "low_grade": -1, "high_grade": 8, "enrollment": 529, "teachers": 38, "lunch_pct": 85.4, "charter": false, "lat": 41.8498, "lng": -87.6338, "ratio": 13.9}, {"name": "Gillespie Elem School", "district": "City of Chicago SD 299", "city": "Chicago", "level": 1, "low_grade": -1, "high_grade": 8, "enrollment": 376, "teachers": 26, "lunch_pct": 87.2, "charter": false, "lat": 41.7248, "lng": -87.6232, "ratio": 14.5}, {"name": "Hendricks Elem Community Academy", "district": "City of Chicago SD 299", "city": "Chicago", "level": 1, "low_grade": -1, "high_grade": 8, "enrollment": 184, "teachers": 21, "lunch_pct": 94.6, "charter": false, "lat": 41.8159, "lng": -87.6339, "ratio": 8.8}, {"name": "Hale Elem School", "district": "City of Chicago SD 299", "city": "Chicago", "level": 1, "low_grade": 0, "high_grade": 8, "enrollment": 813, "teachers": 53, "lunch_pct": 65.7, "charter": false, "lat": 41.7805, "lng": -87.777, "ratio": 15.3}, {"name": "Hamilton Elem School", "district": "City of Chicago SD 299", "city": "Chicago", "level": 1, "low_grade": -1, "high_grade": 8, "enrollment": 451, "teachers": 33, "lunch_pct": 11.1, "charter": false, "lat": 41.9454, "lng": -87.6706, "ratio": 13.7}, {"name": "Hamline Elem School", "district": "City of Chicago SD 299", "city": "Chicago", "level": 1, "low_grade": -1, "high_grade": 8, "enrollment": 529, "teachers": 43, "lunch_pct": 97.2, "charter": false, "lat": 41.8076, "lng": -87.661, "ratio": 12.3}, {"name": "Hammond Elem School", "district": "City of Chicago SD 299", "city": "Chicago", "level": 1, "low_grade": -1, "high_grade": 8, "enrollment": 237, "teachers": 29, "lunch_pct": 92.4, "charter": false, "lat": 41.8526, "lng": -87.6962, "ratio": 8.2}, {"name": "Bret Harte Elem School", "district": "City of Chicago SD 299", "city": "Chicago", "level": 1, "low_grade": -1, "high_grade": 8, "enrollment": 330, "teachers": 23, "lunch_pct": 73.3, "charter": false, "lat": 41.7937, "lng": -87.5868, "ratio": 14.3}, {"name": "Harvard Elem School", "district": "City of Chicago SD 299", "city": "Chicago", "level": 1, "low_grade": -1, "high_grade": 8, "enrollment": 341, "teachers": 24, "lunch_pct": 93.3, "charter": false, "lat": 41.7575, "lng": -87.6324, "ratio": 14.2}, {"name": "Haugan Elem School", "district": "City of Chicago SD 299", "city": "Chicago", "level": 1, "low_grade": -1, "high_grade": 8, "enrollment": 881, "teachers": 70, "lunch_pct": 89.0, "charter": false, "lat": 41.9638, "lng": -87.7237, "ratio": 12.6}, {"name": "Hawthorne Elem Scholastic Academy", "district": "City of Chicago SD 299", "city": "Chicago", "level": 1, "low_grade": 0, "high_grade": 8, "enrollment": 604, "teachers": 41, "lunch_pct": 16.1, "charter": false, "lat": 41.9425, "lng": -87.6576, "ratio": 14.7}, {"name": "Hayt Elem School", "district": "City of Chicago SD 299", "city": "Chicago", "level": 1, "low_grade": -1, "high_grade": 8, "enrollment": 887, "teachers": 57, "lunch_pct": 82.1, "charter": false, "lat": 41.9948, "lng": -87.6685, "ratio": 15.6}, {"name": "Healy Elem School", "district": "City of Chicago SD 299", "city": "Chicago", "level": 1, "low_grade": -1, "high_grade": 8, "enrollment": 1222, "teachers": 76, "lunch_pct": 81.5, "charter": false, "lat": 41.8394, "lng": -87.641, "ratio": 16.1}, {"name": "Hearst Elem School", "district": "City of Chicago SD 299", "city": "Chicago", "level": 1, "low_grade": -1, "high_grade": 8, "enrollment": 302, "teachers": 27, "lunch_pct": 85.4, "charter": false, "lat": 41.8087, "lng": -87.7462, "ratio": 11.2}, {"name": "Hedges Elem School", "district": "City of Chicago SD 299", "city": "Chicago", "level": 1, "low_grade": -1, "high_grade": 8, "enrollment": 460, "teachers": 39, "lunch_pct": 96.3, "charter": false, "lat": 41.807167, "lng": -87.673173, "ratio": 11.8}, {"name": "McDowell Elem School", "district": "City of Chicago SD 299", "city": "Chicago", "level": 1, "low_grade": -1, "high_grade": 5, "enrollment": 117, "teachers": 11, "lunch_pct": 90.6, "charter": false, "lat": 41.7329, "lng": -87.5899, "ratio": 10.6}, {"name": "Hefferan Elem School", "district": "City of Chicago SD 299", "city": "Chicago", "level": 1, "low_grade": -1, "high_grade": 8, "enrollment": 239, "teachers": 18, "lunch_pct": 92.9, "charter": false, "lat": 41.8785, "lng": -87.7361, "ratio": 13.3}, {"name": "Henderson Elem School", "district": "City of Chicago SD 299", "city": "Chicago", "level": 1, "low_grade": -1, "high_grade": 8, "enrollment": 173, "teachers": 16, "lunch_pct": 96.5, "charter": false, "lat": 41.7908, "lng": -87.6723, "ratio": 10.8}, {"name": "Henry Elem School", "district": "City of Chicago SD 299", "city": "Chicago", "level": 1, "low_grade": -1, "high_grade": 8, "enrollment": 454, "teachers": 34, "lunch_pct": 88.5, "charter": false, "lat": 41.958836, "lng": -87.715788, "ratio": 13.4}, {"name": "Herzl Elem School", "district": "City of Chicago SD 299", "city": "Chicago", "level": 1, "low_grade": -1, "high_grade": 8, "enrollment": 403, "teachers": 35, "lunch_pct": 98.0, "charter": false, "lat": 41.861834, "lng": -87.71837, "ratio": 11.5}, {"name": "Hibbard Elem School", "district": "City of Chicago SD 299", "city": "Chicago", "level": 1, "low_grade": -1, "high_grade": 6, "enrollment": 900, "teachers": 63, "lunch_pct": 85.0, "charter": false, "lat": 41.9709, "lng": -87.7104, "ratio": 14.3}, {"name": "Higgins Elem Community Academy", "district": "City of Chicago SD 299", "city": "Chicago", "level": 1, "low_grade": -1, "high_grade": 8, "enrollment": 264, "teachers": 17, "lunch_pct": 96.6, "charter": false, "lat": 41.6809, "lng": -87.6475, "ratio": 15.5}, {"name": "King Academy of Social Justice", "district": "City of Chicago SD 299", "city": "Chicago", "level": 1, "low_grade": -1, "high_grade": 8, "enrollment": 241, "teachers": 18, "lunch_pct": 97.5, "charter": false, "lat": 41.7655, "lng": -87.6416, "ratio": 13.4}, {"name": "Hitch Elem School", "district": "City of Chicago SD 299", "city": "Chicago", "level": 1, "low_grade": -1, "high_grade": 8, "enrollment": 502, "teachers": 37, "lunch_pct": 46.2, "charter": false, "lat": 41.9841, "lng": -87.7788, "ratio": 13.6}, {"name": "Holden Elem School", "district": "City of Chicago SD 299", "city": "Chicago", "level": 1, "low_grade": -1, "high_grade": 8, "enrollment": 393, "teachers": 35, "lunch_pct": 79.4, "charter": false, "lat": 41.8383, "lng": -87.6543, "ratio": 11.2}, {"name": "Earhart Elem Opt for Knowl School", "district": "City of Chicago SD 299", "city": "Chicago", "level": 1, "low_grade": 0, "high_grade": 8, "enrollment": 193, "teachers": 13, "lunch_pct": 68.4, "charter": false, "lat": 41.7264, "lng": -87.5829, "ratio": 14.8}, {"name": "Keller Elem Gifted Magnet School", "district": "City of Chicago SD 299", "city": "Chicago", "level": 1, "low_grade": 1, "high_grade": 8, "enrollment": 213, "teachers": 11, "lunch_pct": 32.9, "charter": false, "lat": 41.6975, "lng": -87.697, "ratio": 19.4}, {"name": "Holmes Elem School", "district": "City of Chicago SD 299", "city": "Chicago", "level": 1, "low_grade": -1, "high_grade": 8, "enrollment": 117, "teachers": 15, "lunch_pct": 91.5, "charter": false, "lat": 41.7934, "lng": -87.6496, "ratio": 7.8}, {"name": "Howe Elem School", "district": "City of Chicago SD 299", "city": "Chicago", "level": 1, "low_grade": -1, "high_grade": 8, "enrollment": 382, "teachers": 25, "lunch_pct": 97.1, "charter": false, "lat": 41.8936, "lng": -87.7597, "ratio": 15.3}, {"name": "Hoyne Elem School", "district": "City of Chicago SD 299", "city": "Chicago", "level": 1, "low_grade": -1, "high_grade": 8, "enrollment": 227, "teachers": 14, "lunch_pct": 73.6, "charter": false, "lat": 41.7333, "lng": -87.5679, "ratio": 16.2}, {"name": "Hughes  C Elem School", "district": "City of Chicago SD 299", "city": "Chicago", "level": 1, "low_grade": -1, "high_grade": 8, "enrollment": 190, "teachers": 17, "lunch_pct": 91.1, "charter": false, "lat": 41.8604, "lng": -87.7318, "ratio": 11.2}, {"name": "Hurley Elem School", "district": "City of Chicago SD 299", "city": "Chicago", "level": 1, "low_grade": -1, "high_grade": 8, "enrollment": 716, "teachers": 47, "lunch_pct": 89.0, "charter": false, "lat": 41.7666, "lng": -87.7191, "ratio": 15.2}, {"name": "Irving Elem School", "district": "City of Chicago SD 299", "city": "Chicago", "level": 1, "low_grade": -1, "high_grade": 8, "enrollment": 289, "teachers": 22, "lunch_pct": 87.2, "charter": false, "lat": 41.8718, "lng": -87.683, "ratio": 13.1}, {"name": "Chicago World Language Academy", "district": "City of Chicago SD 299", "city": "Chicago", "level": 1, "low_grade": 0, "high_grade": 8, "enrollment": 451, "teachers": 31, "lunch_pct": 40.8, "charter": false, "lat": 41.8748, "lng": -87.6609, "ratio": 14.5}, {"name": "Jahn Elem School", "district": "City of Chicago SD 299", "city": "Chicago", "level": 1, "low_grade": -1, "high_grade": 8, "enrollment": 291, "teachers": 30, "lunch_pct": 50.5, "charter": false, "lat": 41.9392, "lng": -87.6753, "ratio": 9.7}, {"name": "Jamieson Elem School", "district": "City of Chicago SD 299", "city": "Chicago", "level": 1, "low_grade": -1, "high_grade": 8, "enrollment": 795, "teachers": 54, "lunch_pct": 66.3, "charter": false, "lat": 41.9844, "lng": -87.7009, "ratio": 14.7}, {"name": "Jensen Elem Scholastic Academy", "district": "City of Chicago SD 299", "city": "Chicago", "level": 1, "low_grade": -1, "high_grade": 8, "enrollment": 254, "teachers": 23, "lunch_pct": 97.2, "charter": false, "lat": 41.8741, "lng": -87.7023, "ratio": 11.0}, {"name": "Pilsen Elem Community Academy", "district": "City of Chicago SD 299", "city": "Chicago", "level": 1, "low_grade": -1, "high_grade": 8, "enrollment": 219, "teachers": 24, "lunch_pct": 87.2, "charter": false, "lat": 41.8589, "lng": -87.6625, "ratio": 9.1}, {"name": "Johnson Elem School", "district": "City of Chicago SD 299", "city": "Chicago", "level": 1, "low_grade": -1, "high_grade": 8, "enrollment": 223, "teachers": 20, "lunch_pct": 97.8, "charter": false, "lat": 41.8619, "lng": -87.7035, "ratio": 11.2}, {"name": "Jungman Elem School", "district": "City of Chicago SD 299", "city": "Chicago", "level": 1, "low_grade": -1, "high_grade": 8, "enrollment": 284, "teachers": 29, "lunch_pct": 81.3, "charter": false, "lat": 41.8586, "lng": -87.6525, "ratio": 9.8}, {"name": "Kellogg Elem School", "district": "City of Chicago SD 299", "city": "Chicago", "level": 1, "low_grade": 0, "high_grade": 8, "enrollment": 296, "teachers": 20, "lunch_pct": 37.5, "charter": false, "lat": 41.7254, "lng": -87.6767, "ratio": 14.8}, {"name": "Kershaw Elem School", "district": "City of Chicago SD 299", "city": "Chicago", "level": 1, "low_grade": -1, "high_grade": 8, "enrollment": 213, "teachers": 19, "lunch_pct": 94.8, "charter": false, "lat": 41.7768, "lng": -87.6411, "ratio": 11.2}, {"name": "Addams Elem School", "district": "City of Chicago SD 299", "city": "Chicago", "level": 1, "low_grade": -1, "high_grade": 8, "enrollment": 559, "teachers": 35, "lunch_pct": 80.0, "charter": false, "lat": 41.6985, "lng": -87.5334, "ratio": 16.0}, {"name": "Kilmer Elem School", "district": "City of Chicago SD 299", "city": "Chicago", "level": 1, "low_grade": -1, "high_grade": 8, "enrollment": 742, "teachers": 64, "lunch_pct": 84.2, "charter": false, "lat": 42.0042, "lng": -87.6685, "ratio": 11.6}, {"name": "Poe Elem Classical School", "district": "City of Chicago SD 299", "city": "Chicago", "level": 1, "low_grade": 0, "high_grade": 7, "enrollment": 227, "teachers": 13, "lunch_pct": 37.4, "charter": false, "lat": 41.7025, "lng": -87.6065, "ratio": 17.5}, {"name": "Kinzie Elem School", "district": "City of Chicago SD 299", "city": "Chicago", "level": 1, "low_grade": -1, "high_grade": 8, "enrollment": 669, "teachers": 51, "lunch_pct": 58.4, "charter": false, "lat": 41.7895, "lng": -87.7789, "ratio": 13.1}, {"name": "Kipling Elem School", "district": "City of Chicago SD 299", "city": "Chicago", "level": 1, "low_grade": -1, "high_grade": 8, "enrollment": 230, "teachers": 19, "lunch_pct": 84.8, "charter": false, "lat": 41.724, "lng": -87.6393, "ratio": 12.1}, {"name": "Wildwood Elem School", "district": "City of Chicago SD 299", "city": "Chicago", "level": 1, "low_grade": -1, "high_grade": 8, "enrollment": 471, "teachers": 32, "lunch_pct": 15.5, "charter": false, "lat": 42.0073, "lng": -87.7786, "ratio": 14.7}, {"name": "Hughes L Elem School", "district": "City of Chicago SD 299", "city": "Chicago", "level": 1, "low_grade": -1, "high_grade": 8, "enrollment": 459, "teachers": 41, "lunch_pct": 97.4, "charter": false, "lat": 41.7055, "lng": -87.6291, "ratio": 11.2}, {"name": "Lozano Elem Bilingual & Intl Ctr", "district": "City of Chicago SD 299", "city": "Chicago", "level": 1, "low_grade": -1, "high_grade": 8, "enrollment": 154, "teachers": 27, "lunch_pct": 73.4, "charter": false, "lat": 41.9091, "lng": -87.6649, "ratio": 5.7}, {"name": "Kozminski Elem Community Academy", "district": "City of Chicago SD 299", "city": "Chicago", "level": 1, "low_grade": -1, "high_grade": 8, "enrollment": 249, "teachers": 17, "lunch_pct": 78.7, "charter": false, "lat": 41.7985, "lng": -87.6023, "ratio": 14.6}, {"name": "LaSalle Elem Language Academy", "district": "City of Chicago SD 299", "city": "Chicago", "level": 1, "low_grade": 0, "high_grade": 8, "enrollment": 486, "teachers": 40, "lunch_pct": 31.7, "charter": false, "lat": 41.9138, "lng": -87.6378, "ratio": 12.2}, {"name": "Lawndale Elem Community Academy", "district": "City of Chicago SD 299", "city": "Chicago", "level": 1, "low_grade": -1, "high_grade": 8, "enrollment": 216, "teachers": 20, "lunch_pct": 99.1, "charter": false, "lat": 41.8633, "lng": -87.7134, "ratio": 10.8}, {"name": "Lewis Elem School", "district": "City of Chicago SD 299", "city": "Chicago", "level": 1, "low_grade": -1, "high_grade": 8, "enrollment": 362, "teachers": 32, "lunch_pct": 95.6, "charter": false, "lat": 41.907059, "lng": -87.754325, "ratio": 11.3}, {"name": "Courtenay Elem Language Arts Ctr", "district": "City of Chicago SD 299", "city": "Chicago", "level": 1, "low_grade": -1, "high_grade": 8, "enrollment": 208, "teachers": 28, "lunch_pct": 92.8, "charter": false, "lat": 41.9623, "lng": -87.6641, "ratio": 7.4}, {"name": "Libby Elem School", "district": "City of Chicago SD 299", "city": "Chicago", "level": 1, "low_grade": -1, "high_grade": 8, "enrollment": 251, "teachers": 20, "lunch_pct": 88.4, "charter": false, "lat": 41.7964, "lng": -87.66, "ratio": 12.6}, {"name": "Lincoln Elem School", "district": "City of Chicago SD 299", "city": "Chicago", "level": 1, "low_grade": 0, "high_grade": 8, "enrollment": 811, "teachers": 51, "lunch_pct": 11.3, "charter": false, "lat": 41.9244, "lng": -87.6446, "ratio": 15.9}, {"name": "Linne Elem School", "district": "City of Chicago SD 299", "city": "Chicago", "level": 1, "low_grade": -1, "high_grade": 8, "enrollment": 624, "teachers": 46, "lunch_pct": 54.5, "charter": false, "lat": 41.940248, "lng": -87.702373, "ratio": 13.6}, {"name": "Lloyd Elem School", "district": "City of Chicago SD 299", "city": "Chicago", "level": 1, "low_grade": -1, "high_grade": 5, "enrollment": 826, "teachers": 53, "lunch_pct": 92.0, "charter": false, "lat": 41.9192, "lng": -87.7474, "ratio": 15.6}, {"name": "Locke  J Elem School", "district": "City of Chicago SD 299", "city": "Chicago", "level": 1, "low_grade": -1, "high_grade": 8, "enrollment": 1146, "teachers": 81, "lunch_pct": 86.5, "charter": false, "lat": 41.932, "lng": -87.7964, "ratio": 14.1}, {"name": "Smith  W Elem School", "district": "City of Chicago SD 299", "city": "Chicago", "level": 1, "low_grade": -1, "high_grade": 8, "enrollment": 317, "teachers": 22, "lunch_pct": 96.8, "charter": false, "lat": 41.708, "lng": -87.6054, "ratio": 14.4}, {"name": "Lovett Elem School", "district": "City of Chicago SD 299", "city": "Chicago", "level": 1, "low_grade": -1, "high_grade": 8, "enrollment": 307, "teachers": 23, "lunch_pct": 90.2, "charter": false, "lat": 41.912524, "lng": -87.784215, "ratio": 13.3}, {"name": "Lowell Elem School", "district": "City of Chicago SD 299", "city": "Chicago", "level": 1, "low_grade": -1, "high_grade": 8, "enrollment": 308, "teachers": 24, "lunch_pct": 94.5, "charter": false, "lat": 41.9067, "lng": -87.7104, "ratio": 12.8}, {"name": "Lyon Elem School", "district": "City of Chicago SD 299", "city": "Chicago", "level": 1, "low_grade": 0, "high_grade": 8, "enrollment": 1052, "teachers": 71, "lunch_pct": 86.4, "charter": false, "lat": 41.9339, "lng": -87.7765, "ratio": 14.8}, {"name": "Madison Elem School", "district": "City of Chicago SD 299", "city": "Chicago", "level": 1, "low_grade": -1, "high_grade": 8, "enrollment": 177, "teachers": 17, "lunch_pct": 97.2, "charter": false, "lat": 41.760043, "lng": -87.590473, "ratio": 10.4}, {"name": "Manierre Elem School", "district": "City of Chicago SD 299", "city": "Chicago", "level": 1, "low_grade": -1, "high_grade": 8, "enrollment": 250, "teachers": 21, "lunch_pct": 96.8, "charter": false, "lat": 41.908, "lng": -87.6401, "ratio": 11.9}, {"name": "Mann Elem School", "district": "City of Chicago SD 299", "city": "Chicago", "level": 1, "low_grade": -1, "high_grade": 8, "enrollment": 317, "teachers": 17, "lunch_pct": 91.5, "charter": false, "lat": 41.7487, "lng": -87.5751, "ratio": 18.6}, {"name": "Marsh Elem School", "district": "City of Chicago SD 299", "city": "Chicago", "level": 1, "low_grade": -1, "high_grade": 8, "enrollment": 642, "teachers": 46, "lunch_pct": 85.0, "charter": false, "lat": 41.7165, "lng": -87.5532, "ratio": 14.0}, {"name": "Marquette Elem School", "district": "City of Chicago SD 299", "city": "Chicago", "level": 1, "low_grade": -1, "high_grade": 8, "enrollment": 1002, "teachers": 66, "lunch_pct": 94.3, "charter": false, "lat": 41.7744, "lng": -87.6973, "ratio": 15.2}, {"name": "Mason Elem School", "district": "City of Chicago SD 299", "city": "Chicago", "level": 1, "low_grade": -1, "high_grade": 8, "enrollment": 221, "teachers": 1, "lunch_pct": 96.4, "charter": false, "lat": 41.8559, "lng": -87.7301, "ratio": 221.0}, {"name": "Mayer Elem School", "district": "City of Chicago SD 299", "city": "Chicago", "level": 1, "low_grade": -1, "high_grade": 8, "enrollment": 673, "teachers": 46, "lunch_pct": 10.4, "charter": false, "lat": 41.9228, "lng": -87.6574, "ratio": 14.6}, {"name": "McClellan Elem School", "district": "City of Chicago SD 299", "city": "Chicago", "level": 1, "low_grade": -1, "high_grade": 8, "enrollment": 299, "teachers": 27, "lunch_pct": 86.3, "charter": false, "lat": 41.8304, "lng": -87.6408, "ratio": 11.1}, {"name": "McCormick Elem School", "district": "City of Chicago SD 299", "city": "Chicago", "level": 1, "low_grade": -1, "high_grade": 5, "enrollment": 437, "teachers": 40, "lunch_pct": 95.4, "charter": false, "lat": 41.842, "lng": -87.7065, "ratio": 10.9}, {"name": "McCutcheon Elem School", "district": "City of Chicago SD 299", "city": "Chicago", "level": 1, "low_grade": -1, "high_grade": 8, "enrollment": 301, "teachers": 32, "lunch_pct": 90.4, "charter": false, "lat": 41.9712, "lng": -87.6544, "ratio": 9.4}, {"name": "McDade Elem Classical School", "district": "City of Chicago SD 299", "city": "Chicago", "level": 1, "low_grade": 0, "high_grade": 7, "enrollment": 210, "teachers": 13, "lunch_pct": 38.1, "charter": false, "lat": 41.7344, "lng": -87.6188, "ratio": 16.2}, {"name": "McKay Elem School", "district": "City of Chicago SD 299", "city": "Chicago", "level": 1, "low_grade": -1, "high_grade": 8, "enrollment": 622, "teachers": 43, "lunch_pct": 90.8, "charter": false, "lat": 41.7677, "lng": -87.6914, "ratio": 14.5}, {"name": "McPherson Elem School", "district": "City of Chicago SD 299", "city": "Chicago", "level": 1, "low_grade": -1, "high_grade": 8, "enrollment": 651, "teachers": 58, "lunch_pct": 56.5, "charter": false, "lat": 41.9685, "lng": -87.6767, "ratio": 11.2}, {"name": "Melody Elem School", "district": "City of Chicago SD 299", "city": "Chicago", "level": 1, "low_grade": -1, "high_grade": 8, "enrollment": 272, "teachers": 21, "lunch_pct": 95.6, "charter": false, "lat": 41.8783, "lng": -87.7245, "ratio": 13.0}, {"name": "Talcott Elem School", "district": "City of Chicago SD 299", "city": "Chicago", "level": 1, "low_grade": -1, "high_grade": 8, "enrollment": 437, "teachers": 36, "lunch_pct": 71.9, "charter": false, "lat": 41.8928, "lng": -87.6743, "ratio": 12.1}, {"name": "Mitchell Elem School", "district": "City of Chicago SD 299", "city": "Chicago", "level": 1, "low_grade": -1, "high_grade": 8, "enrollment": 384, "teachers": 28, "lunch_pct": 33.6, "charter": false, "lat": 41.892, "lng": -87.6832, "ratio": 13.7}, {"name": "Mollison Elem School", "district": "City of Chicago SD 299", "city": "Chicago", "level": 1, "low_grade": -1, "high_grade": 8, "enrollment": 267, "teachers": 20, "lunch_pct": 95.5, "charter": false, "lat": 41.814543, "lng": -87.615986, "ratio": 13.3}, {"name": "Monroe Elem School", "district": "City of Chicago SD 299", "city": "Chicago", "level": 1, "low_grade": -1, "high_grade": 8, "enrollment": 651, "teachers": 50, "lunch_pct": 90.5, "charter": false, "lat": 41.9294, "lng": -87.719, "ratio": 13.0}, {"name": "Moos Elem School", "district": "City of Chicago SD 299", "city": "Chicago", "level": 1, "low_grade": -1, "high_grade": 8, "enrollment": 433, "teachers": 41, "lunch_pct": 77.6, "charter": false, "lat": 41.913072, "lng": -87.696405, "ratio": 10.6}, {"name": "Morrill Elem Math & Sci School", "district": "City of Chicago SD 299", "city": "Chicago", "level": 1, "low_grade": -1, "high_grade": 8, "enrollment": 508, "teachers": 32, "lunch_pct": 95.9, "charter": false, "lat": 41.7841, "lng": -87.6883, "ratio": 15.9}, {"name": "Inter-American Elem Magnet School", "district": "City of Chicago SD 299", "city": "Chicago", "level": 1, "low_grade": -1, "high_grade": 8, "enrollment": 669, "teachers": 45, "lunch_pct": 47.4, "charter": false, "lat": 41.9486, "lng": -87.6514, "ratio": 14.9}, {"name": "Mount Greenwood Elem School", "district": "City of Chicago SD 299", "city": "Chicago", "level": 1, "low_grade": 0, "high_grade": 8, "enrollment": 1172, "teachers": 64, "lunch_pct": 12.4, "charter": false, "lat": 41.6962, "lng": -87.7054, "ratio": 18.3}, {"name": "Mount Vernon Elem School", "district": "City of Chicago SD 299", "city": "Chicago", "level": 1, "low_grade": -1, "high_grade": 8, "enrollment": 232, "teachers": 19, "lunch_pct": 96.1, "charter": false, "lat": 41.7023, "lng": -87.6481, "ratio": 12.2}, {"name": "Mozart Elem School", "district": "City of Chicago SD 299", "city": "Chicago", "level": 1, "low_grade": -1, "high_grade": 8, "enrollment": 485, "teachers": 37, "lunch_pct": 80.6, "charter": false, "lat": 41.9214, "lng": -87.7226, "ratio": 13.1}, {"name": "Brown R Elem Community Acad", "district": "City of Chicago SD 299", "city": "Chicago", "level": 1, "low_grade": -1, "high_grade": 8, "enrollment": 285, "teachers": 17, "lunch_pct": 95.4, "charter": false, "lat": 41.6648, "lng": -87.6385, "ratio": 16.8}, {"name": "Murphy Elem School", "district": "City of Chicago SD 299", "city": "Chicago", "level": 1, "low_grade": -1, "high_grade": 8, "enrollment": 497, "teachers": 43, "lunch_pct": 55.5, "charter": false, "lat": 41.9497, "lng": -87.7171, "ratio": 11.6}, {"name": "Murray Elem Language Academy", "district": "City of Chicago SD 299", "city": "Chicago", "level": 1, "low_grade": 0, "high_grade": 8, "enrollment": 445, "teachers": 30, "lunch_pct": 60.2, "charter": false, "lat": 41.7983, "lng": -87.5924, "ratio": 14.8}, {"name": "Nash Elem School", "district": "City of Chicago SD 299", "city": "Chicago", "level": 1, "low_grade": -1, "high_grade": 8, "enrollment": 232, "teachers": 18, "lunch_pct": 90.5, "charter": false, "lat": 41.892, "lng": -87.7472, "ratio": 12.9}, {"name": "Neil Elem School", "district": "City of Chicago SD 299", "city": "Chicago", "level": 1, "low_grade": -1, "high_grade": 8, "enrollment": 248, "teachers": 26, "lunch_pct": 78.2, "charter": false, "lat": 41.7391, "lng": -87.6206, "ratio": 9.5}, {"name": "Nettelhorst Elem School", "district": "City of Chicago SD 299", "city": "Chicago", "level": 1, "low_grade": -1, "high_grade": 8, "enrollment": 625, "teachers": 50, "lunch_pct": 18.4, "charter": false, "lat": 41.9416, "lng": -87.645, "ratio": 12.5}, {"name": "Newberry Elem Math & Science Acad", "district": "City of Chicago SD 299", "city": "Chicago", "level": 1, "low_grade": -1, "high_grade": 8, "enrollment": 363, "teachers": 31, "lunch_pct": 67.5, "charter": false, "lat": 41.9142, "lng": -87.6462, "ratio": 11.7}, {"name": "Nightingale Elem School", "district": "City of Chicago SD 299", "city": "Chicago", "level": 1, "low_grade": -1, "high_grade": 8, "enrollment": 964, "teachers": 69, "lunch_pct": 92.8, "charter": false, "lat": 41.7978, "lng": -87.6894, "ratio": 14.0}, {"name": "Carver Primary School", "district": "City of Chicago SD 299", "city": "Chicago", "level": 1, "low_grade": -1, "high_grade": 8, "enrollment": 464, "teachers": 26, "lunch_pct": 99.8, "charter": false, "lat": 41.6531, "lng": -87.601, "ratio": 17.8}, {"name": "Nixon Elem School", "district": "City of Chicago SD 299", "city": "Chicago", "level": 1, "low_grade": -1, "high_grade": 6, "enrollment": 589, "teachers": 42, "lunch_pct": 90.5, "charter": false, "lat": 41.9196, "lng": -87.7311, "ratio": 14.0}, {"name": "Nobel Elem School", "district": "City of Chicago SD 299", "city": "Chicago", "level": 1, "low_grade": -1, "high_grade": 8, "enrollment": 580, "teachers": 38, "lunch_pct": 92.2, "charter": false, "lat": 41.9058, "lng": -87.7297, "ratio": 15.3}, {"name": "Norwood Park Elem School", "district": "City of Chicago SD 299", "city": "Chicago", "level": 1, "low_grade": -1, "high_grade": 8, "enrollment": 337, "teachers": 27, "lunch_pct": 14.2, "charter": false, "lat": 41.9894, "lng": -87.8026, "ratio": 12.5}, {"name": "Armour Elem School", "district": "City of Chicago SD 299", "city": "Chicago", "level": 1, "low_grade": -1, "high_grade": 8, "enrollment": 246, "teachers": 27, "lunch_pct": 82.9, "charter": false, "lat": 41.8341, "lng": -87.65, "ratio": 9.1}, {"name": "Ogden Elem School", "district": "City of Chicago SD 299", "city": "Chicago", "level": 1, "low_grade": -1, "high_grade": 8, "enrollment": 875, "teachers": 0, "lunch_pct": 47.8, "charter": false, "lat": 41.9002, "lng": -87.6291, "ratio": 875.0}, {"name": "Oglesby Elem School", "district": "City of Chicago SD 299", "city": "Chicago", "level": 1, "low_grade": -1, "high_grade": 8, "enrollment": 264, "teachers": 24, "lunch_pct": 98.1, "charter": false, "lat": 41.7548, "lng": -87.6459, "ratio": 11.0}, {"name": "OKeeffe Elem School", "district": "City of Chicago SD 299", "city": "Chicago", "level": 1, "low_grade": -1, "high_grade": 8, "enrollment": 492, "teachers": 35, "lunch_pct": 90.7, "charter": false, "lat": 41.7687, "lng": -87.5731, "ratio": 14.1}, {"name": "Onahan Elem School", "district": "City of Chicago SD 299", "city": "Chicago", "level": 1, "low_grade": -1, "high_grade": 8, "enrollment": 670, "teachers": 45, "lunch_pct": 32.8, "charter": false, "lat": 41.9941, "lng": -87.7925, "ratio": 14.9}, {"name": "Oriole Park Elem School", "district": "City of Chicago SD 299", "city": "Chicago", "level": 1, "low_grade": -1, "high_grade": 8, "enrollment": 602, "teachers": 44, "lunch_pct": 22.4, "charter": false, "lat": 41.9786, "lng": -87.8124, "ratio": 13.7}, {"name": "Piccolo Elem Specialty School", "district": "City of Chicago SD 299", "city": "Chicago", "level": 1, "low_grade": -1, "high_grade": 8, "enrollment": 571, "teachers": 46, "lunch_pct": 90.7, "charter": false, "lat": 41.9003, "lng": -87.7319, "ratio": 12.4}, {"name": "Otis Elem School", "district": "City of Chicago SD 299", "city": "Chicago", "level": 1, "low_grade": -1, "high_grade": 8, "enrollment": 317, "teachers": 32, "lunch_pct": 91.2, "charter": false, "lat": 41.8916, "lng": -87.6652, "ratio": 9.9}, {"name": "OToole Elem School", "district": "City of Chicago SD 299", "city": "Chicago", "level": 1, "low_grade": -1, "high_grade": 8, "enrollment": 334, "teachers": 22, "lunch_pct": 96.7, "charter": false, "lat": 41.7746, "lng": -87.6754, "ratio": 15.2}, {"name": "Owen Elem Scholastic Academy", "district": "City of Chicago SD 299", "city": "Chicago", "level": 1, "low_grade": -1, "high_grade": 8, "enrollment": 271, "teachers": 18, "lunch_pct": 55.7, "charter": false, "lat": 41.742844, "lng": -87.705392, "ratio": 15.1}, {"name": "Palmer Elem School", "district": "City of Chicago SD 299", "city": "Chicago", "level": 1, "low_grade": -1, "high_grade": 8, "enrollment": 735, "teachers": 50, "lunch_pct": 67.3, "charter": false, "lat": 41.9729, "lng": -87.7389, "ratio": 14.7}, {"name": "Parker Elem Community Academy", "district": "City of Chicago SD 299", "city": "Chicago", "level": 1, "low_grade": -1, "high_grade": 8, "enrollment": 347, "teachers": 28, "lunch_pct": 97.4, "charter": false, "lat": 41.7709, "lng": -87.633, "ratio": 12.4}, {"name": "Park Manor Elem School", "district": "City of Chicago SD 299", "city": "Chicago", "level": 1, "low_grade": -1, "high_grade": 8, "enrollment": 266, "teachers": 19, "lunch_pct": 99.6, "charter": false, "lat": 41.7667, "lng": -87.6113, "ratio": 14.0}, {"name": "Parkside Elem Community Academy", "district": "City of Chicago SD 299", "city": "Chicago", "level": 1, "low_grade": -1, "high_grade": 8, "enrollment": 236, "teachers": 18, "lunch_pct": 91.5, "charter": false, "lat": 41.7689, "lng": -87.5832, "ratio": 13.1}, {"name": "Pasteur Elem School", "district": "City of Chicago SD 299", "city": "Chicago", "level": 1, "low_grade": -1, "high_grade": 4, "enrollment": 585, "teachers": 38, "lunch_pct": 86.8, "charter": false, "lat": 41.787, "lng": -87.7324, "ratio": 15.4}, {"name": "Peck Elem School", "district": "City of Chicago SD 299", "city": "Chicago", "level": 1, "low_grade": -1, "high_grade": 4, "enrollment": 798, "teachers": 51, "lunch_pct": 93.2, "charter": false, "lat": 41.7881, "lng": -87.7197, "ratio": 15.6}, {"name": "Peirce Elem Intl Studies School", "district": "City of Chicago SD 299", "city": "Chicago", "level": 1, "low_grade": -1, "high_grade": 8, "enrollment": 1067, "teachers": 74, "lunch_pct": 36.2, "charter": false, "lat": 41.9833, "lng": -87.6669, "ratio": 14.4}, {"name": "Penn Elem School", "district": "City of Chicago SD 299", "city": "Chicago", "level": 1, "low_grade": -1, "high_grade": 8, "enrollment": 220, "teachers": 20, "lunch_pct": 97.7, "charter": false, "lat": 41.858396, "lng": -87.721933, "ratio": 11.0}, {"name": "Washington  H Elem School", "district": "City of Chicago SD 299", "city": "Chicago", "level": 1, "low_grade": -1, "high_grade": 8, "enrollment": 245, "teachers": 20, "lunch_pct": 98.0, "charter": false, "lat": 41.728583, "lng": -87.596626, "ratio": 12.2}, {"name": "Pershing Elem Humanities Magnet", "district": "City of Chicago SD 299", "city": "Chicago", "level": 1, "low_grade": -1, "high_grade": 8, "enrollment": 429, "teachers": 35, "lunch_pct": 82.3, "charter": false, "lat": 41.836, "lng": -87.6185, "ratio": 12.3}, {"name": "Peterson Elem School", "district": "City of Chicago SD 299", "city": "Chicago", "level": 1, "low_grade": -1, "high_grade": 8, "enrollment": 844, "teachers": 59, "lunch_pct": 60.0, "charter": false, "lat": 41.98191, "lng": -87.712888, "ratio": 14.3}, {"name": "Pickard Elem School", "district": "City of Chicago SD 299", "city": "Chicago", "level": 1, "low_grade": -1, "high_grade": 8, "enrollment": 297, "teachers": 27, "lunch_pct": 90.6, "charter": false, "lat": 41.8528, "lng": -87.6836, "ratio": 11.0}, {"name": "Pirie Elem Fine Arts & Academic C", "district": "City of Chicago SD 299", "city": "Chicago", "level": 1, "low_grade": -1, "high_grade": 6, "enrollment": 204, "teachers": 16, "lunch_pct": 89.2, "charter": false, "lat": 41.7407, "lng": -87.6083, "ratio": 12.8}, {"name": "Plamondon Elem School", "district": "City of Chicago SD 299", "city": "Chicago", "level": 1, "low_grade": 0, "high_grade": 8, "enrollment": 103, "teachers": 16, "lunch_pct": 84.5, "charter": false, "lat": 41.8604, "lng": -87.6926, "ratio": 6.4}, {"name": "Portage Park Elem School", "district": "City of Chicago SD 299", "city": "Chicago", "level": 1, "low_grade": -1, "high_grade": 8, "enrollment": 834, "teachers": 59, "lunch_pct": 70.1, "charter": false, "lat": 41.9574, "lng": -87.761, "ratio": 14.1}, {"name": "Prescott Elem School", "district": "City of Chicago SD 299", "city": "Chicago", "level": 1, "low_grade": 0, "high_grade": 8, "enrollment": 404, "teachers": 32, "lunch_pct": 30.2, "charter": false, "lat": 41.92909, "lng": -87.669294, "ratio": 12.6}, {"name": "Prussing Elem School", "district": "City of Chicago SD 299", "city": "Chicago", "level": 1, "low_grade": 0, "high_grade": 8, "enrollment": 620, "teachers": 45, "lunch_pct": 69.5, "charter": false, "lat": 41.9657, "lng": -87.7727, "ratio": 13.8}, {"name": "Tanner Elem School", "district": "City of Chicago SD 299", "city": "Chicago", "level": 1, "low_grade": -1, "high_grade": 8, "enrollment": 296, "teachers": 24, "lunch_pct": 95.9, "charter": false, "lat": 41.7608, "lng": -87.607, "ratio": 12.3}, {"name": "Pulaski Intl Sch of Chicago", "district": "City of Chicago SD 299", "city": "Chicago", "level": 1, "low_grade": -1, "high_grade": 8, "enrollment": 822, "teachers": 58, "lunch_pct": 40.8, "charter": false, "lat": 41.9187, "lng": -87.6838, "ratio": 14.2}, {"name": "Pullman Elem School", "district": "City of Chicago SD 299", "city": "Chicago", "level": 1, "low_grade": -1, "high_grade": 8, "enrollment": 295, "teachers": 26, "lunch_pct": 75.6, "charter": false, "lat": 41.688723, "lng": -87.608845, "ratio": 11.3}, {"name": "Ray Elem School", "district": "City of Chicago SD 299", "city": "Chicago", "level": 1, "low_grade": -1, "high_grade": 8, "enrollment": 495, "teachers": 33, "lunch_pct": 56.8, "charter": false, "lat": 41.7923, "lng": -87.5945, "ratio": 15.0}, {"name": "Ravenswood Elem School", "district": "City of Chicago SD 299", "city": "Chicago", "level": 1, "low_grade": -1, "high_grade": 8, "enrollment": 535, "teachers": 37, "lunch_pct": 32.5, "charter": false, "lat": 41.9611, "lng": -87.6714, "ratio": 14.5}, {"name": "Reavis Elem Math & Sci Spec Schl", "district": "City of Chicago SD 299", "city": "Chicago", "level": 1, "low_grade": -1, "high_grade": 8, "enrollment": 281, "teachers": 25, "lunch_pct": 88.6, "charter": false, "lat": 41.8044, "lng": -87.6054, "ratio": 11.2}, {"name": "Reilly Elem School", "district": "City of Chicago SD 299", "city": "Chicago", "level": 1, "low_grade": -1, "high_grade": 8, "enrollment": 563, "teachers": 45, "lunch_pct": 78.2, "charter": false, "lat": 41.9417, "lng": -87.7194, "ratio": 12.5}, {"name": "Reinberg Elem School", "district": "City of Chicago SD 299", "city": "Chicago", "level": 1, "low_grade": -1, "high_grade": 8, "enrollment": 720, "teachers": 61, "lunch_pct": 80.1, "charter": false, "lat": 41.9427, "lng": -87.7686, "ratio": 11.8}, {"name": "Revere Elem School", "district": "City of Chicago SD 299", "city": "Chicago", "level": 1, "low_grade": -1, "high_grade": 8, "enrollment": 215, "teachers": 17, "lunch_pct": 79.5, "charter": false, "lat": 41.7645, "lng": -87.6003, "ratio": 12.6}, {"name": "Rogers Elem School", "district": "City of Chicago SD 299", "city": "Chicago", "level": 1, "low_grade": -1, "high_grade": 8, "enrollment": 700, "teachers": 57, "lunch_pct": 65.9, "charter": false, "lat": 42.0153, "lng": -87.6968, "ratio": 12.3}, {"name": "Ruggles Elem School", "district": "City of Chicago SD 299", "city": "Chicago", "level": 1, "low_grade": -1, "high_grade": 8, "enrollment": 316, "teachers": 24, "lunch_pct": 96.2, "charter": false, "lat": 41.7523, "lng": -87.6176, "ratio": 13.2}, {"name": "Ryder Elem Math & Sci Spec School", "district": "City of Chicago SD 299", "city": "Chicago", "level": 1, "low_grade": -1, "high_grade": 8, "enrollment": 351, "teachers": 34, "lunch_pct": 89.2, "charter": false, "lat": 41.735, "lng": -87.6396, "ratio": 10.3}, {"name": "Sauganash Elem School", "district": "City of Chicago SD 299", "city": "Chicago", "level": 1, "low_grade": 0, "high_grade": 8, "enrollment": 612, "teachers": 40, "lunch_pct": 17.8, "charter": false, "lat": 41.991154, "lng": -87.746475, "ratio": 15.3}, {"name": "Sawyer Elem School", "district": "City of Chicago SD 299", "city": "Chicago", "level": 1, "low_grade": 0, "high_grade": 8, "enrollment": 1030, "teachers": 63, "lunch_pct": 95.8, "charter": false, "lat": 41.7976, "lng": -87.7053, "ratio": 16.3}, {"name": "Sayre Elem Language Academy", "district": "City of Chicago SD 299", "city": "Chicago", "level": 1, "low_grade": -1, "high_grade": 8, "enrollment": 428, "teachers": 39, "lunch_pct": 60.0, "charter": false, "lat": 41.9138, "lng": -87.7992, "ratio": 11.0}, {"name": "Ashe Elem School", "district": "City of Chicago SD 299", "city": "Chicago", "level": 1, "low_grade": -1, "high_grade": 8, "enrollment": 364, "teachers": 23, "lunch_pct": 84.3, "charter": false, "lat": 41.7399, "lng": -87.6009, "ratio": 15.8}, {"name": "Scammon Elem School", "district": "City of Chicago SD 299", "city": "Chicago", "level": 1, "low_grade": -1, "high_grade": 8, "enrollment": 641, "teachers": 46, "lunch_pct": 92.2, "charter": false, "lat": 41.9414, "lng": -87.733, "ratio": 13.9}, {"name": "Schmid Elem School", "district": "City of Chicago SD 299", "city": "Chicago", "level": 1, "low_grade": -1, "high_grade": 8, "enrollment": 171, "teachers": 22, "lunch_pct": 81.9, "charter": false, "lat": 41.7174, "lng": -87.5963, "ratio": 7.8}, {"name": "Schubert Elem School", "district": "City of Chicago SD 299", "city": "Chicago", "level": 1, "low_grade": -1, "high_grade": 5, "enrollment": 540, "teachers": 42, "lunch_pct": 91.9, "charter": false, "lat": 41.93, "lng": -87.7607, "ratio": 12.9}, {"name": "Seward Elem Communication Arts Ac", "district": "City of Chicago SD 299", "city": "Chicago", "level": 1, "low_grade": -1, "high_grade": 8, "enrollment": 449, "teachers": 35, "lunch_pct": 95.5, "charter": false, "lat": 41.8099, "lng": -87.669, "ratio": 12.8}, {"name": "Sheridan Elem Math & Science Acad", "district": "City of Chicago SD 299", "city": "Chicago", "level": 1, "low_grade": 0, "high_grade": 8, "enrollment": 529, "teachers": 29, "lunch_pct": 53.5, "charter": false, "lat": 41.8442, "lng": -87.641, "ratio": 18.2}, {"name": "Mireles Elem Academy", "district": "City of Chicago SD 299", "city": "Chicago", "level": 1, "low_grade": -1, "high_grade": 8, "enrollment": 470, "teachers": 31, "lunch_pct": 94.3, "charter": false, "lat": 41.7312, "lng": -87.553, "ratio": 15.2}, {"name": "Sherman Elem School", "district": "City of Chicago SD 299", "city": "Chicago", "level": 1, "low_grade": -1, "high_grade": 8, "enrollment": 222, "teachers": 20, "lunch_pct": 99.5, "charter": false, "lat": 41.8, "lng": -87.6505, "ratio": 11.1}, {"name": "Sherwood Elem School", "district": "City of Chicago SD 299", "city": "Chicago", "level": 1, "low_grade": -1, "high_grade": 8, "enrollment": 200, "teachers": 23, "lunch_pct": 94.0, "charter": false, "lat": 41.7906, "lng": -87.632, "ratio": 8.7}, {"name": "Jackson M Elem School", "district": "City of Chicago SD 299", "city": "Chicago", "level": 1, "low_grade": -1, "high_grade": 8, "enrollment": 334, "teachers": 24, "lunch_pct": 96.7, "charter": false, "lat": 41.7339, "lng": -87.6465, "ratio": 13.9}, {"name": "Shields Elem School", "district": "City of Chicago SD 299", "city": "Chicago", "level": 1, "low_grade": -1, "high_grade": 4, "enrollment": 457, "teachers": 36, "lunch_pct": 94.5, "charter": false, "lat": 41.8161, "lng": -87.6901, "ratio": 12.7}, {"name": "Shoesmith Elem School", "district": "City of Chicago SD 299", "city": "Chicago", "level": 1, "low_grade": 0, "high_grade": 6, "enrollment": 322, "teachers": 22, "lunch_pct": 77.3, "charter": false, "lat": 41.8048, "lng": -87.5943, "ratio": 14.6}, {"name": "Shoop Math-Sci Tech Elem Academy", "district": "City of Chicago SD 299", "city": "Chicago", "level": 1, "low_grade": -1, "high_grade": 8, "enrollment": 388, "teachers": 30, "lunch_pct": 92.3, "charter": false, "lat": 41.6907, "lng": -87.6592, "ratio": 12.9}, {"name": "Skinner Elem School", "district": "City of Chicago SD 299", "city": "Chicago", "level": 1, "low_grade": -1, "high_grade": 8, "enrollment": 976, "teachers": 59, "lunch_pct": 24.3, "charter": false, "lat": 41.9071, "lng": -87.6454, "ratio": 16.5}, {"name": "Smyser Elem School", "district": "City of Chicago SD 299", "city": "Chicago", "level": 1, "low_grade": -1, "high_grade": 8, "enrollment": 763, "teachers": 52, "lunch_pct": 63.2, "charter": false, "lat": 41.9593, "lng": -87.7826, "ratio": 14.7}, {"name": "Smyth  J Elem School", "district": "City of Chicago SD 299", "city": "Chicago", "level": 1, "low_grade": -1, "high_grade": 8, "enrollment": 397, "teachers": 35, "lunch_pct": 96.2, "charter": false, "lat": 41.8653, "lng": -87.6535, "ratio": 11.3}, {"name": "Cardenas Elem School", "district": "City of Chicago SD 299", "city": "Chicago", "level": 1, "low_grade": -1, "high_grade": 8, "enrollment": 817, "teachers": 61, "lunch_pct": 92.7, "charter": false, "lat": 41.8482, "lng": -87.7157, "ratio": 13.4}, {"name": "Solomon Elem School", "district": "City of Chicago SD 299", "city": "Chicago", "level": 1, "low_grade": -1, "high_grade": 8, "enrollment": 343, "teachers": 28, "lunch_pct": 50.1, "charter": false, "lat": 41.9943, "lng": -87.7244, "ratio": 12.2}, {"name": "Spencer Technology Acad Elem Sch", "district": "City of Chicago SD 299", "city": "Chicago", "level": 1, "low_grade": -1, "high_grade": 8, "enrollment": 391, "teachers": 33, "lunch_pct": 83.4, "charter": false, "lat": 41.8849, "lng": -87.7507, "ratio": 11.8}, {"name": "Stagg Elem School", "district": "City of Chicago SD 299", "city": "Chicago", "level": 1, "low_grade": -1, "high_grade": 8, "enrollment": 379, "teachers": 23, "lunch_pct": 86.3, "charter": false, "lat": 41.7591, "lng": -87.6494, "ratio": 16.5}, {"name": "Stevenson Elem School", "district": "City of Chicago SD 299", "city": "Chicago", "level": 1, "low_grade": -1, "high_grade": 8, "enrollment": 1124, "teachers": 81, "lunch_pct": 85.1, "charter": false, "lat": 41.7471, "lng": -87.732, "ratio": 13.9}, {"name": "Stone Elem Scholastic Academy", "district": "City of Chicago SD 299", "city": "Chicago", "level": 1, "low_grade": 0, "high_grade": 8, "enrollment": 551, "teachers": 37, "lunch_pct": 56.6, "charter": false, "lat": 41.9955, "lng": -87.6843, "ratio": 14.9}, {"name": "Spry Elem Community School", "district": "City of Chicago SD 299", "city": "Chicago", "level": 1, "low_grade": -1, "high_grade": 8, "enrollment": 294, "teachers": 32, "lunch_pct": 93.2, "charter": false, "lat": 41.847637, "lng": -87.699794, "ratio": 9.2}, {"name": "Stowe Elem School", "district": "City of Chicago SD 299", "city": "Chicago", "level": 1, "low_grade": -1, "high_grade": 8, "enrollment": 557, "teachers": 41, "lunch_pct": 90.5, "charter": false, "lat": 41.9126, "lng": -87.7131, "ratio": 13.6}, {"name": "Sullivan Elem School", "district": "City of Chicago SD 299", "city": "Chicago", "level": 1, "low_grade": -1, "high_grade": 8, "enrollment": 384, "teachers": 35, "lunch_pct": 95.6, "charter": false, "lat": 41.744, "lng": -87.5426, "ratio": 11.0}, {"name": "Sumner Elem Math & Sci Comm Acad", "district": "City of Chicago SD 299", "city": "Chicago", "level": 1, "low_grade": -1, "high_grade": 8, "enrollment": 201, "teachers": 19, "lunch_pct": 87.6, "charter": false, "lat": 41.8718, "lng": -87.7324, "ratio": 10.6}, {"name": "Sutherland Elem School", "district": "City of Chicago SD 299", "city": "Chicago", "level": 1, "low_grade": 0, "high_grade": 8, "enrollment": 593, "teachers": 42, "lunch_pct": 34.6, "charter": false, "lat": 41.7113, "lng": -87.6765, "ratio": 14.1}, {"name": "Swift Elem Specialty School", "district": "City of Chicago SD 299", "city": "Chicago", "level": 1, "low_grade": -1, "high_grade": 8, "enrollment": 532, "teachers": 42, "lunch_pct": 82.3, "charter": false, "lat": 41.9892, "lng": -87.6585, "ratio": 12.7}, {"name": "Taylor Elem School", "district": "City of Chicago SD 299", "city": "Chicago", "level": 1, "low_grade": -1, "high_grade": 8, "enrollment": 337, "teachers": 30, "lunch_pct": 92.9, "charter": false, "lat": 41.7154, "lng": -87.5333, "ratio": 11.2}, {"name": "Thorp  J N Elem School", "district": "City of Chicago SD 299", "city": "Chicago", "level": 1, "low_grade": -1, "high_grade": 8, "enrollment": 275, "teachers": 21, "lunch_pct": 97.1, "charter": false, "lat": 41.73326, "lng": -87.544813, "ratio": 13.1}, {"name": "Thorp  O A Elem Scholastic Acad", "district": "City of Chicago SD 299", "city": "Chicago", "level": 1, "low_grade": 0, "high_grade": 8, "enrollment": 787, "teachers": 56, "lunch_pct": 39.6, "charter": false, "lat": 41.9489, "lng": -87.7778, "ratio": 14.1}, {"name": "Tilton Elem School", "district": "City of Chicago SD 299", "city": "Chicago", "level": 1, "low_grade": -1, "high_grade": 8, "enrollment": 234, "teachers": 20, "lunch_pct": 98.7, "charter": false, "lat": 41.8839, "lng": -87.7304, "ratio": 11.7}, {"name": "Tonti Elem School", "district": "City of Chicago SD 299", "city": "Chicago", "level": 1, "low_grade": -1, "high_grade": 5, "enrollment": 791, "teachers": 54, "lunch_pct": 91.0, "charter": false, "lat": 41.7874, "lng": -87.7078, "ratio": 14.6}, {"name": "Ninos Heroes Elem Academic Ctr", "district": "City of Chicago SD 299", "city": "Chicago", "level": 1, "low_grade": -1, "high_grade": 8, "enrollment": 294, "teachers": 24, "lunch_pct": 92.5, "charter": false, "lat": 41.744132, "lng": -87.553038, "ratio": 12.2}, {"name": "Twain Elem School", "district": "City of Chicago SD 299", "city": "Chicago", "level": 1, "low_grade": -1, "high_grade": 8, "enrollment": 931, "teachers": 58, "lunch_pct": 75.1, "charter": false, "lat": 41.7994, "lng": -87.7596, "ratio": 16.1}, {"name": "Vanderpoel Elem Magnet School", "district": "City of Chicago SD 299", "city": "Chicago", "level": 1, "low_grade": 0, "high_grade": 8, "enrollment": 241, "teachers": 18, "lunch_pct": 57.7, "charter": false, "lat": 41.7205, "lng": -87.6659, "ratio": 13.4}, {"name": "Lavizzo Elem School", "district": "City of Chicago SD 299", "city": "Chicago", "level": 1, "low_grade": -1, "high_grade": 8, "enrollment": 342, "teachers": 26, "lunch_pct": 96.5, "charter": false, "lat": 41.6965, "lng": -87.6271, "ratio": 13.2}, {"name": "Walsh Elem School", "district": "City of Chicago SD 299", "city": "Chicago", "level": 1, "low_grade": -1, "high_grade": 8, "enrollment": 231, "teachers": 26, "lunch_pct": 80.5, "charter": false, "lat": 41.8547, "lng": -87.6479, "ratio": 8.9}, {"name": "Volta Elem School", "district": "City of Chicago SD 299", "city": "Chicago", "level": 1, "low_grade": -1, "high_grade": 8, "enrollment": 700, "teachers": 47, "lunch_pct": 85.9, "charter": false, "lat": 41.9716, "lng": -87.725, "ratio": 14.9}, {"name": "Wacker Elem School", "district": "City of Chicago SD 299", "city": "Chicago", "level": 1, "low_grade": -1, "high_grade": 8, "enrollment": 218, "teachers": 16, "lunch_pct": 81.7, "charter": false, "lat": 41.7163, "lng": -87.6483, "ratio": 13.6}, {"name": "Ward  J Elem School", "district": "City of Chicago SD 299", "city": "Chicago", "level": 1, "low_grade": -1, "high_grade": 8, "enrollment": 515, "teachers": 32, "lunch_pct": 79.4, "charter": false, "lat": 41.8435, "lng": -87.6351, "ratio": 16.1}, {"name": "Wadsworth Elem School", "district": "City of Chicago SD 299", "city": "Chicago", "level": 1, "low_grade": -1, "high_grade": 8, "enrollment": 460, "teachers": 29, "lunch_pct": 79.1, "charter": false, "lat": 41.7783, "lng": -87.5983, "ratio": 15.9}, {"name": "Washington  G Elem School", "district": "City of Chicago SD 299", "city": "Chicago", "level": 1, "low_grade": -1, "high_grade": 8, "enrollment": 639, "teachers": 39, "lunch_pct": 74.6, "charter": false, "lat": 41.6878, "lng": -87.536, "ratio": 16.4}, {"name": "Waters Elem School", "district": "City of Chicago SD 299", "city": "Chicago", "level": 1, "low_grade": 0, "high_grade": 8, "enrollment": 627, "teachers": 40, "lunch_pct": 22.2, "charter": false, "lat": 41.9644, "lng": -87.6919, "ratio": 15.7}, {"name": "Webster Elem School", "district": "City of Chicago SD 299", "city": "Chicago", "level": 1, "low_grade": -1, "high_grade": 8, "enrollment": 211, "teachers": 17, "lunch_pct": 86.3, "charter": false, "lat": 41.8698, "lng": -87.7272, "ratio": 12.4}, {"name": "Wentworth Elem School", "district": "City of Chicago SD 299", "city": "Chicago", "level": 1, "low_grade": -1, "high_grade": 8, "enrollment": 406, "teachers": 30, "lunch_pct": 97.3, "charter": false, "lat": 41.7653, "lng": -87.6584, "ratio": 13.5}, {"name": "Westcott Elem School", "district": "City of Chicago SD 299", "city": "Chicago", "level": 1, "low_grade": -1, "high_grade": 8, "enrollment": 413, "teachers": 27, "lunch_pct": 98.8, "charter": false, "lat": 41.7487, "lng": -87.6355, "ratio": 15.3}, {"name": "Pritzker Elem School", "district": "City of Chicago SD 299", "city": "Chicago", "level": 1, "low_grade": -1, "high_grade": 8, "enrollment": 651, "teachers": 42, "lunch_pct": 27.2, "charter": false, "lat": 41.9066, "lng": -87.6778, "ratio": 15.5}, {"name": "Whistler Elem School", "district": "City of Chicago SD 299", "city": "Chicago", "level": 1, "low_grade": -1, "high_grade": 8, "enrollment": 269, "teachers": 18, "lunch_pct": 92.9, "charter": false, "lat": 41.6842, "lng": -87.6551, "ratio": 14.9}, {"name": "Joplin Elem School", "district": "City of Chicago SD 299", "city": "Chicago", "level": 1, "low_grade": -1, "high_grade": 8, "enrollment": 331, "teachers": 24, "lunch_pct": 94.9, "charter": false, "lat": 41.7495, "lng": -87.6691, "ratio": 13.8}, {"name": "Whitney Elem School", "district": "City of Chicago SD 299", "city": "Chicago", "level": 1, "low_grade": -1, "high_grade": 8, "enrollment": 598, "teachers": 40, "lunch_pct": 95.0, "charter": false, "lat": 41.84, "lng": -87.7254, "ratio": 14.9}, {"name": "Whittier Elem School", "district": "City of Chicago SD 299", "city": "Chicago", "level": 1, "low_grade": -1, "high_grade": 8, "enrollment": 166, "teachers": 21, "lunch_pct": 83.1, "charter": false, "lat": 41.8506, "lng": -87.674, "ratio": 7.9}, {"name": "Woodson South Elem School", "district": "City of Chicago SD 299", "city": "Chicago", "level": 1, "low_grade": -1, "high_grade": 8, "enrollment": 294, "teachers": 19, "lunch_pct": 82.3, "charter": false, "lat": 41.814, "lng": -87.6087, "ratio": 15.5}, {"name": "Till Elem Math & Science Academy", "district": "City of Chicago SD 299", "city": "Chicago", "level": 1, "low_grade": -1, "high_grade": 8, "enrollment": 307, "teachers": 22, "lunch_pct": 98.0, "charter": false, "lat": 41.775553, "lng": -87.609085, "ratio": 14.0}, {"name": "Warren Elem School", "district": "City of Chicago SD 299", "city": "Chicago", "level": 1, "low_grade": -1, "high_grade": 8, "enrollment": 243, "teachers": 14, "lunch_pct": 91.8, "charter": false, "lat": 41.7277, "lng": -87.575, "ratio": 17.4}, {"name": "Aldridge Elem School", "district": "City of Chicago SD 299", "city": "Chicago", "level": 1, "low_grade": -1, "high_grade": 8, "enrollment": 235, "teachers": 15, "lunch_pct": 94.9, "charter": false, "lat": 41.6577, "lng": -87.6069, "ratio": 15.7}, {"name": "Young Elem School", "district": "City of Chicago SD 299", "city": "Chicago", "level": 1, "low_grade": -1, "high_grade": 8, "enrollment": 480, "teachers": 36, "lunch_pct": 96.2, "charter": false, "lat": 41.9067, "lng": -87.7675, "ratio": 13.3}, {"name": "Dirksen Elem School", "district": "City of Chicago SD 299", "city": "Chicago", "level": 1, "low_grade": -1, "high_grade": 8, "enrollment": 1069, "teachers": 61, "lunch_pct": 58.6, "charter": false, "lat": 41.9735, "lng": -87.8416, "ratio": 17.5}, {"name": "Yates Elem School", "district": "City of Chicago SD 299", "city": "Chicago", "level": 1, "low_grade": -1, "high_grade": 8, "enrollment": 280, "teachers": 35, "lunch_pct": 86.1, "charter": false, "lat": 41.9148, "lng": -87.6998, "ratio": 8.0}, {"name": "Depriest Elem School", "district": "City of Chicago SD 299", "city": "Chicago", "level": 1, "low_grade": -1, "high_grade": 8, "enrollment": 458, "teachers": 40, "lunch_pct": 92.8, "charter": false, "lat": 41.878, "lng": -87.7659, "ratio": 11.4}, {"name": "Armstrong G Elem IntL Studies", "district": "City of Chicago SD 299", "city": "Chicago", "level": 1, "low_grade": -1, "high_grade": 8, "enrollment": 1248, "teachers": 83, "lunch_pct": 85.9, "charter": false, "lat": 42.0106, "lng": -87.6846, "ratio": 15.0}, {"name": "Cuffe Math-Sci Tech Elem Academy", "district": "City of Chicago SD 299", "city": "Chicago", "level": 1, "low_grade": -1, "high_grade": 8, "enrollment": 233, "teachers": 14, "lunch_pct": 85.4, "charter": false, "lat": 41.7424, "lng": -87.6539, "ratio": 16.6}, {"name": "Foster Park Elem School", "district": "City of Chicago SD 299", "city": "Chicago", "level": 1, "low_grade": -1, "high_grade": 8, "enrollment": 283, "teachers": 24, "lunch_pct": 80.6, "charter": false, "lat": 41.7387, "lng": -87.6684, "ratio": 11.8}, {"name": "McNair Elem School", "district": "City of Chicago SD 299", "city": "Chicago", "level": 1, "low_grade": -1, "high_grade": 8, "enrollment": 347, "teachers": 32, "lunch_pct": 97.4, "charter": false, "lat": 41.898, "lng": -87.747, "ratio": 10.8}, {"name": "Hay Elem Community Academy", "district": "City of Chicago SD 299", "city": "Chicago", "level": 1, "low_grade": -1, "high_grade": 8, "enrollment": 268, "teachers": 24, "lunch_pct": 96.3, "charter": false, "lat": 41.8995, "lng": -87.7561, "ratio": 11.2}, {"name": "Cullen Elem School", "district": "City of Chicago SD 299", "city": "Chicago", "level": 1, "low_grade": 0, "high_grade": 8, "enrollment": 171, "teachers": 12, "lunch_pct": 89.5, "charter": false, "lat": 41.7003, "lng": -87.6115, "ratio": 14.2}, {"name": "Green  W Elem School", "district": "City of Chicago SD 299", "city": "Chicago", "level": 1, "low_grade": -1, "high_grade": 8, "enrollment": 300, "teachers": 21, "lunch_pct": 77.7, "charter": false, "lat": 41.7195, "lng": -87.6524, "ratio": 14.3}, {"name": "Clark  G R Elem School", "district": "City of Chicago SD 299", "city": "Chicago", "level": 1, "low_grade": -1, "high_grade": 8, "enrollment": 155, "teachers": 18, "lunch_pct": 81.3, "charter": false, "lat": 41.868, "lng": -87.7702, "ratio": 8.6}, {"name": "Ward  L Elem School", "district": "City of Chicago SD 299", "city": "Chicago", "level": 1, "low_grade": -1, "high_grade": 8, "enrollment": 247, "teachers": 28, "lunch_pct": 97.6, "charter": false, "lat": 41.8933, "lng": -87.7191, "ratio": 8.8}, {"name": "Powell Elem Paideia Comm Academy", "district": "City of Chicago SD 299", "city": "Chicago", "level": 1, "low_grade": -1, "high_grade": 8, "enrollment": 535, "teachers": 34, "lunch_pct": 94.0, "charter": false, "lat": 41.760245, "lng": -87.556341, "ratio": 15.7}, {"name": "Lee Elem School", "district": "City of Chicago SD 299", "city": "Chicago", "level": 1, "low_grade": -1, "high_grade": 8, "enrollment": 628, "teachers": 42, "lunch_pct": 88.7, "charter": false, "lat": 41.7754, "lng": -87.7291, "ratio": 15.0}, {"name": "Salazar Elem Bilingual Center", "district": "City of Chicago SD 299", "city": "Chicago", "level": 1, "low_grade": -1, "high_grade": 8, "enrollment": 274, "teachers": 24, "lunch_pct": 89.1, "charter": false, "lat": 41.9016, "lng": -87.6339, "ratio": 11.4}, {"name": "Langford A Elem School", "district": "City of Chicago SD 299", "city": "Chicago", "level": 1, "low_grade": -1, "high_grade": 8, "enrollment": 178, "teachers": 19, "lunch_pct": 97.2, "charter": false, "lat": 41.7846, "lng": -87.6573, "ratio": 9.4}, {"name": "Finkl Elem School", "district": "City of Chicago SD 299", "city": "Chicago", "level": 1, "low_grade": -1, "high_grade": 8, "enrollment": 206, "teachers": 28, "lunch_pct": 94.2, "charter": false, "lat": 41.8497, "lng": -87.687, "ratio": 7.4}, {"name": "Ariel Elem Community Academy", "district": "City of Chicago SD 299", "city": "Chicago", "level": 1, "low_grade": -1, "high_grade": 8, "enrollment": 352, "teachers": 30, "lunch_pct": 80.1, "charter": false, "lat": 41.811188, "lng": -87.598128, "ratio": 11.7}, {"name": "Little Village Elem School", "district": "City of Chicago SD 299", "city": "Chicago", "level": 1, "low_grade": -1, "high_grade": 8, "enrollment": 601, "teachers": 52, "lunch_pct": 97.2, "charter": false, "lat": 41.8429, "lng": -87.7176, "ratio": 11.6}, {"name": "Zapata Elem Academy", "district": "City of Chicago SD 299", "city": "Chicago", "level": 1, "low_grade": -1, "high_grade": 8, "enrollment": 515, "teachers": 43, "lunch_pct": 92.4, "charter": false, "lat": 41.8413, "lng": -87.7355, "ratio": 12.0}, {"name": "Ortiz De Dominguez Elem School", "district": "City of Chicago SD 299", "city": "Chicago", "level": 1, "low_grade": -1, "high_grade": 2, "enrollment": 388, "teachers": 28, "lunch_pct": 94.6, "charter": false, "lat": 41.8383, "lng": -87.7177, "ratio": 13.9}, {"name": "Lara Elem Academy", "district": "City of Chicago SD 299", "city": "Chicago", "level": 1, "low_grade": -1, "high_grade": 8, "enrollment": 315, "teachers": 31, "lunch_pct": 94.0, "charter": false, "lat": 41.8099, "lng": -87.6719, "ratio": 10.2}, {"name": "Telpochcalli Elem School", "district": "City of Chicago SD 299", "city": "Chicago", "level": 1, "low_grade": -1, "high_grade": 8, "enrollment": 219, "teachers": 25, "lunch_pct": 86.3, "charter": false, "lat": 41.849, "lng": -87.697608, "ratio": 8.8}, {"name": "Wells Preparatory Elem Academy", "district": "City of Chicago SD 299", "city": "Chicago", "level": 1, "low_grade": -1, "high_grade": 8, "enrollment": 280, "teachers": 22, "lunch_pct": 87.9, "charter": false, "lat": 41.8271, "lng": -87.6198, "ratio": 12.7}, {"name": "Woodlawn Elem Community School", "district": "City of Chicago SD 299", "city": "Chicago", "level": 1, "low_grade": -1, "high_grade": 6, "enrollment": 180, "teachers": 13, "lunch_pct": 94.4, "charter": false, "lat": 41.7739, "lng": -87.5942, "ratio": 13.8}, {"name": "West Park Elem Academy", "district": "City of Chicago SD 299", "city": "Chicago", "level": 1, "low_grade": -1, "high_grade": 8, "enrollment": 460, "teachers": 36, "lunch_pct": 96.5, "charter": false, "lat": 41.9069, "lng": -87.7321, "ratio": 12.8}, {"name": "Fairfield Elem Academy", "district": "City of Chicago SD 299", "city": "Chicago", "level": 1, "low_grade": -1, "high_grade": 8, "enrollment": 456, "teachers": 30, "lunch_pct": 98.2, "charter": false, "lat": 41.7806, "lng": -87.6919, "ratio": 15.2}, {"name": "Locke A Elem Charter Academy", "district": "City of Chicago SD 299", "city": "Chicago", "level": 1, "low_grade": 0, "high_grade": 8, "enrollment": 321, "teachers": 25, "lunch_pct": 91.6, "charter": true, "lat": 41.8771, "lng": -87.705, "ratio": 12.8}, {"name": "Sandoval Elem School", "district": "City of Chicago SD 299", "city": "Chicago", "level": 1, "low_grade": -1, "high_grade": 5, "enrollment": 742, "teachers": 52, "lunch_pct": 92.9, "charter": false, "lat": 41.79304, "lng": -87.712351, "ratio": 14.3}, {"name": "Hampton Elem Fine & Perf Arts Sch", "district": "City of Chicago SD 299", "city": "Chicago", "level": 1, "low_grade": -1, "high_grade": 8, "enrollment": 468, "teachers": 33, "lunch_pct": 91.7, "charter": false, "lat": 41.7538, "lng": -87.709, "ratio": 14.2},