{"columbia": {"elem": [{"name": "Adair County Elementary School", "district": "Adair County", "city": "Columbia", "level": 1, "low_grade": 3, "high_grade": 5, "enrollment": 560, "teachers": 39, "lunch_pct": 71.8, "charter": false, "lat": 37.111501, "lng": -85.329528, "ratio": 14.4}, {"name": "Adair County Primary Center", "district": "Adair County", "city": "Columbia", "level": 1, "low_grade": -1, "high_grade": 2, "enrollment": 647, "teachers": 46, "lunch_pct": 70.5, "charter": false, "lat": 37.107162, "lng": -85.332453, "ratio": 14.1}], "middle": [{"name": "Adair County Middle School", "district": "Adair County", "city": "Columbia", "level": 2, "low_grade": 6, "high_grade": 8, "enrollment": 598, "teachers": 40, "lunch_pct": 68.7, "charter": false, "lat": 37.103987, "lng": -85.324729, "ratio": 14.9}], "high": [{"name": "Adair County High School", "district": "Adair County", "city": "Columbia", "level": 3, "low_grade": 9, "high_grade": 12, "enrollment": 791, "teachers": 51, "lunch_pct": 63.2, "charter": false, "lat": 37.107655, "lng": -85.328236, "ratio": 15.5}, {"name": "Adair Learning Academy", "district": "Adair County", "city": "Columbia", "level": 3, "low_grade": 5, "high_grade": 12, "enrollment": 26, "teachers": 5, "lunch_pct": 11.5, "charter": false, "lat": 37.08518, "lng": -85.30529, "ratio": 5.2}]}, "scottsville": {"elem": [{"name": "Allen County Primary Center", "district": "Allen County", "city": "Scottsville", "level": 1, "low_grade": -1, "high_grade": 3, "enrollment": 982, "teachers": 58, "lunch_pct": 64.7, "charter": false, "lat": 36.746901, "lng": -86.217613, "ratio": 16.9}], "middle": [{"name": "James E Bazzell Middle School", "district": "Allen County", "city": "Scottsville", "level": 2, "low_grade": 7, "high_grade": 8, "enrollment": 472, "teachers": 27, "lunch_pct": 58.1, "charter": false, "lat": 36.7532, "lng": -86.2147, "ratio": 17.5}, {"name": "Allen County Intermediate Center", "district": "Allen County", "city": "Scottsville", "level": 2, "low_grade": 4, "high_grade": 6, "enrollment": 694, "teachers": 38, "lunch_pct": 56.5, "charter": false, "lat": 36.748855, "lng": -86.218165, "ratio": 18.3}], "high": [{"name": "Allen County-Scottsville High School", "district": "Allen County", "city": "Scottsville", "level": 3, "low_grade": 9, "high_grade": 12, "enrollment": 890, "teachers": 52, "lunch_pct": 53.0, "charter": false, "lat": 36.754017, "lng": -86.217384, "ratio": 17.1}, {"name": "Allen County Career and Technical Center", "district": "Allen County", "city": "Scottsville", "level": 3, "low_grade": 9, "high_grade": 12, "enrollment": 0, "teachers": 2, "lunch_pct": 0.0, "charter": false, "lat": 36.75416, "lng": -86.218157, "ratio": 0.5}]}, "bremen": {"elem": [{"name": "Bremen Elementary School", "district": "Muhlenberg County", "city": "Bremen", "level": 1, "low_grade": -1, "high_grade": 5, "enrollment": 368, "teachers": 28, "lunch_pct": 63.9, "charter": false, "lat": 37.361246, "lng": -87.224257, "ratio": 13.1}], "middle": [], "high": []}, "greenville": {"elem": [{"name": "Longest Elementary", "district": "Muhlenberg County", "city": "Greenville", "level": 1, "low_grade": -1, "high_grade": 5, "enrollment": 384, "teachers": 26, "lunch_pct": 64.1, "charter": false, "lat": 37.230958, "lng": -87.163724, "ratio": 14.8}, {"name": "Greenville Elementary School", "district": "Muhlenberg County", "city": "Greenville", "level": 1, "low_grade": -1, "high_grade": 5, "enrollment": 577, "teachers": 37, "lunch_pct": 62.9, "charter": false, "lat": 37.204017, "lng": -87.174214, "ratio": 15.6}], "middle": [{"name": "Muhlenberg North Middle", "district": "Muhlenberg County", "city": "Greenville", "level": 2, "low_grade": 6, "high_grade": 8, "enrollment": 507, "teachers": 35, "lunch_pct": 58.8, "charter": false, "lat": 37.22964, "lng": -87.165165, "ratio": 14.5}, {"name": "Muhlenberg South Middle School", "district": "Muhlenberg County", "city": "Greenville", "level": 2, "low_grade": 6, "high_grade": 8, "enrollment": 420, "teachers": 25, "lunch_pct": 59.5, "charter": false, "lat": 37.198169, "lng": -87.173458, "ratio": 16.8}], "high": [{"name": "The Renaissance Center", "district": "Muhlenberg County", "city": "Greenville", "level": 3, "low_grade": 6, "high_grade": 12, "enrollment": 106, "teachers": 7, "lunch_pct": 85.8, "charter": false, "lat": 37.229067, "lng": -87.163566, "ratio": 15.1}, {"name": "Muhlenberg County Career & Tech Center", "district": "Muhlenberg County", "city": "Greenville", "level": 3, "low_grade": 9, "high_grade": 12, "enrollment": 0, "teachers": 6, "lunch_pct": 0.0, "charter": false, "lat": 37.223233, "lng": -87.186115, "ratio": 0.2}, {"name": "Muhlenberg County High School", "district": "Muhlenberg County", "city": "Greenville", "level": 3, "low_grade": 9, "high_grade": 12, "enrollment": 1146, "teachers": 67, "lunch_pct": 53.2, "charter": false, "lat": 37.223233, "lng": -87.186115, "ratio": 17.1}]}, "central city": {"elem": [{"name": "Central City Elementary", "district": "Muhlenberg County", "city": "Central City", "level": 1, "low_grade": -1, "high_grade": 5, "enrollment": 414, "teachers": 27, "lunch_pct": 72.7, "charter": false, "lat": 37.31895, "lng": -87.128672, "ratio": 15.3}], "middle": [], "high": []}, "beechmont": {"elem": [{"name": "Muhlenberg South Elementary", "district": "Muhlenberg County", "city": "Beechmont", "level": 1, "low_grade": -1, "high_grade": 5, "enrollment": 564, "teachers": 35, "lunch_pct": 65.4, "charter": false, "lat": 37.189399, "lng": -87.037917, "ratio": 16.1}], "middle": [], "high": []}, "anchorage": {"elem": [{"name": "Anchorage Independent Public School", "district": "Anchorage Independent", "city": "Anchorage", "level": 1, "low_grade": -1, "high_grade": 8, "enrollment": 405, "teachers": 38, "lunch_pct": 7.2, "charter": false, "lat": 38.265538, "lng": -85.543755, "ratio": 10.7}], "middle": [], "high": []}, "louisville": {"elem": [{"name": "Maryville Elementary School", "district": "Bullitt County", "city": "Louisville", "level": 1, "low_grade": -1, "high_grade": 5, "enrollment": 338, "teachers": 20, "lunch_pct": 70.4, "charter": false, "lat": 38.0612, "lng": -85.6867, "ratio": 16.9}, {"name": "Overdale Elementary School", "district": "Bullitt County", "city": "Louisville", "level": 1, "low_grade": -1, "high_grade": 5, "enrollment": 339, "teachers": 19, "lunch_pct": 66.4, "charter": false, "lat": 38.0806, "lng": -85.6771, "ratio": 17.8}, {"name": "Camp Taylor Elementary", "district": "Jefferson County", "city": "Louisville", "level": 1, "low_grade": 0, "high_grade": 5, "enrollment": 450, "teachers": 31, "lunch_pct": 71.3, "charter": false, "lat": 38.1964, "lng": -85.7192, "ratio": 14.5}, {"name": "Cane Run Elementary", "district": "Jefferson County", "city": "Louisville", "level": 1, "low_grade": -1, "high_grade": 5, "enrollment": 377, "teachers": 28, "lunch_pct": 79.6, "charter": false, "lat": 38.2096, "lng": -85.822, "ratio": 13.5}, {"name": "Fern Creek Elementary", "district": "Jefferson County", "city": "Louisville", "level": 1, "low_grade": 0, "high_grade": 5, "enrollment": 712, "teachers": 43, "lunch_pct": 66.4, "charter": false, "lat": 38.1568, "lng": -85.5952, "ratio": 16.6}, {"name": "Greathouse/Shryock Traditional", "district": "Jefferson County", "city": "Louisville", "level": 1, "low_grade": 0, "high_grade": 5, "enrollment": 606, "teachers": 31, "lunch_pct": 21.8, "charter": false, "lat": 38.2262, "lng": -85.6225, "ratio": 19.5}, {"name": "Greenwood Elementary", "district": "Jefferson County", "city": "Louisville", "level": 1, "low_grade": 0, "high_grade": 5, "enrollment": 457, "teachers": 24, "lunch_pct": 72.4, "charter": false, "lat": 38.1454, "lng": -85.8612, "ratio": 19.0}, {"name": "Tully Elementary", "district": "Jefferson County", "city": "Louisville", "level": 1, "low_grade": -1, "high_grade": 5, "enrollment": 788, "teachers": 45, "lunch_pct": 37.8, "charter": false, "lat": 38.196, "lng": -85.5713, "ratio": 17.5}, {"name": "Medora Elementary", "district": "Jefferson County", "city": "Louisville", "level": 1, "low_grade": 0, "high_grade": 5, "enrollment": 463, "teachers": 26, "lunch_pct": 57.2, "charter": false, "lat": 38.0899, "lng": -85.8751, "ratio": 17.8}, {"name": "Middletown Elementary", "district": "Jefferson County", "city": "Louisville", "level": 1, "low_grade": -1, "high_grade": 5, "enrollment": 538, "teachers": 34, "lunch_pct": 48.5, "charter": false, "lat": 38.2488, "lng": -85.5417, "ratio": 15.8}, {"name": "Okolona Elementary", "district": "Jefferson County", "city": "Louisville", "level": 1, "low_grade": -1, "high_grade": 5, "enrollment": 354, "teachers": 24, "lunch_pct": 74.3, "charter": false, "lat": 38.1408, "lng": -85.69, "ratio": 14.8}, {"name": "Audubon Traditional Elementary", "district": "Jefferson County", "city": "Louisville", "level": 1, "low_grade": 0, "high_grade": 5, "enrollment": 614, "teachers": 30, "lunch_pct": 45.1, "charter": false, "lat": 38.208098, "lng": -85.731348, "ratio": 20.5}, {"name": "Chenoweth Elementary", "district": "Jefferson County", "city": "Louisville", "level": 1, "low_grade": -1, "high_grade": 5, "enrollment": 467, "teachers": 31, "lunch_pct": 57.2, "charter": false, "lat": 38.263, "lng": -85.6692, "ratio": 15.1}, {"name": "Hawthorne Elementary", "district": "Jefferson County", "city": "Louisville", "level": 1, "low_grade": -1, "high_grade": 5, "enrollment": 448, "teachers": 28, "lunch_pct": 42.0, "charter": false, "lat": 38.218, "lng": -85.6717, "ratio": 16.0}, {"name": "Bates Elementary", "district": "Jefferson County", "city": "Louisville", "level": 1, "low_grade": 0, "high_grade": 5, "enrollment": 568, "teachers": 34, "lunch_pct": 46.5, "charter": false, "lat": 38.1372, "lng": -85.5787, "ratio": 16.7}, {"name": "Kenwood Elementary", "district": "Jefferson County", "city": "Louisville", "level": 1, "low_grade": 0, "high_grade": 5, "enrollment": 578, "teachers": 38, "lunch_pct": 72.3, "charter": false, "lat": 38.1455, "lng": -85.787, "ratio": 15.2}, {"name": "Goldsmith Elementary", "district": "Jefferson County", "city": "Louisville", "level": 1, "low_grade": 0, "high_grade": 5, "enrollment": 607, "teachers": 45, "lunch_pct": 70.3, "charter": false, "lat": 38.2084, "lng": -85.6544, "ratio": 13.5}, {"name": "St Matthews Elementary", "district": "Jefferson County", "city": "Louisville", "level": 1, "low_grade": 0, "high_grade": 5, "enrollment": 563, "teachers": 32, "lunch_pct": 41.0, "charter": false, "lat": 38.2457, "lng": -85.6407, "ratio": 17.6}, {"name": "Wilkerson Elementary School", "district": "Jefferson County", "city": "Louisville", "level": 1, "low_grade": -1, "high_grade": 5, "enrollment": 575, "teachers": 40, "lunch_pct": 71.1, "charter": false, "lat": 38.1228, "lng": -85.8739, "ratio": 14.4}, {"name": "Wilder Elementary", "district": "Jefferson County", "city": "Louisville", "level": 1, "low_grade": -1, "high_grade": 5, "enrollment": 550, "teachers": 35, "lunch_pct": 49.5, "charter": false, "lat": 38.279, "lng": -85.622, "ratio": 15.7}, {"name": "Stonestreet Elementary", "district": "Jefferson County", "city": "Louisville", "level": 1, "low_grade": -1, "high_grade": 5, "enrollment": 443, "teachers": 29, "lunch_pct": 62.5, "charter": false, "lat": 38.1091, "lng": -85.8345, "ratio": 15.3}, {"name": "Watterson Elementary", "district": "Jefferson County", "city": "Louisville", "level": 1, "low_grade": 0, "high_grade": 5, "enrollment": 494, "teachers": 32, "lunch_pct": 69.8, "charter": false, "lat": 38.19145, "lng": -85.627158, "ratio": 15.4}, {"name": "Indian Trail Elementary", "district": "Jefferson County", "city": "Louisville", "level": 1, "low_grade": 0, "high_grade": 5, "enrollment": 534, "teachers": 36, "lunch_pct": 69.3, "charter": false, "lat": 38.1713, "lng": -85.6907, "ratio": 14.8}, {"name": "Zachary Taylor Elementary", "district": "Jefferson County", "city": "Louisville", "level": 1, "low_grade": 0, "high_grade": 5, "enrollment": 301, "teachers": 23, "lunch_pct": 68.4, "charter": false, "lat": 38.2862, "lng": -85.5725, "ratio": 13.1}, {"name": "Kerrick Elementary", "district": "Jefferson County", "city": "Louisville", "level": 1, "low_grade": 0, "high_grade": 5, "enrollment": 397, "teachers": 27, "lunch_pct": 70.5, "charter": false, "lat": 38.1658, "lng": -85.8371, "ratio": 14.7}, {"name": "Rangeland Elementary", "district": "Jefferson County", "city": "Louisville", "level": 1, "low_grade": 0, "high_grade": 5, "enrollment": 441, "teachers": 30, "lunch_pct": 76.9, "charter": false, "lat": 38.165813, "lng": -85.669288, "ratio": 14.7}, {"name": "Dixie Elementary", "district": "Jefferson County", "city": "Louisville", "level": 1, "low_grade": -1, "high_grade": 5, "enrollment": 333, "teachers": 21, "lunch_pct": 81.1, "charter": false, "lat": 38.1081, "lng": -85.8721, "ratio": 15.9}, {"name": "Cochrane Elementary", "district": "Jefferson County", "city": "Louisville", "level": 1, "low_grade": -1, "high_grade": 5, "enrollment": 488, "teachers": 34, "lunch_pct": 55.3, "charter": false, "lat": 38.21, "lng": -85.5744, "ratio": 14.4}, {"name": "Sanders Elementary", "district": "Jefferson County", "city": "Louisville", "level": 1, "low_grade": 0, "high_grade": 5, "enrollment": 430, "teachers": 26, "lunch_pct": 78.4, "charter": false, "lat": 38.1324, "lng": -85.876, "ratio": 16.5}, {"name": "Smyrna Elementary School", "district": "Jefferson County", "city": "Louisville", "level": 1, "low_grade": -1, "high_grade": 5, "enrollment": 509, "teachers": 31, "lunch_pct": 65.0, "charter": false, "lat": 38.1388, "lng": -85.641, "ratio": 16.4}, {"name": "Blue Lick Elementary", "district": "Jefferson County", "city": "Louisville", "level": 1, "low_grade": -1, "high_grade": 5, "enrollment": 496, "teachers": 31, "lunch_pct": 76.6, "charter": false, "lat": 38.1063, "lng": -85.6913, "ratio": 16.0}, {"name": "Crums Lane Elementary", "district": "Jefferson County", "city": "Louisville", "level": 1, "low_grade": 0, "high_grade": 5, "enrollment": 373, "teachers": 29, "lunch_pct": 77.2, "charter": false, "lat": 38.193031, "lng": -85.839362, "ratio": 12.9}, {"name": "Bowen Elementary", "district": "Jefferson County", "city": "Louisville", "level": 1, "low_grade": 0, "high_grade": 5, "enrollment": 692, "teachers": 42, "lunch_pct": 39.5, "charter": false, "lat": 38.2699, "lng": -85.5816, "ratio": 16.5}, {"name": "Norton Elementary", "district": "Jefferson County", "city": "Louisville", "level": 1, "low_grade": 0, "high_grade": 5, "enrollment": 734, "teachers": 43, "lunch_pct": 22.8, "charter": false, "lat": 38.2975, "lng": -85.6, "ratio": 17.1}, {"name": "Shacklette Elementary", "district": "Jefferson County", "city": "Louisville", "level": 1, "low_grade": -1, "high_grade": 5, "enrollment": 421, "teachers": 27, "lunch_pct": 77.2, "charter": false, "lat": 38.159, "lng": -85.8549, "ratio": 15.6}, {"name": "Minors Lane Elementary", "district": "Jefferson County", "city": "Louisville", "level": 1, "low_grade": -1, "high_grade": 5, "enrollment": 355, "teachers": 27, "lunch_pct": 79.4, "charter": false, "lat": 38.125361, "lng": -85.71418, "ratio": 13.1}, {"name": "Slaughter Elementary", "district": "Jefferson County", "city": "Louisville", "level": 1, "low_grade": 0, "high_grade": 5, "enrollment": 375, "teachers": 33, "lunch_pct": 77.3, "charter": false, "lat": 38.159, "lng": -85.6916, "ratio": 11.4}, {"name": "Trunnell Elementary", "district": "Jefferson County", "city": "Louisville", "level": 1, "low_grade": -1, "high_grade": 5, "enrollment": 471, "teachers": 26, "lunch_pct": 73.5, "charter": false, "lat": 38.1528, "lng": -85.8147, "ratio": 18.1}, {"name": "Johnsontown Road Elementary", "district": "Jefferson County", "city": "Louisville", "level": 1, "low_grade": 0, "high_grade": 5, "enrollment": 299, "teachers": 24, "lunch_pct": 83.3, "charter": false, "lat": 38.1174, "lng": -85.8931, "ratio": 12.5}, {"name": "Luhr Elementary", "district": "Jefferson County", "city": "Louisville", "level": 1, "low_grade": 0, "high_grade": 5, "enrollment": 524, "teachers": 33, "lunch_pct": 62.2, "charter": false, "lat": 38.1491, "lng": -85.6295, "ratio": 15.9}, {"name": "Wheeler Elementary", "district": "Jefferson County", "city": "Louisville", "level": 1, "low_grade": 0, "high_grade": 5, "enrollment": 613, "teachers": 35, "lunch_pct": 37.0, "charter": false, "lat": 38.1666, "lng": -85.5745, "ratio": 17.5}, {"name": "Gutermuth Elementary", "district": "Jefferson County", "city": "Louisville", "level": 1, "low_grade": 0, "high_grade": 5, "enrollment": 373, "teachers": 29, "lunch_pct": 78.3, "charter": false, "lat": 38.1778, "lng": -85.8076, "ratio": 12.9}, {"name": "Wellington Elementary", "district": "Jefferson County", "city": "Louisville", "level": 1, "low_grade": 0, "high_grade": 5, "enrollment": 412, "teachers": 27, "lunch_pct": 77.2, "charter": false, "lat": 38.1824, "lng": -85.8619, "ratio": 15.3}, {"name": "Wilt Elementary", "district": "Jefferson County", "city": "Louisville", "level": 1, "low_grade": -1, "high_grade": 5, "enrollment": 518, "teachers": 31, "lunch_pct": 50.2, "charter": false, "lat": 38.1024, "lng": -85.6382, "ratio": 16.7}, {"name": "Hartstern Elementary", "district": "Jefferson County", "city": "Louisville", "level": 1, "low_grade": -1, "high_grade": 5, "enrollment": 527, "teachers": 29, "lunch_pct": 67.4, "charter": false, "lat": 38.1417, "lng": -85.6666, "ratio": 18.2}, {"name": "Layne Elementary", "district": "Jefferson County", "city": "Louisville", "level": 1, "low_grade": 0, "high_grade": 5, "enrollment": 379, "teachers": 21, "lunch_pct": 81.3, "charter": false, "lat": 38.1107, "lng": -85.8477, "ratio": 18.0}, {"name": "Auburndale Elementary", "district": "Jefferson County", "city": "Louisville", "level": 1, "low_grade": -1, "high_grade": 5, "enrollment": 611, "teachers": 37, "lunch_pct": 73.2, "charter": false, "lat": 38.1349, "lng": -85.771, "ratio": 16.5}, {"name": "Price Elementary", "district": "Jefferson County", "city": "Louisville", "level": 1, "low_grade": 0, "high_grade": 5, "enrollment": 417, "teachers": 32, "lunch_pct": 71.0, "charter": false, "lat": 38.1771, "lng": -85.6659, "ratio": 13.0}, {"name": "Eisenhower Elementary", "district": "Jefferson County", "city": "Louisville", "level": 1, "low_grade": 0, "high_grade": 5, "enrollment": 600, "teachers": 32, "lunch_pct": 54.8, "charter": false, "lat": 38.1375, "lng": -85.8551, "ratio": 18.8}, {"name": "Klondike Lane Elementary", "district": "Jefferson County", "city": "Louisville", "level": 1, "low_grade": -1, "high_grade": 5, "enrollment": 457, "teachers": 31, "lunch_pct": 68.3, "charter": false, "lat": 38.209, "lng": -85.6372, "ratio": 14.7}, {"name": "Laukhuf Elementary", "district": "Jefferson County", "city": "Louisville", "level": 1, "low_grade": -1, "high_grade": 5, "enrollment": 615, "teachers": 33, "lunch_pct": 55.3, "charter": false, "lat": 38.1001, "lng": -85.6648, "ratio": 18.6}, {"name": "Lowe Elementary", "district": "Jefferson County", "city": "Louisville", "level": 1, "low_grade": 0, "high_grade": 5, "enrollment": 563, "teachers": 32, "lunch_pct": 27.4, "charter": false, "lat": 38.2451, "lng": -85.5922, "ratio": 17.6}, {"name": "Mill Creek Elementary", "district": "Jefferson County", "city": "Louisville", "level": 1, "low_grade": -1, "high_grade": 5, "enrollment": 474, "teachers": 23, "lunch_pct": 79.7, "charter": false, "lat": 38.1985, "lng": -85.8103, "ratio": 20.6}, {"name": "Blake Elementary", "district": "Jefferson County", "city": "Louisville", "level": 1, "low_grade": -1, "high_grade": 5, "enrollment": 529, "teachers": 30, "lunch_pct": 75.0, "charter": false, "lat": 38.1234, "lng": -85.6941, "ratio": 17.6}, {"name": "Dunn Elementary", "district": "Jefferson County", "city": "Louisville", "level": 1, "low_grade": 0, "high_grade": 5, "enrollment": 468, "teachers": 28, "lunch_pct": 31.4, "charter": false, "lat": 38.284, "lng": -85.6438, "ratio": 16.7}, {"name": "Wheatley Elementary", "district": "Jefferson County", "city": "Louisville", "level": 1, "low_grade": 0, "high_grade": 5, "enrollment": 318, "teachers": 25, "lunch_pct": 84.0, "charter": false, "lat": 38.239172, "lng": -85.78273, "ratio": 12.7}, {"name": "Atkinson Academy", "district": "Jefferson County", "city": "Louisville", "level": 1, "low_grade": 0, "high_grade": 5, "enrollment": 327, "teachers": 34, "lunch_pct": 88.4, "charter": false, "lat": 38.2651, "lng": -85.7974, "ratio": 9.6}, {"name": "Bloom Elementary", "district": "Jefferson County", "city": "Louisville", "level": 1, "low_grade": 0, "high_grade": 5, "enrollment": 525, "teachers": 31, "lunch_pct": 23.8, "charter": false, "lat": 38.23663, "lng": -85.719927, "ratio": 16.9}, {"name": "Engelhard Elementary", "district": "Jefferson County", "city": "Louisville", "level": 1, "low_grade": 0, "high_grade": 5, "enrollment": 276, "teachers": 27, "lunch_pct": 76.1, "charter": false, "lat": 38.237999, "lng": -85.755232, "ratio": 10.2}, {"name": "Byck Elementary", "district": "Jefferson County", "city": "Louisville", "level": 1, "low_grade": 0, "high_grade": 5, "enrollment": 287, "teachers": 24, "lunch_pct": 91.3, "charter": false, "lat": 38.2557, "lng": -85.7904, "ratio": 12.0}, {"name": "Field Elementary", "district": "Jefferson County", "city": "Louisville", "level": 1, "low_grade": 0, "high_grade": 5, "enrollment": 387, "teachers": 24, "lunch_pct": 41.3, "charter": false, "lat": 38.25222, "lng": -85.678273, "ratio": 16.1}, {"name": "Brandeis Elementary", "district": "Jefferson County", "city": "Louisville", "level": 1, "low_grade": -1, "high_grade": 5, "enrollment": 466, "teachers": 30, "lunch_pct": 46.8, "charter": false, "lat": 38.2442, "lng": -85.8009, "ratio": 15.5}, {"name": "Foster Traditional Academy", "district": "Jefferson County", "city": "Louisville", "level": 1, "low_grade": 0, "high_grade": 5, "enrollment": 578, "teachers": 29, "lunch_pct": 84.4, "charter": false, "lat": 38.2367, "lng": -85.8199, "ratio": 19.9}, {"name": "Frayser Elementary", "district": "Jefferson County", "city": "Louisville", "level": 1, "low_grade": 0, "high_grade": 5, "enrollment": 318, "teachers": 28, "lunch_pct": 80.2, "charter": false, "lat": 38.208455, "lng": -85.779925, "ratio": 11.4}, {"name": "Hazelwood Elementary", "district": "Jefferson County", "city": "Louisville", "level": 1, "low_grade": -1, "high_grade": 5, "enrollment": 511, "teachers": 37, "lunch_pct": 73.4, "charter": false, "lat": 38.180048, "lng": -85.785871, "ratio": 13.8}, {"name": "Cochran Elementary", "district": "Jefferson County", "city": "Louisville", "level": 1, "low_grade": 0, "high_grade": 5, "enrollment": 324, "teachers": 24, "lunch_pct": 75.6, "charter": false, "lat": 38.2247, "lng": -85.7648, "ratio": 13.5}, {"name": "Jacob Elementary", "district": "Jefferson County", "city": "Louisville", "level": 1, "low_grade": -1, "high_grade": 5, "enrollment": 486, "teachers": 33, "lunch_pct": 82.3, "charter": false, "lat": 38.192, "lng": -85.7957, "ratio": 14.7}, {"name": "Young Elementary", "district": "Jefferson County", "city": "Louisville", "level": 1, "low_grade": 0, "high_grade": 5, "enrollment": 209, "teachers": 17, "lunch_pct": 86.1, "charter": false, "lat": 38.256429, "lng": -85.810307, "ratio": 12.3}, {"name": "King Elementary", "district": "Jefferson County", "city": "Louisville", "level": 1, "low_grade": 0, "high_grade": 5, "enrollment": 299, "teachers": 18, "lunch_pct": 89.6, "charter": false, "lat": 38.2578, "lng": -85.8233, "ratio": 16.6}, {"name": "Mcferran Preparatory Academy", "district": "Jefferson County", "city": "Louisville", "level": 1, "low_grade": -1, "high_grade": 5, "enrollment": 691, "teachers": 41, "lunch_pct": 82.9, "charter": false, "lat": 38.221745, "lng": -85.776635, "ratio": 16.9}, {"name": "Maupin Elementary", "district": "Jefferson County", "city": "Louisville", "level": 1, "low_grade": -1, "high_grade": 5, "enrollment": 298, "teachers": 23, "lunch_pct": 85.9, "charter": false, "lat": 38.235277, "lng": -85.802331, "ratio": 13.0}, {"name": "Portland Elementary", "district": "Jefferson County", "city": "Louisville", "level": 1, "low_grade": 0, "high_grade": 5, "enrollment": 241, "teachers": 19, "lunch_pct": 87.6, "charter": false, "lat": 38.2745, "lng": -85.8033, "ratio": 12.7}, {"name": "Lincoln Elementary Performing Arts", "district": "Jefferson County", "city": "Louisville", "level": 1, "low_grade": 0, "high_grade": 5, "enrollment": 575, "teachers": 35, "lunch_pct": 50.3, "charter": false, "lat": 38.2536, "lng": -85.7343, "ratio": 16.4}, {"name": "Rutherford Elementary", "district": "Jefferson County", "city": "Louisville", "level": 1, "low_grade": -1, "high_grade": 5, "enrollment": 455, "teachers": 29, "lunch_pct": 72.7, "charter": false, "lat": 38.1724, "lng": -85.7689, "ratio": 15.7}, {"name": "Semple Elementary", "district": "Jefferson County", "city": "Louisville", "level": 1, "low_grade": 0, "high_grade": 5, "enrollment": 574, "teachers": 35, "lunch_pct": 79.4, "charter": false, "lat": 38.1955, "lng": -85.772, "ratio": 16.4}, {"name": "Shelby Academy", "district": "Jefferson County", "city": "Louisville", "level": 1, "low_grade": 0, "high_grade": 5, "enrollment": 449, "teachers": 29, "lunch_pct": 74.6, "charter": false, "lat": 38.2234, "lng": -85.7449, "ratio": 15.5}, {"name": "Coleridge-Taylor Montessori Elementary", "district": "Jefferson County", "city": "Louisville", "level": 1, "low_grade": -1, "high_grade": 5, "enrollment": 404, "teachers": 29, "lunch_pct": 79.5, "charter": false, "lat": 38.250885, "lng": -85.770129, "ratio": 13.9}, {"name": "Carter Traditional Elementary", "district": "Jefferson County", "city": "Louisville", "level": 1, "low_grade": 0, "high_grade": 5, "enrollment": 548, "teachers": 33, "lunch_pct": 69.2, "charter": false, "lat": 38.2281, "lng": -85.8148, "ratio": 16.6}, {"name": "Kennedy Elementary", "district": "Jefferson County", "city": "Louisville", "level": 1, "low_grade": -1, "high_grade": 5, "enrollment": 429, "teachers": 28, "lunch_pct": 76.9, "charter": false, "lat": 38.2315, "lng": -85.8188, "ratio": 15.3}, {"name": "Schaffner Traditional Elementary", "district": "Jefferson County", "city": "Louisville", "level": 1, "low_grade": 0, "high_grade": 5, "enrollment": 599, "teachers": 31, "lunch_pct": 51.1, "charter": false, "lat": 38.195974, "lng": -85.824371, "ratio": 19.3}, {"name": "The Brook-Dupont", "district": "Jefferson County", "city": "Louisville", "level": 1, "low_grade": -1, "high_grade": 8, "enrollment": 15, "teachers": 4, "lunch_pct": 46.7, "charter": false, "lat": 38.235616, "lng": -85.627667, "ratio": 3.8}, {"name": "St Joseph Children's Home", "district": "Jefferson County", "city": "Louisville", "level": 1, "low_grade": 0, "high_grade": 8, "enrollment": 21, "teachers": 5, "lunch_pct": 85.7, "charter": false, "lat": 38.25622, "lng": -85.689779, "ratio": 4.2}, {"name": "Breckinridge-Franklin Elementary", "district": "Jefferson County", "city": "Louisville", "level": 1, "low_grade": 0, "high_grade": 5, "enrollment": 266, "teachers": 29, "lunch_pct": 82.7, "charter": false, "lat": 38.249239, "lng": -85.724071, "ratio": 9.2}, {"name": "Western Day Treatment", "district": "Jefferson County", "city": "Louisville", "level": 1, "low_grade": 0, "high_grade": 5, "enrollment": 15, "teachers": 5, "lunch_pct": 66.7, "charter": false, "lat": 38.221745, "lng": -85.776635, "ratio": 3.0}, {"name": "Heuser Hearing & Language Academy", "district": "Jefferson County", "city": "Louisville", "level": 1, "low_grade": -1, "high_grade": 0, "enrollment": 6, "teachers": 2, "lunch_pct": 0.0, "charter": false, "lat": 38.2391, "lng": -85.7541, "ratio": 3.0}, {"name": "Chancey Elementary", "district": "Jefferson County", "city": "Louisville", "level": 1, "low_grade": -1, "high_grade": 5, "enrollment": 553, "teachers": 35, "lunch_pct": 55.2, "charter": false, "lat": 38.3072, "lng": -85.5351, "ratio": 15.8}, {"name": "Farmer Elementary", "district": "Jefferson County", "city": "Louisville", "level": 1, "low_grade": -1, "high_grade": 5, "enrollment": 772, "teachers": 41, "lunch_pct": 43.3, "charter": false, "lat": 38.15124, "lng": -85.546037, "ratio": 18.8}, {"name": "Stopher Elementary", "district": "Jefferson County", "city": "Louisville", "level": 1, "low_grade": -1, "high_grade": 5, "enrollment": 780, "teachers": 43, "lunch_pct": 13.3, "charter": false, "lat": 38.2683, "lng": -85.4888, "ratio": 18.1}, {"name": "Bellewood", "district": "Jefferson County", "city": "Louisville", "level": 1, "low_grade": 0, "high_grade": 5, "enrollment": 13, "teachers": 5, "lunch_pct": 76.9, "charter": false, "lat": 38.268274, "lng": -85.544052, "ratio": 2.6}, {"name": "Alex R. Kennedy Elementary", "district": "Jefferson County", "city": "Louisville", "level": 1, "low_grade": -1, "high_grade": 5, "enrollment": 358, "teachers": 24, "lunch_pct": 58.1, "charter": false, "lat": 38.220245, "lng": -85.598048, "ratio": 14.9}], "middle": [{"name": "Barret Traditional Middle", "district": "Jefferson County", "city": "Louisville", "level": 2, "low_grade": 6, "high_grade": 8, "enrollment": 630, "teachers": 34, "lunch_pct": 39.4, "charter": false, "lat": 38.249444, "lng": -85.696053, "ratio": 18.5}, {"name": "Newburg Middle", "district": "Jefferson County", "city": "Louisville", "level": 2, "low_grade": 6, "high_grade": 8, "enrollment": 941, "teachers": 59, "lunch_pct": 63.9, "charter": false, "lat": 38.1803, "lng": -85.6678, "ratio": 15.9}, {"name": "Westport Middle", "district": "Jefferson County", "city": "Louisville", "level": 2, "low_grade": 6, "high_grade": 8, "enrollment": 1177, "teachers": 78, "lunch_pct": 55.0, "charter": false, "lat": 38.2758, "lng": -85.6, "ratio": 15.1}, {"name": "Thomas Jefferson Middle", "district": "Jefferson County", "city": "Louisville", "level": 2, "low_grade": 6, "high_grade": 8, "enrollment": 892, "teachers": 66, "lunch_pct": 71.9, "charter": false, "lat": 38.169, "lng": -85.6794, "ratio": 13.5}, {"name": "Lassiter Middle", "district": "Jefferson County", "city": "Louisville", "level": 2, "low_grade": 6, "high_grade": 8, "enrollment": 1004, "teachers": 61, "lunch_pct": 69.7, "charter": false, "lat": 38.131, "lng": -85.7863, "ratio": 16.5}, {"name": "Kammerer Middle", "district": "Jefferson County", "city": "Louisville", "level": 2, "low_grade": 6, "high_grade": 8, "enrollment": 720, "teachers": 54, "lunch_pct": 52.1, "charter": false, "lat": 38.2839, "lng": -85.6193, "ratio": 13.3}, {"name": "Knight Middle", "district": "Jefferson County", "city": "Louisville", "level": 2, "low_grade": 6, "high_grade": 8, "enrollment": 452, "teachers": 27, "lunch_pct": 63.5, "charter": false, "lat": 38.1052, "lng": -85.6913, "ratio": 16.7}, {"name": "Conway Middle", "district": "Jefferson County", "city": "Louisville", "level": 2, "low_grade": 6, "high_grade": 8, "enrollment": 730, "teachers": 41, "lunch_pct": 71.9, "charter": false, "lat": 38.1594, "lng": -85.8684, "ratio": 17.8}, {"name": "Carrithers Middle", "district": "Jefferson County", "city": "Louisville", "level": 2, "low_grade": 6, "high_grade": 8, "enrollment": 583, "teachers": 38, "lunch_pct": 59.7, "charter": false, "lat": 38.1815, "lng": -85.5749, "ratio": 15.3}, {"name": "Highland Middle", "district": "Jefferson County", "city": "Louisville", "level": 2, "low_grade": 6, "high_grade": 8, "enrollment": 801, "teachers": 48, "lunch_pct": 59.2, "charter": false, "lat": 38.2233, "lng": -85.7065, "ratio": 16.7}, {"name": "Meyzeek Middle", "district": "Jefferson County", "city": "Louisville", "level": 2, "low_grade": 6, "high_grade": 8, "enrollment": 930, "teachers": 48, "lunch_pct": 42.4, "charter": false, "lat": 38.2418, "lng": -85.747, "ratio": 19.4}, {"name": "Jefferson County Traditional Middle", "district": "Jefferson County", "city": "Louisville", "level": 2, "low_grade": 6, "high_grade": 8, "enrollment": 877, "teachers": 49, "lunch_pct": 44.5, "charter": false, "lat": 38.240136, "lng": -85.727263, "ratio": 17.9}, {"name": "Noe Middle", "district": "Jefferson County", "city": "Louisville", "level": 2, "low_grade": 6, "high_grade": 8, "enrollment": 1347, "teachers": 66, "lunch_pct": 45.8, "charter": false, "lat": 38.223516, "lng": -85.758289, "ratio": 20.4}, {"name": "Johnson Traditional Middle", "district": "Jefferson County", "city": "Louisville", "level": 2, "low_grade": 6, "high_grade": 8, "enrollment": 742, "teachers": 36, "lunch_pct": 64.4, "charter": false, "lat": 38.235297, "lng": -85.795662, "ratio": 20.6}, {"name": "Frederick Law Olmsted Academy North", "district": "Jefferson County", "city": "Louisville", "level": 2, "low_grade": 6, "high_grade": 8, "enrollment": 510, "teachers": 32, "lunch_pct": 74.5, "charter": false, "lat": 38.187101, "lng": -85.774441, "ratio": 15.9}, {"name": "Western Middle School for the Arts", "district": "Jefferson County", "city": "Louisville", "level": 2, "low_grade": 6, "high_grade": 8, "enrollment": 650, "teachers": 37, "lunch_pct": 60.5, "charter": false, "lat": 38.261, "lng": -85.7866, "ratio": 17.6}, {"name": "Frederick Law Olmsted Academy South", "district": "Jefferson County", "city": "Louisville", "level": 2, "low_grade": 6, "high_grade": 8, "enrollment": 578, "teachers": 42, "lunch_pct": 75.1, "charter": false, "lat": 38.1723, "lng": -85.779, "ratio": 13.8}, {"name": "Stuart Academy", "district": "Jefferson County", "city": "Louisville", "level": 2, "low_grade": 6, "high_grade": 8, "enrollment": 1105, "teachers": 62, "lunch_pct": 72.2, "charter": false, "lat": 38.1085, "lng": -85.8446, "ratio": 17.8}, {"name": "Farnsley Middle", "district": "Jefferson County", "city": "Louisville", "level": 2, "low_grade": 6, "high_grade": 8, "enrollment": 1038, "teachers": 58, "lunch_pct": 69.7, "charter": false, "lat": 38.184641, "lng": -85.85825, "ratio": 17.9}, {"name": "Ramsey Middle", "district": "Jefferson County", "city": "Louisville", "level": 2, "low_grade": 6, "high_grade": 8, "enrollment": 1008, "teachers": 61, "lunch_pct": 62.0, "charter": false, "lat": 38.149353, "lng": -85.546225, "ratio": 16.5}, {"name": "W.E.B. DuBois Academy", "district": "Jefferson County", "city": "Louisville", "level": 2, "low_grade": 6, "high_grade": 10, "enrollment": 591, "teachers": 37, "lunch_pct": 68.4, "charter": false, "lat": 38.17126, "lng": -85.700191, "ratio": 16.0}, {"name": "Grace M. James Academy of Excellence", "district": "Jefferson County", "city": "Louisville", "level": 2, "low_grade": 6, "high_grade": 8, "enrollment": 361, "teachers": 22, "lunch_pct": 64.3, "charter": false, "lat": 38.2495, "lng": -85.7789, "ratio": 16.4}], "high": [{"name": "Fern Creek High", "district": "Jefferson County", "city": "Louisville", "level": 3, "low_grade": 9, "high_grade": 12, "enrollment": 1688, "teachers": 108, "lunch_pct": 59.8, "charter": false, "lat": 38.156335, "lng": -85.59218, "ratio": 15.6}, {"name": "Atherton High", "district": "Jefferson County", "city": "Louisville", "level": 3, "low_grade": 9, "high_grade": 12, "enrollment": 1461, "teachers": 80, "lunch_pct": 39.1, "charter": false, "lat": 38.2141, "lng": -85.6884, "ratio": 18.3}, {"name": "Southern High", "district": "Jefferson County", "city": "Louisville", "level": 3, "low_grade": 9, "high_grade": 12, "enrollment": 1387, "teachers": 80, "lunch_pct": 68.9, "charter": false, "lat": 38.126608, "lng": -85.681304, "ratio": 17.3}, {"name": "Valley High", "district": "Jefferson County", "city": "Louisville", "level": 3, "low_grade": 9, "high_grade": 12, "enrollment": 964, "teachers": 54, "lunch_pct": 69.9, "charter": false, "lat": 38.1074, "lng": -85.868, "ratio": 17.9}, {"name": "Butler Traditional High", "district": "Jefferson County", "city": "Louisville", "level": 3, "low_grade": 9, "high_grade": 12, "enrollment": 1421, "teachers": 87, "lunch_pct": 69.2, "charter": false, "lat": 38.193238, "lng": -85.815632, "ratio": 16.3}, {"name": "Waggener High", "district": "Jefferson County", "city": "Louisville", "level": 3, "low_grade": 9, "high_grade": 12, "enrollment": 863, "teachers": 54, "lunch_pct": 65.5, "charter": false, "lat": 38.244676, "lng": -85.637134, "ratio": 16.0}, {"name": "Seneca High", "district": "Jefferson County", "city": "Louisville", "level": 3, "low_grade": 9, "high_grade": 12, "enrollment": 1309, "teachers": 87, "lunch_pct": 64.2, "charter": false, "lat": 38.207821, "lng": -85.655153, "ratio": 15.0}, {"name": "Pleasure Ridge Park High", "district": "Jefferson County", "city": "Louisville", "level": 3, "low_grade": 9, "high_grade": 12, "enrollment": 1517, "teachers": 87, "lunch_pct": 62.7, "charter": false, "lat": 38.145873, "lng": -85.86349, "ratio": 17.4}, {"name": "Western High", "district": "Jefferson County", "city": "Louisville", "level": 3, "low_grade": 9, "high_grade": 12, "enrollment": 869, "teachers": 50, "lunch_pct": 77.0, "charter": false, "lat": 38.177954, "lng": -85.844449, "ratio": 17.4}, {"name": "Doss High", "district": "Jefferson County", "city": "Louisville", "level": 3, "low_grade": 9, "high_grade": 12, "enrollment": 939, "teachers": 65, "lunch_pct": 69.8, "charter": false, "lat": 38.153108, "lng": -85.813363, "ratio": 14.4}, {"name": "Ballard High", "district": "Jefferson County", "city": "Louisville", "level": 3, "low_grade": 9, "high_grade": 12, "enrollment": 2014, "teachers": 108, "lunch_pct": 34.1, "charter": false, "lat": 38.2836, "lng": -85.6249, "ratio": 18.6}, {"name": "Louisville Day", "district": "Jefferson County", "city": "Louisville", "level": 3, "low_grade": 6, "high_grade": 12, "enrollment": 6, "teachers": 5, "lunch_pct": 0.0, "charter": false, "lat": 38.2688, "lng": -85.5901, "ratio": 1.2}, {"name": "Central High Magnet Career Academy", "district": "Jefferson County", "city": "Louisville", "level": 3, "low_grade": 9, "high_grade": 12, "enrollment": 1220, "teachers": 72, "lunch_pct": 70.1, "charter": false, "lat": 38.249732, "lng": -85.770641, "ratio": 16.9}, {"name": "duPont Manual High", "district": "Jefferson County", "city": "Louisville", "level": 3, "low_grade": 9, "high_grade": 12, "enrollment": 1929, "teachers": 106, "lunch_pct": 21.9, "charter": false, "lat": 38.222014, "lng": -85.757897, "ratio": 18.2}, {"name": "Iroquois High", "district": "Jefferson County", "city": "Louisville", "level": 3, "low_grade": 9, "high_grade": 12, "enrollment": 1090, "teachers": 66, "lunch_pct": 74.5, "charter": false, "lat": 38.1734, "lng": -85.7815, "ratio": 16.5}, {"name": "The Academy @ Shawnee", "district": "Jefferson County", "city": "Louisville", "level": 3, "low_grade": 6, "high_grade": 12, "enrollment": 532, "teachers": 40, "lunch_pct": 82.9, "charter": false, "lat": 38.262092, "lng": -85.815312, "ratio": 13.3}, {"name": "Ahrens Educational Resource Center", "district": "Jefferson County", "city": "Louisville", "level": 3, "low_grade": 12, "high_grade": 12, "enrollment": 32, "teachers": 5, "lunch_pct": 71.9, "charter": false, "lat": 38.25, "lng": -85.753, "ratio": 6.4}, {"name": "The Brook-KMI", "district": "Jefferson County", "city": "Louisville", "level": 3, "low_grade": 6, "high_grade": 12, "enrollment": 33, "teachers": 5, "lunch_pct": 30.3, "charter": false, "lat": 38.272496, "lng": -85.59647, "ratio": 6.6}, {"name": "Boys & Girls Haven", "district": "Jefferson County", "city": "Louisville", "level": 3, "low_grade": 6, "high_grade": 12, "enrollment": 15, "teachers": 2, "lunch_pct": 66.7, "charter": false, "lat": 38.211302, "lng": -85.66928, "ratio": 7.5}, {"name": "Mary Jo and William MacDonald Maryhurst", "district": "Jefferson County", "city": "Louisville", "level": 3, "low_grade": 6, "high_grade": 12, "enrollment": 50, "teachers": 11, "lunch_pct": 94.0, "charter": false, "lat": 38.2648, "lng": -85.5616, "ratio": 4.5}, {"name": "Liberty High", "district": "Jefferson County", "city": "Louisville", "level": 3, "low_grade": 7, "high_grade": 12, "enrollment": 111, "teachers": 29, "lunch_pct": 58.6, "charter": false, "lat": 38.17973, "lng": -85.705974, "ratio": 3.8}, {"name": "Louisville Male High", "district": "Jefferson County", "city": "Louisville", "level": 3, "low_grade": 9, "high_grade": 12, "enrollment": 1991, "teachers": 94, "lunch_pct": 39.4, "charter": false, "lat": 38.184866, "lng": -85.72116, "ratio": 21.2}, {"name": "Ackerly", "district": "Jefferson County", "city": "Louisville", "level": 3, "low_grade": 5, "high_grade": 12, "enrollment": 7, "teachers": 2, "lunch_pct": 0.0, "charter": false, "lat": 38.24774, "lng": -85.750921, "ratio": 3.5}, {"name": "Mary Ryan Academy", "district": "Jefferson County", "city": "Louisville", "level": 3, "low_grade": 9, "high_grade": 12, "enrollment": 17, "teachers": 6, "lunch_pct": 76.5, "charter": false, "lat": 38.17126, "lng": -85.700191, "ratio": 2.8}, {"name": "U of L PACT Program", "district": "Jefferson County", "city": "Louisville", "level": 3, "low_grade": 12, "high_grade": 12, "enrollment": 19, "teachers": 2, "lunch_pct": 26.3, "charter": false, "lat": 38.218301, "lng": -85.758613, "ratio": 9.5}, {"name": "Breckinridge Metropolitan High", "district": "Jefferson County", "city": "Louisville", "level": 3, "low_grade": 7, "high_grade": 12, "enrollment": 78, "teachers": 26, "lunch_pct": 87.2, "charter": false, "lat": 38.243781, "lng": -85.732629, "ratio": 3.0}, {"name": "Marion C. Moore School", "district": "Jefferson County", "city": "Louisville", "level": 3, "low_grade": 6, "high_grade": 12, "enrollment": 2320, "teachers": 127, "lunch_pct": 64.7, "charter": false, "lat": 38.1397, "lng": -85.6386, "ratio": 18.3}, {"name": "The Phoenix School of Discovery", "district": "Jefferson County", "city": "Louisville", "level": 3, "low_grade": 6, "high_grade": 12, "enrollment": 380, "teachers": 41, "lunch_pct": 59.2, "charter": false, "lat": 38.256066, "lng": -85.604752, "ratio": 9.3}, {"name": "Newcomer Academy", "district": "Jefferson County", "city": "Louisville", "level": 3, "low_grade": 6, "high_grade": 12, "enrollment": 814, "teachers": 44, "lunch_pct": 44.8, "charter": false, "lat": 38.2042, "lng": -85.6434, "ratio": 18.5}, {"name": "Brooklawn", "district": "Jefferson County", "city": "Louisville", "level": 3, "low_grade": 6, "high_grade": 12, "enrollment": 69, "teachers": 21, "lunch_pct": 71.0, "charter": false, "lat": 38.2085, "lng": -85.674431, "ratio": 3.3}, {"name": "Minor Daniels Academy", "district": "Jefferson County", "city": "Louisville", "level": 3, "low_grade": 6, "high_grade": 12, "enrollment": 159, "teachers": 21, "lunch_pct": 86.2, "charter": false, "lat": 38.1978, "lng": -85.6731, "ratio": 7.6}]}, "danville": {"elem": [{"name": "Woodlawn Elementary School", "district": "Boyle County", "city": "Danville", "level": 1, "low_grade": -1, "high_grade": 5, "enrollment": 660, "teachers": 42, "lunch_pct": 43.5, "charter": false, "lat": 37.6518, "lng": -84.8008, "ratio": 15.7}, {"name": "Edna L. Toliver Intermediate School", "district": "Danville Independent", "city": "Danville", "level": 1, "low_grade": 2, "high_grade": 5, "enrollment": 519, "teachers": 41, "lunch_pct": 75.5, "charter": false, "lat": 37.6477, "lng": -84.7837, "ratio": 12.7}, {"name": "Mary G. Hogsett Primary School", "district": "Danville Independent", "city": "Danville", "level": 1, "low_grade": -1, "high_grade": 1, "enrollment": 367, "teachers": 30, "lunch_pct": 80.7, "charter": false, "lat": 37.627356, "lng": -84.770852, "ratio": 12.2}], "middle": [{"name": "Boyle County Middle School", "district": "Boyle County", "city": "Danville", "level": 2, "low_grade": 6, "high_grade": 8, "enrollment": 679, "teachers": 42, "lunch_pct": 50.5, "charter": false, "lat": 37.6502, "lng": -84.801, "ratio": 16.2}, {"name": "John W. Bate Middle School", "district": "Danville Independent", "city": "Danville", "level": 2, "low_grade": 6, "high_grade": 8, "enrollment": 399, "teachers": 31, "lunch_pct": 65.9, "charter": false, "lat": 37.6416, "lng": -84.7653, "ratio": 12.9}], "high": [{"name": "Boyle County High School", "district": "Boyle County", "city": "Danville", "level": 3, "low_grade": 9, "high_grade": 12, "enrollment": 884, "teachers": 51, "lunch_pct": 45.1, "charter": false, "lat": 37.649844, "lng": -84.798302, "ratio": 17.3}, {"name": "Boyle County Day Treatment", "district": "Boyle County", "city": "Danville", "level": 3, "low_grade": 6, "high_grade": 12, "enrollment": 0, "teachers": 1, "lunch_pct": 0.0, "charter": false, "lat": 37.649844, "lng": -84.798302, "ratio": 1.0}, {"name": "Danville High School", "district": "Danville Independent", "city": "Danville", "level": 3, "low_grade": 9, "high_grade": 12, "enrollment": 481, "teachers": 35, "lunch_pct": 63.4, "charter": false, "lat": 37.649577, "lng": -84.767229, "ratio": 13.7}, {"name": "Anchor Academy", "district": "Danville Independent", "city": "Danville", "level": 3, "low_grade": 6, "high_grade": 12, "enrollment": 43, "teachers": 2, "lunch_pct": 79.1, "charter": false, "lat": 37.649578, "lng": -84.768202, "ratio": 21.5}]}, "lawrenceburg": {"elem": [{"name": "Saffell Street Elementary School", "district": "Anderson County", "city": "Lawrenceburg", "level": 1, "low_grade": 1, "high_grade": 5, "enrollment": 402, "teachers": 29, "lunch_pct": 55.2, "charter": false, "lat": 38.032562, "lng": -84.897661, "ratio": 13.9}, {"name": "Emma B. Ward Elementary School", "district": "Anderson County", "city": "Lawrenceburg", "level": 1, "low_grade": 1, "high_grade": 5, "enrollment": 469, "teachers": 36, "lunch_pct": 44.6, "charter": false, "lat": 38.047305, "lng": -84.911313, "ratio": 13.0}, {"name": "Ezra Sparrow Early Childhood Center", "district": "Anderson County", "city": "Lawrenceburg", "level": 1, "low_grade": -1, "high_grade": 0, "enrollment": 340, "teachers": 22, "lunch_pct": 35.6, "charter": false, "lat": 38.04882, "lng": -84.912849, "ratio": 15.5}, {"name": "Robert B. Turner Elementary School", "district": "Anderson County", "city": "Lawrenceburg", "level": 1, "low_grade": 0, "high_grade": 5, "enrollment": 534, "teachers": 35, "lunch_pct": 39.9, "charter": false, "lat": 38.014001, "lng": -84.922719, "ratio": 15.3}], "middle": [{"name": "Anderson County Middle School", "district": "Anderson County", "city": "Lawrenceburg", "level": 2, "low_grade": 6, "high_grade": 8, "enrollment": 818, "teachers": 45, "lunch_pct": 45.6, "charter": false, "lat": 38.03848, "lng": -84.900698, "ratio": 18.2}], "high": [{"name": "Anderson County High School", "district": "Anderson County", "city": "Lawrenceburg", "level": 3, "low_grade": 9, "high_grade": 12, "enrollment": 1189, "teachers": 68, "lunch_pct": 39.7, "charter": false, "lat": 38.023441, "lng": -84.907923, "ratio": 17.5}]}, "ashland": {"elem": [{"name": "Crabbe Elementary School", "district": "Ashland Independent", "city": "Ashland", "level": 1, "low_grade": 0, "high_grade": 5, "enrollment": 322, "teachers": 21, "lunch_pct": 93.8, "charter": false, "lat": 38.4756, "lng": -82.6395, "ratio": 15.3}, {"name": "Hager Elementary School", "district": "Ashland Independent", "city": "Ashland", "level": 1, "low_grade": 0, "high_grade": 5, "enrollment": 357, "teachers": 25, "lunch_pct": 54.1, "charter": false, "lat": 38.4631, "lng": -82.6579, "ratio": 14.3}, {"name": "Oakview Elementary School", "district": "Ashland Independent", "city": "Ashland", "level": 1, "low_grade": 0, "high_grade": 5, "enrollment": 293, "teachers": 25, "lunch_pct": 73.4, "charter": false, "lat": 38.4553, "lng": -82.6435, "ratio": 11.7}, {"name": "Poage Elementary School", "district": "Ashland Independent", "city": "Ashland", "level": 1, "low_grade": 0, "high_grade": 5, "enrollment": 299, "teachers": 26, "lunch_pct": 64.5, "charter": false, "lat": 38.454, "lng": -82.6552, "ratio": 11.5}, {"name": "Charles Russell Elementary School", "district": "Ashland Independent", "city": "Ashland", "level": 1, "low_grade": 0, "high_grade": 5, "enrollment": 213, "teachers": 22, "lunch_pct": 67.6, "charter": false, "lat": 38.4503, "lng": -82.6237, "ratio": 9.7}, {"name": "Cannonsburg Elementary School", "district": "Boyd County", "city": "Ashland", "level": 1, "low_grade": 0, "high_grade": 5, "enrollment": 271, "teachers": 29, "lunch_pct": 61.6, "charter": false, "lat": 38.378205, "lng": -82.703586, "ratio": 9.3}, {"name": "Summit Elementary School", "district": "Boyd County", "city": "Ashland", "level": 1, "low_grade": 0, "high_grade": 5, "enrollment": 477, "teachers": 40, "lunch_pct": 57.9, "charter": false, "lat": 38.434591, "lng": -82.697877, "ratio": 11.9}, {"name": "Fairview Elementary School", "district": "Fairview Independent", "city": "Ashland", "level": 1, "low_grade": -1, "high_grade": 5, "enrollment": 240, "teachers": 22, "lunch_pct": 70.4, "charter": false, "lat": 38.4686, "lng": -82.6808, "ratio": 10.9}], "middle": [{"name": "Ashland Middle School", "district": "Ashland Independent", "city": "Ashland", "level": 2, "low_grade": 6, "high_grade": 8, "enrollment": 687, "teachers": 43, "lunch_pct": 63.3, "charter": false, "lat": 38.4564, "lng": -82.6504, "ratio": 16.0}, {"name": "Boyd County Middle School", "district": "Boyd County", "city": "Ashland", "level": 2, "low_grade": 6, "high_grade": 8, "enrollment": 620, "teachers": 46, "lunch_pct": 55.3, "charter": false, "lat": 38.42775, "lng": -82.700513, "ratio": 13.5}], "high": [{"name": "Paul G. Blazer High School", "district": "Ashland Independent", "city": "Ashland", "level": 3, "low_grade": 9, "high_grade": 12, "enrollment": 893, "teachers": 66, "lunch_pct": 53.9, "charter": false, "lat": 38.4548, "lng": -82.6635, "ratio": 13.5}, {"name": "Ashland Alternative School", "district": "Ashland Independent", "city": "Ashland", "level": 3, "low_grade": 6, "high_grade": 12, "enrollment": 8, "teachers": 0, "lunch_pct": 0.0, "charter": false, "lat": 38.451045, "lng": -82.62441, "ratio": 8.0}, {"name": "Boyd County High School", "district": "Boyd County", "city": "Ashland", "level": 3, "low_grade": 9, "high_grade": 12, "enrollment": 911, "teachers": 59, "lunch_pct": 51.8, "charter": false, "lat": 38.373202, "lng": -82.715336, "ratio": 15.4}, {"name": "Boyd Co Career & Tech Educ Ctr Voc Sch", "district": "Boyd County", "city": "Ashland", "level": 3, "low_grade": 9, "high_grade": 12, "enrollment": 0, "teachers": 9, "lunch_pct": 0.0, "charter": false, "lat": 38.376983, "lng": -82.702493, "ratio": 0.1}, {"name": "Fairview High School", "district": "Fairview Independent", "city": "Ashland", "level": 3, "low_grade": 6, "high_grade": 12, "enrollment": 342, "teachers": 25, "lunch_pct": 72.2, "charter": false, "lat": 38.479935, "lng": -82.674993, "ratio": 13.7}, {"name": "Raceland-Worthington Schools Campus A", "district": "Raceland-Worthington Independent", "city": "Ashland", "level": 3, "low_grade": 7, "high_grade": 12, "enrollment": 18, "teachers": 3, "lunch_pct": 55.6, "charter": false, "lat": 38.48, "lng": -82.6389, "ratio": 6.0}]}, "augusta": {"elem": [], "middle": [], "high": []}, "barlow": {"elem": [{"name": "Ballard County Elementary School", "district": "Ballard County", "city": "Barlow", "level": 1, "low_grade": 0, "high_grade": 5, "enrollment": 467, "teachers": 32, "lunch_pct": 57.6, "charter": false, "lat": 37.067, "lng": -88.9909, "ratio": 14.6}], "middle": [{"name": "Ballard County Middle School", "district": "Ballard County", "city": "Barlow", "level": 2, "low_grade": 6, "high_grade": 8, "enrollment": 215, "teachers": 15, "lunch_pct": 57.7, "charter": false, "lat": 37.06813, "lng": -88.987178, "ratio": 14.3}], "high": [{"name": "Ballard Memorial High School", "district": "Ballard County", "city": "Barlow", "level": 3, "low_grade": 9, "high_grade": 12, "enrollment": 260, "teachers": 22, "lunch_pct": 56.9, "charter": false, "lat": 37.067687, "lng": -88.988292, "ratio": 11.8}, {"name": "Ballard County Career and Technology Ctr", "district": "Ballard County", "city": "Barlow", "level": 3, "low_grade": 9, "high_grade": 12, "enrollment": 0, "teachers": 0, "lunch_pct": 0.0, "charter": false, "lat": 37.068535, "lng": -88.986094, "ratio": 1.0}]}, "barbourville": {"elem": [{"name": "G R Hampton Elementary School", "district": "Knox County", "city": "Barbourville", "level": 1, "low_grade": -1, "high_grade": 6, "enrollment": 268, "teachers": 19, "lunch_pct": 74.3, "charter": false, "lat": 36.849435, "lng": -83.886701, "ratio": 14.1}, {"name": "Jesse D Lay Elementary School", "district": "Knox County", "city": "Barbourville", "level": 1, "low_grade": -1, "high_grade": 6, "enrollment": 339, "teachers": 25, "lunch_pct": 63.1, "charter": false, "lat": 36.8711, "lng": -83.882, "ratio": 13.6}, {"name": "Central Elementary School", "district": "Knox County", "city": "Barbourville", "level": 1, "low_grade": -1, "high_grade": 6, "enrollment": 362, "teachers": 31, "lunch_pct": 86.7, "charter": false, "lat": 36.856372, "lng": -83.850583, "ratio": 11.7}], "middle": [{"name": "Knox County Middle School", "district": "Knox County", "city": "Barbourville", "level": 2, "low_grade": 7, "high_grade": 8, "enrollment": 429, "teachers": 33, "lunch_pct": 80.7, "charter": false, "lat": 36.8683, "lng": -83.8909, "ratio": 13.0}], "high": [{"name": "Barbourville Learning Center", "district": "Barbourville Independent", "city": "Barbourville", "level": 3, "low_grade": 7, "high_grade": 12, "enrollment": 7, "teachers": 0, "lunch_pct": 0.0, "charter": false, "lat": 36.8712, "lng": -83.8932, "ratio": 7.0}, {"name": "Knox County Area Technology Center", "district": "Kentucky Tech System", "city": "Barbourville", "level": 3, "low_grade": 8, "high_grade": 12, "enrollment": 0, "teachers": 0, "lunch_pct": 0.0, "charter": false, "lat": 36.866379, "lng": -83.892163, "ratio": 1.0}, {"name": "Knox County Learning Academy", "district": "Knox County", "city": "Barbourville", "level": 3, "low_grade": 7, "high_grade": 12, "enrollment": 58, "teachers": 6, "lunch_pct": 94.8, "charter": false, "lat": 36.867356, "lng": -83.891503, "ratio": 9.7}, {"name": "Knox Central High School", "district": "Knox County", "city": "Barbourville", "level": 3, "low_grade": 9, "high_grade": 12, "enrollment": 761, "teachers": 50, "lunch_pct": 77.7, "charter": false, "lat": 36.868565, "lng": -83.832702, "ratio": 15.2}, {"name": "Knox Appalachian School", "district": "Knox County", "city": "Barbourville", "level": 3, "low_grade": 5, "high_grade": 12, "enrollment": 40, "teachers": 5, "lunch_pct": 95.0, "charter": false, "lat": 36.869926, "lng": -83.846458, "ratio": 8.0}, {"name": "Knox County Day Treatment", "district": "Knox County", "city": "Barbourville", "level": 3, "low_grade": 6, "high_grade": 12, "enrollment": 16, "teachers": 2, "lunch_pct": 100.0, "charter": false, "lat": 36.86749, "lng": -83.892099, "ratio": 8.0}, {"name": "Knox County Career and Technical Center", "district": "Knox County", "city": "Barbourville", "level": 3, "low_grade": 9, "high_grade": 12, "enrollment": 0, "teachers": 8, "lunch_pct": 0.0, "charter": false, "lat": 36.866379, "lng": -83.892163, "ratio": 0.1}]}, "bardstown": {"elem": [{"name": "Bardstown Elementary School", "district": "Bardstown Independent", "city": "Bardstown", "level": 1, "low_grade": 2, "high_grade": 5, "enrollment": 795, "teachers": 56, "lunch_pct": 53.3, "charter": false, "lat": 37.82574, "lng": -85.480637, "ratio": 14.2}, {"name": "Bardstown Primary School", "district": "Bardstown Independent", "city": "Bardstown", "level": 1, "low_grade": 0, "high_grade": 1, "enrollment": 386, "teachers": 29, "lunch_pct": 57.3, "charter": false, "lat": 37.8239, "lng": -85.4738, "ratio": 13.3}, {"name": "Foster Heights Elementary School", "district": "Nelson County", "city": "Bardstown", "level": 1, "low_grade": 0, "high_grade": 5, "enrollment": 674, "teachers": 44, "lunch_pct": 43.8, "charter": false, "lat": 37.8054, "lng": -85.4656, "ratio": 15.3}], "middle": [{"name": "Bardstown Middle School", "district": "Bardstown Independent", "city": "Bardstown", "level": 2, "low_grade": 6, "high_grade": 8, "enrollment": 575, "teachers": 33, "lunch_pct": 46.8, "charter": false, "lat": 37.8155, "lng": -85.4703, "ratio": 17.4}, {"name": "Old Kentucky Home Middle School", "district": "Nelson County", "city": "Bardstown", "level": 2, "low_grade": 6, "high_grade": 8, "enrollment": 368, "teachers": 22, "lunch_pct": 40.2, "charter": false, "lat": 37.8316, "lng": -85.4276, "ratio": 16.7}], "high": [{"name": "Bardstown High School", "district": "Bardstown Independent", "city": "Bardstown", "level": 3, "low_grade": 9, "high_grade": 12, "enrollment": 655, "teachers": 39, "lunch_pct": 46.0, "charter": false, "lat": 37.814653, "lng": -85.469364, "ratio": 16.8}, {"name": "Bardstown Alternative School", "district": "Bardstown Independent", "city": "Bardstown", "level": 3, "low_grade": 6, "high_grade": 12, "enrollment": 31, "teachers": 4, "lunch_pct": 80.6, "charter": false, "lat": 37.825193, "lng": -85.481743, "ratio": 7.8}, {"name": "Nelson County Area Technology Center", "district": "Kentucky Tech System", "city": "Bardstown", "level": 3, "low_grade": 8, "high_grade": 12, "enrollment": 0, "teachers": 0, "lunch_pct": 0.0, "charter": false, "lat": 37.8291, "lng": -85.427, "ratio": 1.0}, {"name": "Nelson County High School", "district": "Nelson County", "city": "Bardstown", "level": 3, "low_grade": 9, "high_grade": 12, "enrollment": 784, "teachers": 37, "lunch_pct": 42.5, "charter": false, "lat": 37.8293, "lng": -85.4243, "ratio": 21.2}, {"name": "Thomas Nelson High School", "district": "Nelson County", "city": "Bardstown", "level": 3, "low_grade": 9, "high_grade": 12, "enrollment": 669, "teachers": 32, "lunch_pct": 38.1, "charter": false, "lat": 37.846915, "lng": -85.506575, "ratio": 20.9}, {"name": "THE UP CENTER", "district": "Nelson County", "city": "Bardstown", "level": 3, "low_grade": 6, "high_grade": 12, "enrollment": 0, "teachers": 0, "lunch_pct": 0.0, "charter": false, "lat": 37.8291, "lng": -85.427, "ratio": 1.0}]}, "paducah": {"elem": [{"name": "Concord Elementary School", "district": "McCracken County", "city": "Paducah", "level": 1, "low_grade": -1, "high_grade": 5, "enrollment": 614, "teachers": 36, "lunch_pct": 50.2, "charter": false, "lat": 37.0725, "lng": -88.695, "ratio": 17.1}, {"name": "Lone Oak Elementary School", "district": "McCracken County", "city": "Paducah", "level": 1, "low_grade": -1, "high_grade": 3, "enrollment": 520, "teachers": 29, "lunch_pct": 57.9, "charter": false, "lat": 37.0402, "lng": -88.6665, "ratio": 17.9}, {"name": "Reidland Elementary School", "district": "McCracken County", "city": "Paducah", "level": 1, "low_grade": -1, "high_grade": 3, "enrollment": 587, "teachers": 38, "lunch_pct": 70.0, "charter": false, "lat": 37.0114, "lng": -88.5327, "ratio": 15.4}, {"name": "Hendron Lone Oak Elementary School", "district": "McCracken County", "city": "Paducah", "level": 1, "low_grade": -1, "high_grade": 3, "enrollment": 489, "teachers": 29, "lunch_pct": 49.9, "charter": false, "lat": 37.041, "lng": -88.6497, "ratio": 16.9}, {"name": "Lone Oak Intermediate School", "district": "McCracken County", "city": "Paducah", "level": 1, "low_grade": 4, "high_grade": 5, "enrollment": 426, "teachers": 27, "lunch_pct": 54.2, "charter": false, "lat": 37.038881, "lng": -88.667732, "ratio": 15.8}, {"name": "Reidland Intermediate School", "district": "McCracken County", "city": "Paducah", "level": 1, "low_grade": 4, "high_grade": 5, "enrollment": 222, "teachers": 14, "lunch_pct": 68.0, "charter": false, "lat": 37.017301, "lng": -88.535064, "ratio": 15.9}, {"name": "Clark Elementary School", "district": "Paducah Independent", "city": "Paducah", "level": 1, "low_grade": 0, "high_grade": 5, "enrollment": 617, "teachers": 40, "lunch_pct": 53.3, "charter": false, "lat": 37.0687, "lng": -88.6423, "ratio": 15.4}, {"name": "McNabb Elementary School", "district": "Paducah Independent", "city": "Paducah", "level": 1, "low_grade": 0, "high_grade": 5, "enrollment": 322, "teachers": 27, "lunch_pct": 91.0, "charter": false, "lat": 37.0826, "lng": -88.6265, "ratio": 11.9}, {"name": "Morgan Elementary School", "district": "Paducah Independent", "city": "Paducah", "level": 1, "low_grade": 0, "high_grade": 5, "enrollment": 380, "teachers": 28, "lunch_pct": 89.2, "charter": false, "lat": 37.0623, "lng": -88.6195, "ratio": 13.6}], "middle": [{"name": "Lone Oak Middle School", "district": "McCracken County", "city": "Paducah", "level": 2, "low_grade": 6, "high_grade": 8, "enrollment": 796, "teachers": 51, "lunch_pct": 46.9, "charter": false, "lat": 37.03715, "lng": -88.66775, "ratio": 15.6}, {"name": "Reidland Middle School", "district": "McCracken County", "city": "Paducah", "level": 2, "low_grade": 6, "high_grade": 8, "enrollment": 330, "teachers": 21, "lunch_pct": 63.6, "charter": false, "lat": 37.017301, "lng": -88.535064, "ratio": 15.7}, {"name": "Paducah Middle School", "district": "Paducah Independent", "city": "Paducah", "level": 2, "low_grade": 6, "high_grade": 8, "enrollment": 652, "teachers": 40, "lunch_pct": 69.2, "charter": false, "lat": 37.066888, "lng": -88.637184, "ratio": 16.3}], "high": [{"name": "Paducah Area Technology Center", "district": "Kentucky Tech System", "city": "Paducah", "level": 3, "low_grade": 8, "high_grade": 12, "enrollment": 0, "teachers": 0, "lunch_pct": 0.0, "charter": false, "lat": 37.071579, "lng": -88.623942, "ratio": 1.0}, {"name": "McCracken County High School", "district": "McCracken County", "city": "Paducah", "level": 3, "low_grade": 9, "high_grade": 12, "enrollment": 1999, "teachers": 106, "lunch_pct": 43.4, "charter": false, "lat": 37.067373, "lng": -88.734925, "ratio": 18.9}, {"name": "Paducah Tilghman High School", "district": "Paducah Independent", "city": "Paducah", "level": 3, "low_grade": 9, "high_grade": 12, "enrollment": 878, "teachers": 58, "lunch_pct": 63.8, "charter": false, "lat": 37.0728, "lng": -88.6235, "ratio": 15.1}]}, "lancaster": {"elem": [{"name": "Camp Dick Robinson Elementary School", "district": "Garrard County", "city": "Lancaster", "level": 1, "low_grade": -1, "high_grade": 5, "enrollment": 464, "teachers": 31, "lunch_pct": 61.4, "charter": false, "lat": 37.69601, "lng": -84.664307, "ratio": 15.0}, {"name": "Lancaster Elementary School", "district": "Garrard County", "city": "Lancaster", "level": 1, "low_grade": -1, "high_grade": 5, "enrollment": 469, "teachers": 34, "lunch_pct": 80.2, "charter": false, "lat": 37.6221, "lng": -84.579, "ratio": 13.8}], "middle": [{"name": "Garrard Middle School", "district": "Garrard County", "city": "Lancaster", "level": 2, "low_grade": 6, "high_grade": 8, "enrollment": 563, "teachers": 43, "lunch_pct": 64.3, "charter": false, "lat": 37.6227, "lng": -84.5835, "ratio": 13.1}], "high": [{"name": "Garrard County Area Technology Center", "district": "Kentucky Tech System", "city": "Lancaster", "level": 3, "low_grade": 8, "high_grade": 12, "enrollment": 0, "teachers": 0, "lunch_pct": 0.0, "charter": false, "lat": 37.623, "lng": -84.585, "ratio": 1.0}, {"name": "Garrard County High School", "district": "Garrard County", "city": "Lancaster", "level": 3, "low_grade": 9, "high_grade": 12, "enrollment": 801, "teachers": 51, "lunch_pct": 58.9, "charter": false, "lat": 37.602128, "lng": -84.570063, "ratio": 15.7}]}, "west liberty": {"elem": [{"name": "East Valley Elementary School", "district": "Morgan County", "city": "West Liberty", "level": 1, "low_grade": -1, "high_grade": 5, "enrollment": 120, "teachers": 10, "lunch_pct": 80.0, "charter": false, "lat": 37.9519, "lng": -83.159186, "ratio": 12.0}, {"name": "Morgan Central Elementary School", "district": "Morgan County", "city": "West Liberty", "level": 1, "low_grade": -1, "high_grade": 5, "enrollment": 293, "teachers": 20, "lunch_pct": 73.4, "charter": false, "lat": 37.8805, "lng": -83.2935, "ratio": 14.7}, {"name": "Wrigley Elementary School", "district": "Morgan County", "city": "West Liberty", "level": 1, "low_grade": -1, "high_grade": 5, "enrollment": 308, "teachers": 23, "lunch_pct": 73.4, "charter": false, "lat": 38.003112, "lng": -83.273793, "ratio": 13.4}], "middle": [{"name": "Morgan County Middle School", "district": "Morgan County", "city": "West Liberty", "level": 2, "low_grade": 6, "high_grade": 8, "enrollment": 413, "teachers": 27, "lunch_pct": 67.1, "charter": false, "lat": 37.8933, "lng": -83.2837, "ratio": 15.3}], "high": [{"name": "Morgan County Area Technology Center", "district": "Kentucky Tech System", "city": "West Liberty", "level": 3, "low_grade": 8, "high_grade": 12, "enrollment": 0, "teachers": 0, "lunch_pct": 0.0, "charter": false, "lat": 37.894433, "lng": -83.283191, "ratio": 1.0}, {"name": "Morgan County High School", "district": "Morgan County", "city": "West Liberty", "level": 3, "low_grade": 9, "high_grade": 12, "enrollment": 598, "teachers": 32, "lunch_pct": 66.7, "charter": false, "lat": 37.893958, "lng": -83.282241, "ratio": 18.7}, {"name": "Woodsbend Youth Development Center", "district": "Morgan County", "city": "West Liberty", "level": 3, "low_grade": 6, "high_grade": 12, "enrollment": 25, "teachers": 3, "lunch_pct": 92.0, "charter": false, "lat": 37.917881, "lng": -83.333382, "ratio": 8.3}]}, "princeton": {"elem": [{"name": "Caldwell County Elementary School", "district": "Caldwell County", "city": "Princeton", "level": 1, "low_grade": 3, "high_grade": 5, "enrollment": 403, "teachers": 25, "lunch_pct": 56.3, "charter": false, "lat": 37.135114, "lng": -87.894577, "ratio": 16.1}, {"name": "Caldwell County Primary School", "district": "Caldwell County", "city": "Princeton", "level": 1, "low_grade": -1, "high_grade": 2, "enrollment": 523, "teachers": 31, "lunch_pct": 63.5, "charter": false, "lat": 37.132947, "lng": -87.896376, "ratio": 16.9}], "middle": [{"name": "Caldwell County Middle School", "district": "Caldwell County", "city": "Princeton", "level": 2, "low_grade": 6, "high_grade": 8, "enrollment": 421, "teachers": 25, "lunch_pct": 54.6, "charter": false, "lat": 37.1379, "lng": -87.8928, "ratio": 16.8}], "high": [{"name": "Caldwell County Area Technology Center", "district": "Kentucky Tech System", "city": "Princeton", "level": 3, "low_grade": 8, "high_grade": 12, "enrollment": 0, "teachers": 0, "lunch_pct": 0.0, "charter": false, "lat": 37.1353, "lng": -87.8966, "ratio": 1.0}, {"name": "Caldwell County High School", "district": "Caldwell County", "city": "Princeton", "level": 3, "low_grade": 9, "high_grade": 12, "enrollment": 544, "teachers": 30, "lunch_pct": 43.4, "charter": false, "lat": 37.1372, "lng": -87.8956, "ratio": 18.1}]}, "hyden": {"elem": [{"name": "Mountain View Elementary", "district": "Leslie County", "city": "Hyden", "level": 1, "low_grade": -1, "high_grade": 8, "enrollment": 506, "teachers": 27, "lunch_pct": 62.5, "charter": false, "lat": 37.164315, "lng": -83.400473, "ratio": 18.7}], "middle": [], "high": [{"name": "Leslie County Area Technology Center", "district": "Kentucky Tech System", "city": "Hyden", "level": 3, "low_grade": 8, "high_grade": 12, "enrollment": 0, "teachers": 0, "lunch_pct": 0.0, "charter": false, "lat": 37.146895, "lng": -83.378352, "ratio": 1.0}, {"name": "Leslie County High School", "district": "Leslie County", "city": "Hyden", "level": 3, "low_grade": 9, "high_grade": 12, "enrollment": 472, "teachers": 29, "lunch_pct": 68.2, "charter": false, "lat": 37.14594, "lng": -83.379514, "ratio": 16.3}]}, "winchester": {"elem": [{"name": "William G. Conkwright Elementary", "district": "Clark County", "city": "Winchester", "level": 1, "low_grade": 0, "high_grade": 4, "enrollment": 505, "teachers": 34, "lunch_pct": 70.1, "charter": false, "lat": 38.005789, "lng": -84.167685, "ratio": 14.9}, {"name": "Strode Station Elementary School", "district": "Clark County", "city": "Winchester", "level": 1, "low_grade": 0, "high_grade": 4, "enrollment": 506, "teachers": 35, "lunch_pct": 59.7, "charter": false, "lat": 38.001496, "lng": -84.222668, "ratio": 14.5}, {"name": "Shearer Elementary School", "district": "Clark County", "city": "Winchester", "level": 1, "low_grade": 0, "high_grade": 4, "enrollment": 392, "teachers": 28, "lunch_pct": 68.1, "charter": false, "lat": 37.989635, "lng": -84.170416, "ratio": 14.0}, {"name": "Willis H. Justice Elementary School", "district": "Clark County", "city": "Winchester", "level": 1, "low_grade": 0, "high_grade": 4, "enrollment": 427, "teachers": 31, "lunch_pct": 66.5, "charter": false, "lat": 38.005351, "lng": -84.169184, "ratio": 13.8}], "middle": [{"name": "Rev. Henry E. Baker Sr. Interm. School", "district": "Clark County", "city": "Winchester", "level": 2, "low_grade": 5, "high_grade": 6, "enrollment": 739, "teachers": 47, "lunch_pct": 60.5, "charter": false, "lat": 38.00313, "lng": -84.219171, "ratio": 15.7}, {"name": "Robert D. Campbell Jr. High", "district": "Clark County", "city": "Winchester", "level": 2, "low_grade": 7, "high_grade": 8, "enrollment": 820, "teachers": 49, "lunch_pct": 57.0, "charter": false, "lat": 37.979046, "lng": -84.192892, "ratio": 16.7}], "high": [{"name": "Clark County Area Technology Center", "district": "Kentucky Tech System", "city": "Winchester", "level": 3, "low_grade": 8, "high_grade": 12, "enrollment": 0, "teachers": 0, "lunch_pct": 0.0, "charter": false, "lat": 37.962198, "lng": -84.214892, "ratio": 1.0}, {"name": "George Rogers Clark High School", "district": "Clark County", "city": "Winchester", "level": 3, "low_grade": 9, "high_grade": 12, "enrollment": 1645, "teachers": 93, "lunch_pct": 53.2, "charter": false, "lat": 37.961171, "lng": -84.214046, "ratio": 17.7}]}, "lebanon": {"elem": [{"name": "Calvary Elementary School", "district": "Marion County", "city": "Lebanon", "level": 1, "low_grade": -1, "high_grade": 5, "enrollment": 236, "teachers": 14, "lunch_pct": 47.9, "charter": false, "lat": 37.5148, "lng": -85.2679, "ratio": 16.9}, {"name": "Glasscock Elementary School", "district": "Marion County", "city": "Lebanon", "level": 1, "low_grade": -1, "high_grade": 5, "enrollment": 477, "teachers": 28, "lunch_pct": 72.5, "charter": false, "lat": 37.578701, "lng": -85.222781, "ratio": 17.0}, {"name": "Lebanon Elementary School", "district": "Marion County", "city": "Lebanon", "level": 1, "low_grade": -1, "high_grade": 5, "enrollment": 359, "teachers": 24, "lunch_pct": 75.2, "charter": false, "lat": 37.5663, "lng": -85.2584, "ratio": 15.0}], "middle": [{"name": "Marion County Middle School", "district": "Marion County", "city": "Lebanon", "level": 2, "low_grade": 6, "high_grade": 7, "enrollment": 431, "teachers": 27, "lunch_pct": 61.3, "charter": false, "lat": 37.587969, "lng": -85.345531, "ratio": 16.0}], "high": [{"name": "Marion County Area Technology Center", "district": "Kentucky Tech System", "city": "Lebanon", "level": 3, "low_grade": 8, "high_grade": 12, "enrollment": 0, "teachers": 0, "lunch_pct": 0.0, "charter": false, "lat": 37.577642, "lng": -85.228019, "ratio": 1.0}, {"name": "Marion County High School", "district": "Marion County", "city": "Lebanon", "level": 3, "low_grade": 10, "high_grade": 12, "enrollment": 665, "teachers": 41, "lunch_pct": 50.2, "charter": false, "lat": 37.578898, "lng": -85.225813, "ratio": 16.2}]}, "russell springs": {"elem": [{"name": "Russell Springs Elementary School", "district": "Russell County", "city": "Russell Springs", "level": 1, "low_grade": -1, "high_grade": 5, "enrollment": 625, "teachers": 42, "lunch_pct": 73.3, "charter": false, "lat": 37.0877, "lng": -85.0649, "ratio": 14.9}, {"name": "Salem Elementary School", "district": "Russell County", "city": "Russell Springs", "level": 1, "low_grade": -1, "high_grade": 5, "enrollment": 395, "teachers": 26, "lunch_pct": 66.6, "charter": false, "lat": 37.0701, "lng": -84.9894, "ratio": 15.2}], "middle": [{"name": "Russell County Middle School", "district": "Russell County", "city": "Russell Springs", "level": 2, "low_grade": 6, "high_grade": 8, "enrollment": 677, "teachers": 40, "lunch_pct": 69.0, "charter": false, "lat": 37.0339, "lng": -85.074, "ratio": 16.9}], "high": [{"name": "Lake Cumberland Area Technology Center", "district": "Kentucky Tech System", "city": "Russell Springs", "level": 3, "low_grade": 8, "high_grade": 12, "enrollment": 0, "teachers": 0, "lunch_pct": 0.0, "charter": false, "lat": 37.032879, "lng": -85.074089, "ratio": 1.0}, {"name": "Russell County High School", "district": "Russell County", "city": "Russell Springs", "level": 3, "low_grade": 9, "high_grade": 12, "enrollment": 832, "teachers": 53, "lunch_pct": 64.3, "charter": false, "lat": 37.0355, "lng": -85.0729, "ratio": 15.7}]}, "manchester": {"elem": [{"name": "Burning Springs Elementary", "district": "Clay County", "city": "Manchester", "level": 1, "low_grade": -1, "high_grade": 6, "enrollment": 303, "teachers": 20, "lunch_pct": 78.9, "charter": false, "lat": 37.265921, "lng": -83.818816, "ratio": 15.2}, {"name": "Goose Rock Elementary", "district": "Clay County", "city": "Manchester", "level": 1, "low_grade": -1, "high_grade": 6, "enrollment": 211, "teachers": 21, "lunch_pct": 80.6, "charter": false, "lat": 37.082147, "lng": -83.693991, "ratio": 10.0}, {"name": "Hacker Elementary School", "district": "Clay County", "city": "Manchester", "level": 1, "low_grade": -1, "high_grade": 6, "enrollment": 265, "teachers": 21, "lunch_pct": 66.8, "charter": false, "lat": 37.1606, "lng": -83.8185, "ratio": 12.6}, {"name": "Manchester Elementary School", "district": "Clay County", "city": "Manchester", "level": 1, "low_grade": -1, "high_grade": 6, "enrollment": 388, "teachers": 30, "lunch_pct": 71.1, "charter": false, "lat": 37.177163, "lng": -83.770833, "ratio": 12.9}, {"name": "Paces Creek Elementary", "district": "Clay County", "city": "Manchester", "level": 1, "low_grade": 0, "high_grade": 6, "enrollment": 283, "teachers": 20, "lunch_pct": 75.3, "charter": false, "lat": 37.133539, "lng": -83.756546, "ratio": 14.2}], "middle": [{"name": "Clay County Middle School", "district": "Clay County", "city": "Manchester", "level": 2, "low_grade": 7, "high_grade": 8, "enrollment": 407, "teachers": 34, "lunch_pct": 74.0, "charter": false, "lat": 37.1579, "lng": -83.7654, "ratio": 12.0}], "high": [{"name": "Clay County Area Technology Center", "district": "Kentucky Tech System", "city": "Manchester", "level": 3, "low_grade": 8, "high_grade": 12, "enrollment": 0, "teachers": 0, "lunch_pct": 0.0, "charter": false, "lat": 37.2324, "lng": -83.7648, "ratio": 1.0}, {"name": "Clay County High School", "district": "Clay County", "city": "Manchester", "level": 3, "low_grade": 9, "high_grade": 12, "enrollment": 717, "teachers": 54, "lunch_pct": 70.2, "charter": false, "lat": 37.1804, "lng": -83.7663, "ratio": 13.3}]}, "somerset": {"elem": [{"name": "Oak Hill Elementary School", "district": "Pulaski County", "city": "Somerset", "level": 1, "low_grade": 0, "high_grade": 5, "enrollment": 526, "teachers": 34, "lunch_pct": 55.9, "charter": false, "lat": 37.0617, "lng": -84.6586, "ratio": 15.5}, {"name": "Pulaski Elementary School", "district": "Pulaski County", "city": "Somerset", "level": 1, "low_grade": 0, "high_grade": 5, "enrollment": 540, "teachers": 40, "lunch_pct": 66.9, "charter": false, "lat": 37.1075, "lng": -84.6168, "ratio": 13.5}, {"name": "Shopville Elementary School", "district": "Pulaski County", "city": "Somerset", "level": 1, "low_grade": -1, "high_grade": 5, "enrollment": 352, "teachers": 23, "lunch_pct": 65.9, "charter": false, "lat": 37.1592, "lng": -84.4864, "ratio": 15.3}, {"name": "Northern Elementary School", "district": "Pulaski County", "city": "Somerset", "level": 1, "low_grade": -1, "high_grade": 5, "enrollment": 360, "teachers": 28, "lunch_pct": 65.6, "charter": false, "lat": 37.176826, "lng": -84.559217, "ratio": 12.9}, {"name": "Southern Elementary School", "district": "Pulaski County", "city": "Somerset", "level": 1, "low_grade": 0, "high_grade": 5, "enrollment": 655, "teachers": 47, "lunch_pct": 74.2, "charter": false, "lat": 37.0365, "lng": -84.6213, "ratio": 13.9}, {"name": "Memorial Education Center", "district": "Pulaski County", "city": "Somerset", "level": 1, "low_grade": -1, "high_grade": 0, "enrollment": 269, "teachers": 1, "lunch_pct": 58.4, "charter": false, "lat": 37.085456, "lng": -84.614554, "ratio": 269.0}, {"name": "Hopkins Elementary School", "district": "Somerset Independent", "city": "Somerset", "level": 1, "low_grade": -1, "high_grade": 4, "enrollment": 650, "teachers": 41, "lunch_pct": 71.4, "charter": false, "lat": 37.0962, "lng": -84.6001, "ratio": 15.9}], "middle": [{"name": "Southern Middle School", "district": "Pulaski County", "city": "Somerset", "level": 2, "low_grade": 6, "high_grade": 8, "enrollment": 941, "teachers": 50, "lunch_pct": 68.2, "charter": false, "lat": 37.0337, "lng": -84.6204, "ratio": 18.8}, {"name": "Northern Middle School", "district": "Pulaski County", "city": "Somerset", "level": 2, "low_grade": 6, "high_grade": 8, "enrollment": 846, "teachers": 49, "lunch_pct": 62.5, "charter": false, "lat": 37.115533, "lng": -84.603525, "ratio": 17.3}, {"name": "Meece Middle School", "district": "Somerset Independent", "city": "Somerset", "level": 2, "low_grade": 5, "high_grade": 8, "enrollment": 444, "teachers": 34, "lunch_pct": 67.3, "charter": false, "lat": 37.099349, "lng": -84.594114, "ratio": 13.1}], "high": [{"name": "Pulaski County Area Technology Center", "district": "Kentucky Tech System", "city": "Somerset", "level": 3, "low_grade": 8, "high_grade": 12, "enrollment": 0, "teachers": 0, "lunch_pct": 0.0, "charter": false, "lat": 37.0393, "lng": -84.6288, "ratio": 1.0}, {"name": "Southwestern High School", "district": "Pulaski County", "city": "Somerset", "level": 3, "low_grade": 9, "high_grade": 12, "enrollment": 1265, "teachers": 74, "lunch_pct": 63.8, "charter": false, "lat": 37.060836, "lng": -84.655416, "ratio": 17.1}, {"name": "Pulaski County High School", "district": "Pulaski County", "city": "Somerset", "level": 3, "low_grade": 9, "high_grade": 12, "enrollment": 1209, "teachers": 71, "lunch_pct": 56.8, "charter": false, "lat": 37.106709, "lng": -84.603414, "ratio": 17.0}, {"name": "Eagle Academy", "district": "Pulaski County", "city": "Somerset", "level": 3, "low_grade": 6, "high_grade": 12, "enrollment": 35, "teachers": 1, "lunch_pct": 100.0, "charter": false, "lat": 37.082877, "lng": -84.602153, "ratio": 35.0}, {"name": "Somerset High School", "district": "Somerset Independent", "city": "Somerset", "level": 3, "low_grade": 9, "high_grade": 12, "enrollment": 521, "teachers": 40, "lunch_pct": 53.7, "charter": false, "lat": 37.095325, "lng": -84.601367, "ratio": 13.0}]}, "greensburg": {"elem": [{"name": "Green County Primary School", "district": "Green County", "city": "Greensburg", "level": 1, "low_grade": -1, "high_grade": 2, "enrollment": 448, "teachers": 32, "lunch_pct": 64.5, "charter": false, "lat": 37.2591, "lng": -85.4917, "ratio": 14.0}, {"name": "Green County Intermediate School", "district": "Green County", "city": "Greensburg", "level": 1, "low_grade": 3, "high_grade": 5, "enrollment": 346, "teachers": 24, "lunch_pct": 66.2, "charter": false, "lat": 37.259951, "lng": -85.495164, "ratio": 14.4}], "middle": [{"name": "Green County Middle School", "district": "Green County", "city": "Greensburg", "level": 2, "low_grade": 6, "high_grade": 8, "enrollment": 377, "teachers": 25, "lunch_pct": 62.6, "charter": false, "lat": 37.2543, "lng": -85.4879, "ratio": 15.1}], "high": [{"name": "Green County Area Technology Center", "district": "Kentucky Tech System", "city": "Greensburg", "level": 3, "low_grade": 8, "high_grade": 12, "enrollment": 0, "teachers": 0, "lunch_pct": 0.0, "charter": false, "lat": 37.2577, "lng": -85.4878, "ratio": 1.0}, {"name": "Green County High School", "district": "Green County", "city": "Greensburg", "level": 3, "low_grade": 9, "high_grade": 12, "enrollment": 466, "teachers": 33, "lunch_pct": 57.9, "charter": false, "lat": 37.256, "lng": -85.4884, "ratio": 14.1}, {"name": "Green County ATC", "district": "Green County", "city": "Greensburg", "level": 3, "low_grade": 8, "high_grade": 12, "enrollment": 0, "teachers": 0, "lunch_pct": 0.0, "charter": false, "lat": 37.2577, "lng": -85.4878, "ratio": 1.0}]}, "maysville": {"elem": [{"name": "Charles Straub Elementary School", "district": "Mason County", "city": "Maysville", "level": 1, "low_grade": -1, "high_grade": 2, "enrollment": 642, "teachers": 47, "lunch_pct": 67.4, "charter": false, "lat": 38.6333, "lng": -83.7849, "ratio": 13.7}, {"name": "Mason County Intermediate School", "district": "Mason County", "city": "Maysville", "level": 1, "low_grade": 3, "high_grade": 5, "enrollment": 540, "teachers": 35, "lunch_pct": 67.8, "charter": false, "lat": 38.6209, "lng": -83.8136, "ratio": 15.4}], "middle": [{"name": "Mason County Middle School", "district": "Mason County", "city": "Maysville", "level": 2, "low_grade": 6, "high_grade": 8, "enrollment": 585, "teachers": 39, "lunch_pct": 65.6, "charter": false, "lat": 38.6324, "lng": -83.7883, "ratio": 15.0}], "high": [{"name": "Mason County Career Magnet School", "district": "Kentucky Tech System", "city": "Maysville", "level": 3, "low_grade": 8, "high_grade": 12, "enrollment": 0, "teachers": 0, "lunch_pct": 0.0, "charter": false, "lat": 38.6348, "lng": -83.7953, "ratio": 1.0}, {"name": "Mason County High School", "district": "Mason County", "city": "Maysville", "level": 3, "low_grade": 9, "high_grade": 12, "enrollment": 841, "teachers": 46, "lunch_pct": 57.3, "charter": false, "lat": 38.635153, "lng": -83.789136, "ratio": 18.3}]}, "martin": {"elem": [{"name": "May Valley Elementary School", "district": "Floyd County", "city": "Martin", "level": 1, "low_grade": -1, "high_grade": 8, "enrollment": 428, "teachers": 28, "lunch_pct": 72.9, "charter": false, "lat": 37.556425, "lng": -82.778643, "ratio": 15.3}], "middle": [], "high": [{"name": "Floyd County Area Technology Center", "district": "Kentucky Tech System", "city": "Martin", "level": 3, "low_grade": 8, "high_grade": 12, "enrollment": 0, "teachers": 0, "lunch_pct": 0.0, "charter": false, "lat": 37.552132, "lng": -82.751321, "ratio": 1.0}]}, "harrodsburg": {"elem": [{"name": "Mercer County Elementary School", "district": "Mercer County", "city": "Harrodsburg", "level": 1, "low_grade": -1, "high_grade": 2, "enrollment": 730, "teachers": 48, "lunch_pct": 67.0, "charter": false, "lat": 37.7806, "lng": -84.8565, "ratio": 15.2}, {"name": "Mercer County Intermediate School", "district": "Mercer County", "city": "Harrodsburg", "level": 1, "low_grade": 3, "high_grade": 5, "enrollment": 593, "teachers": 36, "lunch_pct": 62.4, "charter": false, "lat": 37.784469, "lng": -84.857382, "ratio": 16.5}], "middle": [{"name": "Kenneth D. King Middle School", "district": "Mercer County", "city": "Harrodsburg", "level": 2, "low_grade": 6, "high_grade": 8, "enrollment": 610, "teachers": 38, "lunch_pct": 63.9, "charter": false, "lat": 37.777922, "lng": -84.855959, "ratio": 16.1}], "high": [{"name": "Trailblazer Academy", "district": "Kentucky Tech System", "city": "Harrodsburg", "level": 3, "low_grade": 8, "high_grade": 12, "enrollment": 0, "teachers": 0, "lunch_pct": 0.0, "charter": false, "lat": 37.779683, "lng": -84.853903, "ratio": 1.0}, {"name": "Mercer County Day Treatment", "district": "Mercer County", "city": "Harrodsburg", "level": 3, "low_grade": 6, "high_grade": 12, "enrollment": 12, "teachers": 2, "lunch_pct": 83.3, "charter": false, "lat": 37.756773, "lng": -84.853367, "ratio": 6.0}, {"name": "Mercer County Senior High School", "district": "Mercer County", "city": "Harrodsburg", "level": 3, "low_grade": 9, "high_grade": 12, "enrollment": 731, "teachers": 46, "lunch_pct": 52.7, "charter": false, "lat": 37.784143, "lng": -84.862153, "ratio": 15.9}, {"name": "Mercer Central", "district": "Mercer County", "city": "Harrodsburg", "level": 3, "low_grade": 9, "high_grade": 12, "enrollment": 45, "teachers": 2, "lunch_pct": 77.8, "charter": false, "lat": 37.756773, "lng": -84.853367, "ratio": 22.5}]}, "harned": {"elem": [], "middle": [{"name": "Breckinridge County Middle School", "district": "Breckinridge County", "city": "Harned", "level": 2, "low_grade": 6, "high_grade": 8, "enrollment": 553, "teachers": 40, "lunch_pct": 35.3, "charter": false, "lat": 37.7561, "lng": -86.427, "ratio": 13.8}], "high": [{"name": "Breckinridge County Area Technology Ctr", "district": "Kentucky Tech System", "city": "Harned", "level": 3, "low_grade": 8, "high_grade": 12, "enrollment": 0, "teachers": 0, "lunch_pct": 0.0, "charter": false, "lat": 37.755, "lng": -86.4264, "ratio": 1.0}, {"name": "Breckinridge County High School", "district": "Breckinridge County", "city": "Harned", "level": 3, "low_grade": 9, "high_grade": 12, "enrollment": 925, "teachers": 46, "lunch_pct": 29.7, "charter": false, "lat": 37.7548, "lng": -86.4244, "ratio": 20.1}]}, "dixon": {"elem": [{"name": "Dixon Elementary School", "district": "Webster County", "city": "Dixon", "level": 1, "low_grade": 0, "high_grade": 6, "enrollment": 303, "teachers": 19, "lunch_pct": 48.2, "charter": false, "lat": 37.4994, "lng": -87.714, "ratio": 15.9}], "middle": [{"name": "Webster County Middle School", "district": "Webster County", "city": "Dixon", "level": 2, "low_grade": 7, "high_grade": 8, "enrollment": 315, "teachers": 19, "lunch_pct": 66.3, "charter": false, "lat": 37.49755, "lng": -87.712486, "ratio": 16.6}], "high": [{"name": "Webster County Area Technology Center", "district": "Kentucky Tech System", "city": "Dixon", "level": 3, "low_grade": 8, "high_grade": 12, "enrollment": 0, "teachers": 0, "lunch_pct": 0.0, "charter": false, "lat": 37.4983, "lng": -87.7144, "ratio": 1.0}, {"name": "Webster County High School", "district": "Webster County", "city": "Dixon", "level": 3, "low_grade": 9, "high_grade": 12, "enrollment": 676, "teachers": 35, "lunch_pct": 61.2, "charter": false, "lat": 37.4982, "lng": -87.7129, "ratio": 19.3}]}, "hartford": {"elem": [{"name": "Wayland Alexander Elementary School", "district": "Ohio County", "city": "Hartford", "level": 1, "low_grade": -1, "high_grade": 6, "enrollment": 659, "teachers": 40, "lunch_pct": 67.2, "charter": false, "lat": 37.455103, "lng": -86.888039, "ratio": 16.5}], "middle": [{"name": "Ohio County Middle School", "district": "Ohio County", "city": "Hartford", "level": 2, "low_grade": 7, "high_grade": 8, "enrollment": 550, "teachers": 32, "lunch_pct": 62.5, "charter": false, "lat": 37.428137, "lng": -86.883334, "ratio": 17.2}], "high": [{"name": "Ohio County Area Technology Center", "district": "Kentucky Tech System", "city": "Hartford", "level": 3, "low_grade": 8, "high_grade": 12, "enrollment": 0, "teachers": 0, "lunch_pct": 0.0, "charter": false, "lat": 37.428434, "lng": -86.886508, "ratio": 1.0}, {"name": "Ohio County High School", "district": "Ohio County", "city": "Hartford", "level": 3, "low_grade": 9, "high_grade": 12, "enrollment": 1144, "teachers": 58, "lunch_pct": 57.0, "charter": false, "lat": 37.429813, "lng": -86.884016, "ratio": 19.7}, {"name": "Ohio County Alternative Learning Program", "district": "Ohio County", "city": "Hartford", "level": 3, "low_grade": 6, "high_grade": 12, "enrollment": 14, "teachers": 2, "lunch_pct": 92.9, "charter": false, "lat": 37.447664, "lng": -86.902637, "ratio": 7.0}, {"name": "Ohio County Day Treatment", "district": "Ohio County", "city": "Hartford", "level": 3, "low_grade": 6, "high_grade": 12, "enrollment": 25, "teachers": 2, "lunch_pct": 80.0, "charter": false, "lat": 37.447664, "lng": -86.902637, "ratio": 12.5}]}, "carrollton": {"elem": [{"name": "Cartmell Elementary", "district": "Carroll County", "city": "Carrollton", "level": 1, "low_grade": 2, "high_grade": 4, "enrollment": 410, "teachers": 28, "lunch_pct": 59.3, "charter": false, "lat": 38.6846, "lng": -85.1577, "ratio": 14.6}, {"name": "Kathryn Winn Primary", "district": "Carroll County", "city": "Carrollton", "level": 1, "low_grade": 0, "high_grade": 1, "enrollment": 280, "teachers": 20, "lunch_pct": 65.7, "charter": false, "lat": 38.6747, "lng": -85.1715, "ratio": 14.0}], "middle": [{"name": "Carroll County Middle School", "district": "Carroll County", "city": "Carrollton", "level": 2, "low_grade": 5, "high_grade": 8, "enrollment": 590, "teachers": 34, "lunch_pct": 58.8, "charter": false, "lat": 38.6781, "lng": -85.1805, "ratio": 17.4}], "high": [{"name": "Carroll County Area Technology Center", "district": "Kentucky Tech System", "city": "Carrollton", "level": 3, "low_grade": 8, "high_grade": 12, "enrollment": 0, "teachers": 0, "lunch_pct": 0.0, "charter": false, "lat": 38.682742, "lng": -85.158026, "ratio": 1.0}, {"name": "iLEAD Academy", "district": "Kentucky Tech System", "city": "Carrollton", "level": 3, "low_grade": 9, "high_grade": 12, "enrollment": 0, "teachers": 0, "lunch_pct": 0.0, "charter": false, "lat": 38.657322, "lng": -85.130803, "ratio": 1.0}, {"name": "Carroll County High School", "district": "Carroll County", "city": "Carrollton", "level": 3, "low_grade": 9, "high_grade": 12, "enrollment": 572, "teachers": 28, "lunch_pct": 56.1, "charter": false, "lat": 38.6832, "lng": -85.1569, "ratio": 20.4}, {"name": "iLead Academy School", "district": "Carroll County", "city": "Carrollton", "level": 3, "low_grade": 9, "high_grade": 12, "enrollment": 0, "teachers": 0, "lunch_pct": 0.0, "charter": false, "lat": 38.657322, "lng": -85.130803, "ratio": 1.0}]}, "albany": {"elem": [{"name": "Albany Elementary School", "district": "Clinton County", "city": "Albany", "level": 1, "low_grade": 1, "high_grade": 4, "enrollment": 461, "teachers": 33, "lunch_pct": 79.8, "charter": false, "lat": 36.6994, "lng": -85.142, "ratio": 14.0}, {"name": "Clinton County Early Childhood Center", "district": "Clinton County", "city": "Albany", "level": 1, "low_grade": -1, "high_grade": 0, "enrollment": 231, "teachers": 20, "lunch_pct": 80.5, "charter": false, "lat": 36.710348, "lng": -85.135759, "ratio": 11.6}], "middle": [{"name": "Clinton County Middle School", "district": "Clinton County", "city": "Albany", "level": 2, "low_grade": 5, "high_grade": 8, "enrollment": 444, "teachers": 32, "lunch_pct": 78.8, "charter": false, "lat": 36.717247, "lng": -85.13883, "ratio": 13.9}], "high": [{"name": "Southern Kentucky Early CCA", "district": "Kentucky Tech System", "city": "Albany", "level": 3, "low_grade": 8, "high_grade": 12, "enrollment": 0, "teachers": 0, "lunch_pct": 0.0, "charter": false, "lat": 36.754205, "lng": -85.159899, "ratio": 1.0}, {"name": "Clinton County High School", "district": "Clinton County", "city": "Albany", "level": 3, "low_grade": 9, "high_grade": 12, "enrollment": 422, "teachers": 29, "lunch_pct": 68.5, "charter": false, "lat": 36.709247, "lng": -85.132863, "ratio": 14.6}, {"name": "Foothills Academy", "district": "Clinton County", "city": "Albany", "level": 3, "low_grade": 6, "high_grade": 12, "enrollment": 16, "teachers": 5, "lunch_pct": 100.0, "charter": false, "lat": 36.751005, "lng": -85.209242, "ratio": 3.2}]}, "corbin": {"elem": [{"name": "Corbin Primary", "district": "Corbin Independent", "city": "Corbin", "level": 1, "low_grade": 0, "high_grade": 3, "enrollment": 769, "teachers": 49, "lunch_pct": 60.1, "charter": false, "lat": 36.927074, "lng": -84.148965, "ratio": 15.7}, {"name": "Elementary Homebound", "district": "Corbin Independent", "city": "Corbin", "level": 1, "low_grade": 0, "high_grade": 8, "enrollment": 24, "teachers": 0, "lunch_pct": 75.0, "charter": false, "lat": 36.949773, "lng": -84.096253, "ratio": 24.0}, {"name": "CORBIN ELEMENTARY SCHOOL", "district": "Corbin Independent", "city": "Corbin", "level": 1, "low_grade": 4, "high_grade": 5, "enrollment": 373, "teachers": 24, "lunch_pct": 61.4, "charter": false, "lat": 36.94259, "lng": -84.096445, "ratio": 15.5}, {"name": "Lynn Camp  Elementary School", "district": "Knox County", "city": "Corbin", "level": 1, "low_grade": -1, "high_grade": 5, "enrollment": 525, "teachers": 34, "lunch_pct": 89.0, "charter": false, "lat": 36.95051, "lng": -84.036048, "ratio": 15.4}, {"name": "Hunter Hills Elementary School", "district": "Laurel County", "city": "Corbin", "level": 1, "low_grade": -1, "high_grade": 5, "enrollment": 568, "teachers": 39, "lunch_pct": 81.2, "charter": false, "lat": 36.996146, "lng": -84.081073, "ratio": 14.6}, {"name": "Oak Grove Elementary School", "district": "Whitley County", "city": "Corbin", "level": 1, "low_grade": -1, "high_grade": 6, "enrollment": 705, "teachers": 39, "lunch_pct": 77.4, "charter": false, "lat": 36.904516, "lng": -84.162686, "ratio": 18.1}], "middle": [{"name": "Corbin Middle School", "district": "Corbin Independent", "city": "Corbin", "level": 2, "low_grade": 6, "high_grade": 8, "enrollment": 646, "teachers": 40, "lunch_pct": 57.9, "charter": false, "lat": 36.951129, "lng": -84.084823, "ratio": 16.1}], "high": [{"name": "Corbin Area Technology Center", "district": "Kentucky Tech System", "city": "Corbin", "level": 3, "low_grade": 8, "high_grade": 12, "enrollment": 0, "teachers": 0, "lunch_pct": 0.0, "charter": false, "lat": 36.9303, "lng": -84.0946, "ratio": 1.0}, {"name": "Southeast Kentucky Academy", "district": "Kentucky Tech System", "city": "Corbin", "level": 3, "low_grade": 9, "high_grade": 12, "enrollment": 0, "teachers": 0, "lunch_pct": 0.0, "charter": false, "lat": 36.949773, "lng": -84.096253, "ratio": 1.0}, {"name": "Corbin High School", "district": "Corbin Independent", "city": "Corbin", "level": 3, "low_grade": 9, "high_grade": 12, "enrollment": 829, "teachers": 49, "lunch_pct": 53.2, "charter": false, "lat": 36.9316, "lng": -84.0948, "ratio": 16.9}, {"name": "High School Homebound", "district": "Corbin Independent", "city": "Corbin", "level": 3, "low_grade": 9, "high_grade": 12, "enrollment": 8, "teachers": 5, "lunch_pct": 0.0, "charter": false, "lat": 36.949773, "lng": -84.096253, "ratio": 1.6}, {"name": "Lynn Camp Middle High School", "district": "Knox County", "city": "Corbin", "level": 3, "low_grade": 6, "high_grade": 12, "enrollment": 465, "teachers": 37, "lunch_pct": 84.9, "charter": false, "lat": 36.946829, "lng": -84.037347, "ratio": 12.6}]}, "liberty": {"elem": [{"name": "Liberty Elementary School", "district": "Casey County", "city": "Liberty", "level": 1, "low_grade": -1, "high_grade": 5, "enrollment": 399, "teachers": 24, "lunch_pct": 67.9, "charter": false, "lat": 37.317, "lng": -84.9348, "ratio": 16.6}, {"name": "Jones Park Elementary", "district": "Casey County", "city": "Liberty", "level": 1, "low_grade": -1, "high_grade": 5, "enrollment": 289, "teachers": 23, "lunch_pct": 72.7, "charter": false, "lat": 37.349616, "lng": -84.840837, "ratio": 12.6}, {"name": "Walnut Hill Elementary School", "district": "Casey County", "city": "Liberty", "level": 1, "low_grade": -1, "high_grade": 5, "enrollment": 394, "teachers": 27, "lunch_pct": 67.8, "charter": false, "lat": 37.281562, "lng": -84.959831, "ratio": 14.6}], "middle": [{"name": "Casey County Middle School", "district": "Casey County", "city": "Liberty", "level": 2, "low_grade": 6, "high_grade": 8, "enrollment": 513, "teachers": 34, "lunch_pct": 67.8, "charter": false, "lat": 37.3254, "lng": -84.9073, "ratio": 15.1}], "high": [{"name": "Casey County Area Technology Center", "district": "Kentucky Tech System", "city": "Liberty", "level": 3, "low_grade": 8, "high_grade": 12, "enrollment": 0, "teachers": 0, "lunch_pct": 0.0, "charter": false, "lat": 37.3264, "lng": -84.9074, "ratio": 1.0}, {"name": "Casey County High School", "district": "Casey County", "city": "Liberty", "level": 3, "low_grade": 9, "high_grade": 12, "enrollment": 607, "teachers": 42, "lunch_pct": 61.8, "charter": false, "lat": 37.326914, "lng": -84.905237, "ratio": 14.5}]}, "mckee": {"elem": [{"name": "McKee Elementary School", "district": "Jackson County", "city": "McKee", "level": 1, "low_grade": -1, "high_grade": 5, "enrollment": 388, "teachers": 28, "lunch_pct": 74.2, "charter": false, "lat": 37.442891, "lng": -83.992651, "ratio": 13.9}], "middle": [{"name": "Jackson County Middle School", "district": "Jackson County", "city": "McKee", "level": 2, "low_grade": 6, "high_grade": 8, "enrollment": 401, "teachers": 28, "lunch_pct": 69.6, "charter": false, "lat": 37.42232, "lng": -83.948006, "ratio": 14.3}], "high": [{"name": "Jackson Area Technology Center", "district": "Kentucky Tech System", "city": "McKee", "level": 3, "low_grade": 8, "high_grade": 12, "enrollment": 0, "teachers": 0, "lunch_pct": 0.0, "charter": false, "lat": 37.437691, "lng": -83.985884, "ratio": 1.0}, {"name": "Jackson County High School", "district": "Jackson County", "city": "McKee", "level": 3, "low_grade": 9, "high_grade": 12, "enrollment": 546, "teachers": 35, "lunch_pct": 64.8, "charter": false, "lat": 37.437661, "lng": -83.985862, "ratio": 15.6}]}, "belfry": {"elem": [{"name": "Belfry Elementary", "district": "Pike County", "city": "Belfry", "level": 1, "low_grade": -1, "high_grade": 5, "enrollment": 592, "teachers": 35, "lunch_pct": 68.1, "charter": false, "lat": 37.6398, "lng": -82.2554, "ratio": 16.9}], "middle": [{"name": "Belfry Middle School", "district": "Pike County", "city": "Belfry", "level": 2, "low_grade": 6, "high_grade": 8, "enrollment": 349, "teachers": 21, "lunch_pct": 74.8, "charter": false, "lat": 37.622527, "lng": -82.268574, "ratio": 16.6}], "high": [{"name": "Belfry Area Technology Center", "district": "Kentucky Tech System", "city": "Belfry", "level": 3, "low_grade": 8, "high_grade": 12, "enrollment": 0, "teachers": 0, "lunch_pct": 0.0, "charter": false, "lat": 37.624, "lng": -82.2672, "ratio": 1.0}, {"name": "Belfry High School", "district": "Pike County", "city": "Belfry", "level": 3, "low_grade": 9, "high_grade": 12, "enrollment": 531, "teachers": 30, "lunch_pct": 62.5, "charter": false, "lat": 37.648169, "lng": -82.265666, "ratio": 17.7}]}, "mt sterling": {"elem": [], "middle": [], "high": [{"name": "Montgomery County Area Technology Center", "district": "Kentucky Tech System", "city": "Mt Sterling", "level": 3, "low_grade": 8, "high_grade": 12, "enrollment": 0, "teachers": 0, "lunch_pct": 0.0, "charter": false, "lat": 38.0434, "lng": -83.9418, "ratio": 1.0}]}, "morgantown": {"elem": [{"name": "Morgantown Elementary School", "district": "Butler County", "city": "Morgantown", "level": 1, "low_grade": -1, "high_grade": 5, "enrollment": 700, "teachers": 38, "lunch_pct": 67.1, "charter": false, "lat": 37.2311, "lng": -86.6809, "ratio": 18.4}, {"name": "North Butler Elementary", "district": "Butler County", "city": "Morgantown", "level": 1, "low_grade": -1, "high_grade": 5, "enrollment": 396, "teachers": 26, "lunch_pct": 54.3, "charter": false, "lat": 37.2651, "lng": -86.6029, "ratio": 15.2}], "middle": [{"name": "Butler County Middle School", "district": "Butler County", "city": "Morgantown", "level": 2, "low_grade": 6, "high_grade": 8, "enrollment": 454, "teachers": 30, "lunch_pct": 64.3, "charter": false, "lat": 37.2315, "lng": -86.6825, "ratio": 15.1}], "high": [{"name": "Butler Co. Area Technology Center", "district": "Kentucky Tech System", "city": "Morgantown", "level": 3, "low_grade": 8, "high_grade": 12, "enrollment": 0, "teachers": 0, "lunch_pct": 0.0, "charter": false, "lat": 37.215359, "lng": -86.705758, "ratio": 1.0}, {"name": "Butler County High School", "district": "Butler County", "city": "Morgantown", "level": 3, "low_grade": 9, "high_grade": 12, "enrollment": 633, "teachers": 39, "lunch_pct": 54.0, "charter": false, "lat": 37.2055, "lng": -86.7005, "ratio": 16.2}, {"name": "Butler County Learning Center", "district": "Butler County", "city": "Morgantown", "level": 3, "low_grade": 6, "high_grade": 12, "enrollment": 12, "teachers": 3, "lunch_pct": 100.0, "charter": false, "lat": 37.215359, "lng": -86.705758, "ratio": 4.0}]}, "beattyville": {"elem": [{"name": "Lee County Elementary School", "district": "Lee County", "city": "Beattyville", "level": 1, "low_grade": -1, "high_grade": 5, "enrollment": 449, "teachers": 29, "lunch_pct": 84.4, "charter": false, "lat": 37.5507, "lng": -83.7178, "ratio": 15.5}], "middle": [], "high": [{"name": "Lee County Area Technology Center", "district": "Kentucky Tech System", "city": "Beattyville", "level": 3, "low_grade": 8, "high_grade": 12, "enrollment": 0, "teachers": 0, "lunch_pct": 0.0, "charter": false, "lat": 37.584403, "lng": -83.708913, "ratio": 1.0}, {"name": "Delta Academy", "district": "Kentucky Tech System", "city": "Beattyville", "level": 3, "low_grade": 9, "high_grade": 12, "enrollment": 0, "teachers": 0, "lunch_pct": 0.0, "charter": false, "lat": 37.584495, "lng": -83.708469, "ratio": 1.0},