{"baltimore": {"elem": [{"name": "Belle Grove Elementary", "district": "Anne Arundel County Public Schools", "city": "Baltimore", "level": 1, "low_grade": -1, "high_grade": 5, "enrollment": 311, "teachers": 25, "lunch_pct": 87.8, "charter": false, "lat": 39.2295, "lng": -76.621431, "ratio": 12.4}, {"name": "Brooklyn Park Elementary", "district": "Anne Arundel County Public Schools", "city": "Baltimore", "level": 1, "low_grade": -1, "high_grade": 5, "enrollment": 484, "teachers": 36, "lunch_pct": 80.4, "charter": false, "lat": 39.222, "lng": -76.6174, "ratio": 13.4}, {"name": "Park Elementary", "district": "Anne Arundel County Public Schools", "city": "Baltimore", "level": 1, "low_grade": -1, "high_grade": 5, "enrollment": 507, "teachers": 38, "lunch_pct": 87.8, "charter": false, "lat": 39.2227, "lng": -76.6103, "ratio": 13.3}, {"name": "Abbottston Elementary", "district": "Baltimore City Public Schools", "city": "Baltimore", "level": 1, "low_grade": -1, "high_grade": 7, "enrollment": 346, "teachers": 22, "lunch_pct": 80.3, "charter": false, "lat": 39.3251, "lng": -76.599495, "ratio": 15.7}, {"name": "Arlington Elementary", "district": "Baltimore City Public Schools", "city": "Baltimore", "level": 1, "low_grade": -1, "high_grade": 5, "enrollment": 469, "teachers": 26, "lunch_pct": 74.6, "charter": false, "lat": 39.35022, "lng": -76.684529, "ratio": 18.0}, {"name": "Armistead Gardens Elementary/Middle", "district": "Baltimore City Public Schools", "city": "Baltimore", "level": 1, "low_grade": -1, "high_grade": 8, "enrollment": 756, "teachers": 56, "lunch_pct": 70.2, "charter": false, "lat": 39.3048, "lng": -76.5527, "ratio": 13.5}, {"name": "Arundel Elementary", "district": "Baltimore City Public Schools", "city": "Baltimore", "level": 1, "low_grade": -1, "high_grade": 4, "enrollment": 427, "teachers": 27, "lunch_pct": 80.6, "charter": false, "lat": 39.251987, "lng": -76.628358, "ratio": 15.8}, {"name": "Dr. Nathan A. Pitts-Ashburton Elementary/Middle", "district": "Baltimore City Public Schools", "city": "Baltimore", "level": 1, "low_grade": -1, "high_grade": 8, "enrollment": 316, "teachers": 23, "lunch_pct": 83.5, "charter": false, "lat": 39.331, "lng": -76.6676, "ratio": 13.7}, {"name": "Barclay Elementary/Middle", "district": "Baltimore City Public Schools", "city": "Baltimore", "level": 1, "low_grade": -1, "high_grade": 8, "enrollment": 435, "teachers": 27, "lunch_pct": 78.6, "charter": false, "lat": 39.3237, "lng": -76.6114, "ratio": 16.1}, {"name": "Charles Carroll Barrister Elementary", "district": "Baltimore City Public Schools", "city": "Baltimore", "level": 1, "low_grade": -1, "high_grade": 6, "enrollment": 309, "teachers": 27, "lunch_pct": 67.6, "charter": false, "lat": 39.2797, "lng": -76.636, "ratio": 11.4}, {"name": "Bay-Brook Elementary/Middle", "district": "Baltimore City Public Schools", "city": "Baltimore", "level": 1, "low_grade": -1, "high_grade": 8, "enrollment": 710, "teachers": 37, "lunch_pct": 78.3, "charter": false, "lat": 39.225716, "lng": -76.598581, "ratio": 19.2}, {"name": "Beechfield Elementary/Middle", "district": "Baltimore City Public Schools", "city": "Baltimore", "level": 1, "low_grade": -1, "high_grade": 8, "enrollment": 583, "teachers": 34, "lunch_pct": 84.4, "charter": false, "lat": 39.2808, "lng": -76.6934, "ratio": 17.1}, {"name": "Belmont Elementary", "district": "Baltimore City Public Schools", "city": "Baltimore", "level": 1, "low_grade": -1, "high_grade": 5, "enrollment": 181, "teachers": 16, "lunch_pct": 87.8, "charter": false, "lat": 39.3034, "lng": -76.671, "ratio": 11.3}, {"name": "Mary Ann Winterling Elementary at Bentalou", "district": "Baltimore City Public Schools", "city": "Baltimore", "level": 1, "low_grade": -1, "high_grade": 6, "enrollment": 320, "teachers": 19, "lunch_pct": 89.7, "charter": false, "lat": 39.2917, "lng": -76.654, "ratio": 16.8}, {"name": "The Belair-Edison School", "district": "Baltimore City Public Schools", "city": "Baltimore", "level": 1, "low_grade": -1, "high_grade": 8, "enrollment": 1013, "teachers": 67, "lunch_pct": 86.8, "charter": true, "lat": 39.3214, "lng": -76.5663, "ratio": 15.1}, {"name": "Callaway Elementary", "district": "Baltimore City Public Schools", "city": "Baltimore", "level": 1, "low_grade": -1, "high_grade": 6, "enrollment": 240, "teachers": 16, "lunch_pct": 83.3, "charter": false, "lat": 39.3363, "lng": -76.6784, "ratio": 15.0}, {"name": "Cecil Elementary", "district": "Baltimore City Public Schools", "city": "Baltimore", "level": 1, "low_grade": -1, "high_grade": 5, "enrollment": 310, "teachers": 22, "lunch_pct": 85.2, "charter": false, "lat": 39.3132, "lng": -76.6056, "ratio": 14.1}, {"name": "City Springs Elementary/Middle", "district": "Baltimore City Public Schools", "city": "Baltimore", "level": 1, "low_grade": -1, "high_grade": 8, "enrollment": 452, "teachers": 33, "lunch_pct": 89.2, "charter": true, "lat": 39.2896, "lng": -76.5974, "ratio": 13.7}, {"name": "Collington Square Elementary/Middle", "district": "Baltimore City Public Schools", "city": "Baltimore", "level": 1, "low_grade": -1, "high_grade": 8, "enrollment": 203, "teachers": 15, "lunch_pct": 90.1, "charter": false, "lat": 39.3073, "lng": -76.5867, "ratio": 13.5}, {"name": "Commodore John Rodgers Elementary/Middle", "district": "Baltimore City Public Schools", "city": "Baltimore", "level": 1, "low_grade": -1, "high_grade": 8, "enrollment": 855, "teachers": 63, "lunch_pct": 71.6, "charter": false, "lat": 39.2936, "lng": -76.5879, "ratio": 13.6}, {"name": "Cross Country Elementary/Middle", "district": "Baltimore City Public Schools", "city": "Baltimore", "level": 1, "low_grade": -1, "high_grade": 8, "enrollment": 649, "teachers": 36, "lunch_pct": 67.6, "charter": false, "lat": 39.364548, "lng": -76.704659, "ratio": 18.0}, {"name": "Curtis Bay Elementary", "district": "Baltimore City Public Schools", "city": "Baltimore", "level": 1, "low_grade": -1, "high_grade": 6, "enrollment": 427, "teachers": 32, "lunch_pct": 71.2, "charter": false, "lat": 39.2262, "lng": -76.593, "ratio": 13.3}, {"name": "Dallas F. Nicholas Sr. Elementary", "district": "Baltimore City Public Schools", "city": "Baltimore", "level": 1, "low_grade": -1, "high_grade": 5, "enrollment": 201, "teachers": 18, "lunch_pct": 83.6, "charter": false, "lat": 39.313, "lng": -76.6135, "ratio": 11.2}, {"name": "Dickey Hill Elementary/Middle", "district": "Baltimore City Public Schools", "city": "Baltimore", "level": 1, "low_grade": -1, "high_grade": 8, "enrollment": 254, "teachers": 17, "lunch_pct": 78.3, "charter": false, "lat": 39.3114, "lng": -76.7038, "ratio": 14.9}, {"name": "Dr. Bernard Harris Sr. Elementary", "district": "Baltimore City Public Schools", "city": "Baltimore", "level": 1, "low_grade": -1, "high_grade": 8, "enrollment": 282, "teachers": 10, "lunch_pct": 90.8, "charter": false, "lat": 39.3068, "lng": -76.5987, "ratio": 28.2}, {"name": "Park Heights Academy", "district": "Baltimore City Public Schools", "city": "Baltimore", "level": 1, "low_grade": -1, "high_grade": 5, "enrollment": 344, "teachers": 21, "lunch_pct": 89.0, "charter": false, "lat": 39.3447, "lng": -76.6628, "ratio": 16.4}, {"name": "Edgewood Elementary", "district": "Baltimore City Public Schools", "city": "Baltimore", "level": 1, "low_grade": -1, "high_grade": 5, "enrollment": 143, "teachers": 14, "lunch_pct": 88.8, "charter": false, "lat": 39.3091, "lng": -76.6765, "ratio": 10.2}, {"name": "Eutaw-Marshburn Elementary", "district": "Baltimore City Public Schools", "city": "Baltimore", "level": 1, "low_grade": -1, "high_grade": 6, "enrollment": 186, "teachers": 15, "lunch_pct": 94.1, "charter": false, "lat": 39.3064, "lng": -76.6299, "ratio": 12.4}, {"name": "Fallstaff Elementary/Middle", "district": "Baltimore City Public Schools", "city": "Baltimore", "level": 1, "low_grade": -1, "high_grade": 8, "enrollment": 524, "teachers": 33, "lunch_pct": 55.9, "charter": false, "lat": 39.3622, "lng": -76.7055, "ratio": 15.9}, {"name": "Federal Hill Preparatory Academy", "district": "Baltimore City Public Schools", "city": "Baltimore", "level": 1, "low_grade": -1, "high_grade": 7, "enrollment": 330, "teachers": 22, "lunch_pct": 53.0, "charter": false, "lat": 39.2776, "lng": -76.6112, "ratio": 15.0}, {"name": "Fort Worthington Elementary/Middle", "district": "Baltimore City Public Schools", "city": "Baltimore", "level": 1, "low_grade": 0, "high_grade": 8, "enrollment": 693, "teachers": 45, "lunch_pct": 83.4, "charter": false, "lat": 39.307443, "lng": -76.578525, "ratio": 15.4}, {"name": "Francis Scott Key Elementary/Middle", "district": "Baltimore City Public Schools", "city": "Baltimore", "level": 1, "low_grade": -1, "high_grade": 8, "enrollment": 589, "teachers": 35, "lunch_pct": 44.3, "charter": false, "lat": 39.2681, "lng": -76.5945, "ratio": 16.8}, {"name": "Franklin Square Elementary/Middle", "district": "Baltimore City Public Schools", "city": "Baltimore", "level": 1, "low_grade": -1, "high_grade": 8, "enrollment": 316, "teachers": 23, "lunch_pct": 91.1, "charter": false, "lat": 39.2911, "lng": -76.6407, "ratio": 13.7}, {"name": "Furley Elementary", "district": "Baltimore City Public Schools", "city": "Baltimore", "level": 1, "low_grade": -1, "high_grade": 5, "enrollment": 392, "teachers": 25, "lunch_pct": 83.4, "charter": false, "lat": 39.320485, "lng": -76.546061, "ratio": 15.7}, {"name": "Furman Templeton Preparatory Academy", "district": "Baltimore City Public Schools", "city": "Baltimore", "level": 1, "low_grade": -1, "high_grade": 8, "enrollment": 393, "teachers": 26, "lunch_pct": 90.6, "charter": true, "lat": 39.2997, "lng": -76.6304, "ratio": 15.1}, {"name": "Gardenville Elementary", "district": "Baltimore City Public Schools", "city": "Baltimore", "level": 1, "low_grade": -1, "high_grade": 8, "enrollment": 202, "teachers": 15, "lunch_pct": 81.2, "charter": false, "lat": 39.3389, "lng": -76.5525, "ratio": 13.5}, {"name": "Garrett Heights Elementary/Middle", "district": "Baltimore City Public Schools", "city": "Baltimore", "level": 1, "low_grade": -1, "high_grade": 8, "enrollment": 337, "teachers": 23, "lunch_pct": 69.4, "charter": false, "lat": 39.349421, "lng": -76.569519, "ratio": 14.7}, {"name": "Wolfe Street Academy", "district": "Baltimore City Public Schools", "city": "Baltimore", "level": 1, "low_grade": -1, "high_grade": 5, "enrollment": 239, "teachers": 25, "lunch_pct": 71.1, "charter": true, "lat": 39.288, "lng": -76.5899, "ratio": 9.6}, {"name": "George Washington Elementary", "district": "Baltimore City Public Schools", "city": "Baltimore", "level": 1, "low_grade": -1, "high_grade": 5, "enrollment": 173, "teachers": 13, "lunch_pct": 86.1, "charter": false, "lat": 39.2811, "lng": -76.6292, "ratio": 13.3}, {"name": "Glenmount Elementary/Middle", "district": "Baltimore City Public Schools", "city": "Baltimore", "level": 1, "low_grade": -1, "high_grade": 8, "enrollment": 657, "teachers": 44, "lunch_pct": 75.8, "charter": false, "lat": 39.3524, "lng": -76.5412, "ratio": 14.9}, {"name": "Govans Elementary", "district": "Baltimore City Public Schools", "city": "Baltimore", "level": 1, "low_grade": -1, "high_grade": 7, "enrollment": 376, "teachers": 27, "lunch_pct": 72.9, "charter": true, "lat": 39.360636, "lng": -76.608081, "ratio": 13.9}, {"name": "Graceland Park/O'Donnell Heights Elementary/Middle", "district": "Baltimore City Public Schools", "city": "Baltimore", "level": 1, "low_grade": -1, "high_grade": 8, "enrollment": 699, "teachers": 40, "lunch_pct": 68.0, "charter": false, "lat": 39.2823, "lng": -76.54, "ratio": 17.5}, {"name": "Gwynns Falls Elementary", "district": "Baltimore City Public Schools", "city": "Baltimore", "level": 1, "low_grade": -1, "high_grade": 7, "enrollment": 238, "teachers": 14, "lunch_pct": 79.4, "charter": false, "lat": 39.3152, "lng": -76.6633, "ratio": 17.0}, {"name": "Hamilton Elementary/Middle", "district": "Baltimore City Public Schools", "city": "Baltimore", "level": 1, "low_grade": -1, "high_grade": 8, "enrollment": 815, "teachers": 52, "lunch_pct": 58.8, "charter": false, "lat": 39.3598, "lng": -76.5577, "ratio": 15.7}, {"name": "Hampden Elementary/Middle", "district": "Baltimore City Public Schools", "city": "Baltimore", "level": 1, "low_grade": -1, "high_grade": 8, "enrollment": 488, "teachers": 27, "lunch_pct": 45.1, "charter": false, "lat": 39.3321, "lng": -76.63, "ratio": 18.1}, {"name": "Hampstead Hill Academy", "district": "Baltimore City Public Schools", "city": "Baltimore", "level": 1, "low_grade": -1, "high_grade": 8, "enrollment": 861, "teachers": 46, "lunch_pct": 39.3, "charter": true, "lat": 39.2861, "lng": -76.5761, "ratio": 18.7}, {"name": "Harlem Park Elementary/Middle", "district": "Baltimore City Public Schools", "city": "Baltimore", "level": 1, "low_grade": -1, "high_grade": 8, "enrollment": 365, "teachers": 21, "lunch_pct": 92.6, "charter": false, "lat": 39.298, "lng": -76.6409, "ratio": 17.4}, {"name": "Hazelwood Elementary/Middle", "district": "Baltimore City Public Schools", "city": "Baltimore", "level": 1, "low_grade": -1, "high_grade": 8, "enrollment": 526, "teachers": 34, "lunch_pct": 80.6, "charter": false, "lat": 39.3386, "lng": -76.5385, "ratio": 15.5}, {"name": "Highlandtown Elementary/Middle #215", "district": "Baltimore City Public Schools", "city": "Baltimore", "level": 1, "low_grade": -1, "high_grade": 8, "enrollment": 424, "teachers": 28, "lunch_pct": 60.1, "charter": false, "lat": 39.2899, "lng": -76.5706, "ratio": 15.1}, {"name": "Highlandtown Elementary/Middle #237", "district": "Baltimore City Public Schools", "city": "Baltimore", "level": 1, "low_grade": -1, "high_grade": 8, "enrollment": 726, "teachers": 43, "lunch_pct": 58.7, "charter": false, "lat": 39.28576, "lng": -76.530751, "ratio": 16.9}, {"name": "Hilton Elementary", "district": "Baltimore City Public Schools", "city": "Baltimore", "level": 1, "low_grade": -1, "high_grade": 8, "enrollment": 293, "teachers": 20, "lunch_pct": 82.6, "charter": false, "lat": 39.3192, "lng": -76.6739, "ratio": 14.7}, {"name": "Holabird Academy", "district": "Baltimore City Public Schools", "city": "Baltimore", "level": 1, "low_grade": -1, "high_grade": 8, "enrollment": 528, "teachers": 41, "lunch_pct": 73.1, "charter": false, "lat": 39.2758, "lng": -76.5387, "ratio": 12.9}, {"name": "James McHenry Elementary/Middle", "district": "Baltimore City Public Schools", "city": "Baltimore", "level": 1, "low_grade": -1, "high_grade": 8, "enrollment": 667, "teachers": 38, "lunch_pct": 86.4, "charter": false, "lat": 39.2874, "lng": -76.6335, "ratio": 17.6}, {"name": "Billie Holiday Elementary", "district": "Baltimore City Public Schools", "city": "Baltimore", "level": 1, "low_grade": -1, "high_grade": 2, "enrollment": 217, "teachers": 17, "lunch_pct": 86.6, "charter": false, "lat": 39.299836, "lng": -76.655852, "ratio": 12.8}, {"name": "Dorothy I. Height Elementary", "district": "Baltimore City Public Schools", "city": "Baltimore", "level": 1, "low_grade": -1, "high_grade": 5, "enrollment": 349, "teachers": 20, "lunch_pct": 85.7, "charter": false, "lat": 39.311688, "lng": -76.633052, "ratio": 17.4}, {"name": "John Ruhrah Elementary/Middle", "district": "Baltimore City Public Schools", "city": "Baltimore", "level": 1, "low_grade": -1, "high_grade": 8, "enrollment": 930, "teachers": 81, "lunch_pct": 61.8, "charter": false, "lat": 39.283953, "lng": -76.551908, "ratio": 11.5}, {"name": "Johnston Square Elementary", "district": "Baltimore City Public Schools", "city": "Baltimore", "level": 1, "low_grade": -1, "high_grade": 8, "enrollment": 277, "teachers": 18, "lunch_pct": 90.3, "charter": false, "lat": 39.3036, "lng": -76.6046, "ratio": 15.4}, {"name": "Lakeland Elementary/Middle", "district": "Baltimore City Public Schools", "city": "Baltimore", "level": 1, "low_grade": -1, "high_grade": 8, "enrollment": 997, "teachers": 74, "lunch_pct": 56.9, "charter": false, "lat": 39.2537, "lng": -76.6449, "ratio": 13.5}, {"name": "Lakewood Elementary", "district": "Baltimore City Public Schools", "city": "Baltimore", "level": 1, "low_grade": -1, "high_grade": 0, "enrollment": 93, "teachers": 9, "lunch_pct": 78.5, "charter": false, "lat": 39.3086, "lng": -76.5806, "ratio": 10.3}, {"name": "Leith Walk Elementary/Middle", "district": "Baltimore City Public Schools", "city": "Baltimore", "level": 1, "low_grade": -1, "high_grade": 8, "enrollment": 967, "teachers": 51, "lunch_pct": 75.6, "charter": false, "lat": 39.365308, "lng": -76.591365, "ratio": 19.0}, {"name": "Liberty Elementary", "district": "Baltimore City Public Schools", "city": "Baltimore", "level": 1, "low_grade": -1, "high_grade": 7, "enrollment": 334, "teachers": 17, "lunch_pct": 82.0, "charter": false, "lat": 39.326, "lng": -76.6835, "ratio": 19.6}, {"name": "Wildwood Elementary/Middle", "district": "Baltimore City Public Schools", "city": "Baltimore", "level": 1, "low_grade": -1, "high_grade": 8, "enrollment": 793, "teachers": 39, "lunch_pct": 84.2, "charter": false, "lat": 39.295, "lng": -76.6835, "ratio": 20.3}, {"name": "Margaret Brent Elementary/Middle", "district": "Baltimore City Public Schools", "city": "Baltimore", "level": 1, "low_grade": -1, "high_grade": 8, "enrollment": 248, "teachers": 19, "lunch_pct": 54.8, "charter": false, "lat": 39.3197, "lng": -76.6152, "ratio": 13.1}, {"name": "Mary E. Rodman Elementary", "district": "Baltimore City Public Schools", "city": "Baltimore", "level": 1, "low_grade": -1, "high_grade": 6, "enrollment": 392, "teachers": 24, "lunch_pct": 88.0, "charter": false, "lat": 39.292094, "lng": -76.676538, "ratio": 16.3}, {"name": "Matthew A. Henson Elementary", "district": "Baltimore City Public Schools", "city": "Baltimore", "level": 1, "low_grade": -1, "high_grade": 5, "enrollment": 218, "teachers": 14, "lunch_pct": 87.6, "charter": false, "lat": 39.3071, "lng": -76.65, "ratio": 15.6}, {"name": "Medfield Heights Elementary", "district": "Baltimore City Public Schools", "city": "Baltimore", "level": 1, "low_grade": -1, "high_grade": 7, "enrollment": 420, "teachers": 22, "lunch_pct": 33.3, "charter": false, "lat": 39.340846, "lng": -76.642422, "ratio": 19.1}, {"name": "Montebello Elementary/Middle", "district": "Baltimore City Public Schools", "city": "Baltimore", "level": 1, "low_grade": -1, "high_grade": 8, "enrollment": 468, "teachers": 37, "lunch_pct": 81.8, "charter": false, "lat": 39.36671, "lng": -76.560541, "ratio": 12.6}, {"name": "Moravia Park Elementary", "district": "Baltimore City Public Schools", "city": "Baltimore", "level": 1, "low_grade": -1, "high_grade": 5, "enrollment": 659, "teachers": 51, "lunch_pct": 82.1, "charter": false, "lat": 39.319744, "lng": -76.540748, "ratio": 12.9}, {"name": "Morrell Park Elementary/Middle", "district": "Baltimore City Public Schools", "city": "Baltimore", "level": 1, "low_grade": -1, "high_grade": 8, "enrollment": 419, "teachers": 31, "lunch_pct": 74.0, "charter": false, "lat": 39.263, "lng": -76.6508, "ratio": 13.5}, {"name": "Mount Royal Elementary/Middle", "district": "Baltimore City Public Schools", "city": "Baltimore", "level": 1, "low_grade": -1, "high_grade": 8, "enrollment": 791, "teachers": 49, "lunch_pct": 65.6, "charter": false, "lat": 39.309, "lng": -76.6242, "ratio": 16.1}, {"name": "The Mount Washington School", "district": "Baltimore City Public Schools", "city": "Baltimore", "level": 1, "low_grade": -1, "high_grade": 8, "enrollment": 549, "teachers": 29, "lunch_pct": 38.4, "charter": false, "lat": 39.3659, "lng": -76.6549, "ratio": 18.9}, {"name": "Northwood Elementary", "district": "Baltimore City Public Schools", "city": "Baltimore", "level": 1, "low_grade": -1, "high_grade": 8, "enrollment": 575, "teachers": 31, "lunch_pct": 73.6, "charter": false, "lat": 39.3525, "lng": -76.5895, "ratio": 18.5}, {"name": "Pimlico Elementary/Middle", "district": "Baltimore City Public Schools", "city": "Baltimore", "level": 1, "low_grade": -1, "high_grade": 8, "enrollment": 741, "teachers": 35, "lunch_pct": 83.9, "charter": true, "lat": 39.347934, "lng": -76.668029, "ratio": 21.2}, {"name": "Robert W. Coleman Elementary", "district": "Baltimore City Public Schools", "city": "Baltimore", "level": 1, "low_grade": -1, "high_grade": 5, "enrollment": 245, "teachers": 17, "lunch_pct": 94.3, "charter": false, "lat": 39.313008, "lng": -76.655323, "ratio": 14.4}, {"name": "Roland Park Elementary/Middle", "district": "Baltimore City Public Schools", "city": "Baltimore", "level": 1, "low_grade": -1, "high_grade": 8, "enrollment": 1365, "teachers": 70, "lunch_pct": 31.9, "charter": false, "lat": 39.3576, "lng": -76.6341, "ratio": 19.5}, {"name": "Rosemont Elementary/Middle", "district": "Baltimore City Public Schools", "city": "Baltimore", "level": 1, "low_grade": -1, "high_grade": 8, "enrollment": 258, "teachers": 16, "lunch_pct": 88.4, "charter": false, "lat": 39.3043, "lng": -76.6627, "ratio": 16.1}, {"name": "The Historic Samuel Coleridge-Taylor Elementary", "district": "Baltimore City Public Schools", "city": "Baltimore", "level": 1, "low_grade": -1, "high_grade": 7, "enrollment": 196, "teachers": 15, "lunch_pct": 89.8, "charter": false, "lat": 39.2987, "lng": -76.626, "ratio": 13.1}, {"name": "Sinclair Lane Elementary", "district": "Baltimore City Public Schools", "city": "Baltimore", "level": 1, "low_grade": -1, "high_grade": 7, "enrollment": 271, "teachers": 18, "lunch_pct": 86.0, "charter": false, "lat": 39.314999, "lng": -76.560958, "ratio": 15.1}, {"name": "Steuart Hill Academic Academy", "district": "Baltimore City Public Schools", "city": "Baltimore", "level": 1, "low_grade": -1, "high_grade": 8, "enrollment": 139, "teachers": 9, "lunch_pct": 89.2, "charter": false, "lat": 39.2868, "lng": -76.6426, "ratio": 15.4}, {"name": "Tench Tilghman Elementary/Middle", "district": "Baltimore City Public Schools", "city": "Baltimore", "level": 1, "low_grade": -1, "high_grade": 8, "enrollment": 359, "teachers": 26, "lunch_pct": 86.1, "charter": false, "lat": 39.298, "lng": -76.5854, "ratio": 13.8}, {"name": "Thomas Jefferson Elementary/Middle", "district": "Baltimore City Public Schools", "city": "Baltimore", "level": 1, "low_grade": -1, "high_grade": 8, "enrollment": 299, "teachers": 23, "lunch_pct": 78.3, "charter": false, "lat": 39.2954, "lng": -76.698, "ratio": 13.0}, {"name": "Thomas Johnson Elementary/Middle", "district": "Baltimore City Public Schools", "city": "Baltimore", "level": 1, "low_grade": -1, "high_grade": 8, "enrollment": 518, "teachers": 29, "lunch_pct": 34.2, "charter": false, "lat": 39.2711, "lng": -76.6108, "ratio": 17.9}, {"name": "Violetville Elementary/Middle", "district": "Baltimore City Public Schools", "city": "Baltimore", "level": 1, "low_grade": -1, "high_grade": 8, "enrollment": 351, "teachers": 17, "lunch_pct": 68.9, "charter": false, "lat": 39.2679, "lng": -76.6738, "ratio": 20.6}, {"name": "Walter P. Carter Elementary/Middle", "district": "Baltimore City Public Schools", "city": "Baltimore", "level": 1, "low_grade": -1, "high_grade": 8, "enrollment": 765, "teachers": 47, "lunch_pct": 83.5, "charter": false, "lat": 39.343068, "lng": -76.604072, "ratio": 16.3}, {"name": "Waverly Elementary/Middle", "district": "Baltimore City Public Schools", "city": "Baltimore", "level": 1, "low_grade": -1, "high_grade": 8, "enrollment": 513, "teachers": 34, "lunch_pct": 76.6, "charter": false, "lat": 39.330207, "lng": -76.605271, "ratio": 15.1}, {"name": "Westport Academy", "district": "Baltimore City Public Schools", "city": "Baltimore", "level": 1, "low_grade": -1, "high_grade": 8, "enrollment": 234, "teachers": 19, "lunch_pct": 89.3, "charter": false, "lat": 39.2621, "lng": -76.6377, "ratio": 12.3}, {"name": "William Paca Elementary", "district": "Baltimore City Public Schools", "city": "Baltimore", "level": 1, "low_grade": -1, "high_grade": 7, "enrollment": 450, "teachers": 38, "lunch_pct": 72.0, "charter": false, "lat": 39.295383, "lng": -76.579538, "ratio": 11.8}, {"name": "Sandtown-Winchester Achievement Academy", "district": "Baltimore City Public Schools", "city": "Baltimore", "level": 1, "low_grade": -1, "high_grade": 8, "enrollment": 425, "teachers": 27, "lunch_pct": 90.4, "charter": false, "lat": 39.306319, "lng": -76.640584, "ratio": 15.7}, {"name": "Windsor Hills Elementary/Middle", "district": "Baltimore City Public Schools", "city": "Baltimore", "level": 1, "low_grade": -1, "high_grade": 8, "enrollment": 216, "teachers": 22, "lunch_pct": 87.0, "charter": false, "lat": 39.3164, "lng": -76.6828, "ratio": 9.8}, {"name": "Woodhome Elementary/Middle", "district": "Baltimore City Public Schools", "city": "Baltimore", "level": 1, "low_grade": -1, "high_grade": 8, "enrollment": 472, "teachers": 26, "lunch_pct": 63.6, "charter": false, "lat": 39.3668, "lng": -76.5406, "ratio": 18.2}, {"name": "Yorkwood Elementary", "district": "Baltimore City Public Schools", "city": "Baltimore", "level": 1, "low_grade": -1, "high_grade": 5, "enrollment": 329, "teachers": 16, "lunch_pct": 74.2, "charter": false, "lat": 39.3636, "lng": -76.5814, "ratio": 20.6}, {"name": "North Bend Elementary/Middle", "district": "Baltimore City Public Schools", "city": "Baltimore", "level": 1, "low_grade": -1, "high_grade": 8, "enrollment": 439, "teachers": 33, "lunch_pct": 75.6, "charter": false, "lat": 39.2834, "lng": -76.705, "ratio": 13.3}, {"name": "Midtown Academy", "district": "Baltimore City Public Schools", "city": "Baltimore", "level": 1, "low_grade": 0, "high_grade": 8, "enrollment": 193, "teachers": 12, "lunch_pct": 61.1, "charter": true, "lat": 39.308426, "lng": -76.622628, "ratio": 16.1}, {"name": "New Song Academy", "district": "Baltimore City Public Schools", "city": "Baltimore", "level": 1, "low_grade": -1, "high_grade": 8, "enrollment": 175, "teachers": 12, "lunch_pct": 84.6, "charter": true, "lat": 39.305703, "lng": -76.643017, "ratio": 14.6}, {"name": "Harford Heights Elementary", "district": "Baltimore City Public Schools", "city": "Baltimore", "level": 1, "low_grade": -1, "high_grade": 8, "enrollment": 419, "teachers": 32, "lunch_pct": 92.1, "charter": false, "lat": 39.313387, "lng": -76.594055, "ratio": 13.1}, {"name": "Maree Garnett Farring Elementary/Middle", "district": "Baltimore City Public Schools", "city": "Baltimore", "level": 1, "low_grade": -1, "high_grade": 8, "enrollment": 694, "teachers": 44, "lunch_pct": 62.2, "charter": false, "lat": 39.236842, "lng": -76.607028, "ratio": 15.8}, {"name": "Lois T. Murray Elementary/Middle", "district": "Baltimore City Public Schools", "city": "Baltimore", "level": 1, "low_grade": 0, "high_grade": 8, "enrollment": 36, "teachers": 11, "lunch_pct": 66.7, "charter": false, "lat": 39.343068, "lng": -76.604072, "ratio": 3.3}, {"name": "Sharp-Leadenhall Elementary/Middle", "district": "Baltimore City Public Schools", "city": "Baltimore", "level": 1, "low_grade": 2, "high_grade": 7, "enrollment": 29, "teachers": 9, "lunch_pct": 82.8, "charter": false, "lat": 39.313387, "lng": -76.594055, "ratio": 3.2}, {"name": "Calvin M. Rodwell Elementary/Middle", "district": "Baltimore City Public Schools", "city": "Baltimore", "level": 1, "low_grade": -1, "high_grade": 8, "enrollment": 841, "teachers": 38, "lunch_pct": 74.8, "charter": false, "lat": 39.330281, "lng": -76.693995, "ratio": 22.1}, {"name": "Frederick Elementary", "district": "Baltimore City Public Schools", "city": "Baltimore", "level": 1, "low_grade": -1, "high_grade": 5, "enrollment": 393, "teachers": 23, "lunch_pct": 90.1, "charter": true, "lat": 39.282353, "lng": -76.656819, "ratio": 17.1}, {"name": "City Neighbors Charter School", "district": "Baltimore City Public Schools", "city": "Baltimore", "level": 1, "low_grade": 0, "high_grade": 8, "enrollment": 232, "teachers": 16, "lunch_pct": 45.3, "charter": true, "lat": 39.348788, "lng": -76.534423, "ratio": 14.5}, {"name": "Patterson Park Public Charter School", "district": "Baltimore City Public Schools", "city": "Baltimore", "level": 1, "low_grade": -1, "high_grade": 8, "enrollment": 727, "teachers": 52, "lunch_pct": 56.7, "charter": true, "lat": 39.292812, "lng": -76.578767, "ratio": 14.0}, {"name": "Southwest Baltimore Charter School", "district": "Baltimore City Public Schools", "city": "Baltimore", "level": 1, "low_grade": -1, "high_grade": 8, "enrollment": 396, "teachers": 29, "lunch_pct": 80.6, "charter": true, "lat": 39.28179, "lng": -76.638555, "ratio": 13.7}, {"name": "Empowerment Academy", "district": "Baltimore City Public Schools", "city": "Baltimore", "level": 1, "low_grade": -1, "high_grade": 8, "enrollment": 305, "teachers": 24, "lunch_pct": 73.4, "charter": true, "lat": 39.2976, "lng": -76.6592, "ratio": 12.7}, {"name": "The Green School of Baltimore", "district": "Baltimore City Public Schools", "city": "Baltimore", "level": 1, "low_grade": 0, "high_grade": 5, "enrollment": 162, "teachers": 11, "lunch_pct": 34.0, "charter": true, "lat": 39.324285, "lng": -76.571891, "ratio": 14.7}, {"name": "Baltimore International Academy", "district": "Baltimore City Public Schools", "city": "Baltimore", "level": 1, "low_grade": 0, "high_grade": 8, "enrollment": 706, "teachers": 45, "lunch_pct": 67.8, "charter": true, "lat": 39.33608, "lng": -76.548761, "ratio": 15.7}, {"name": "Baltimore Montessori Public Charter School", "district": "Baltimore City Public Schools", "city": "Baltimore", "level": 1, "low_grade": -1, "high_grade": 8, "enrollment": 550, "teachers": 27, "lunch_pct": 50.9, "charter": true, "lat": 39.308247, "lng": -76.612552, "ratio": 20.4}, {"name": "Elmer A. Henderson: A Johns Hopkins Partnership", "district": "Baltimore City Public Schools", "city": "Baltimore", "level": 1, "low_grade": -1, "high_grade": 8, "enrollment": 642, "teachers": 38, "lunch_pct": 80.5, "charter": false, "lat": 39.301277, "lng": -76.587249, "ratio": 16.9}, {"name": "City Neighbors Hamilton", "district": "Baltimore City Public Schools", "city": "Baltimore", "level": 1, "low_grade": 0, "high_grade": 8, "enrollment": 235, "teachers": 13, "lunch_pct": 32.8, "charter": true, "lat": 39.350482, "lng": -76.554826, "ratio": 18.1}, {"name": "KIPP Harmony Academy", "district": "Baltimore City Public Schools", "city": "Baltimore", "level": 1, "low_grade": 0, "high_grade": 8, "enrollment": 1480, "teachers": 102, "lunch_pct": 80.7, "charter": true, "lat": 39.31002, "lng": -76.676563, "ratio": 14.5}, {"name": "Tunbridge Public Charter School", "district": "Baltimore City Public Schools", "city": "Baltimore", "level": 1, "low_grade": -1, "high_grade": 8, "enrollment": 479, "teachers": 29, "lunch_pct": 38.2, "charter": true, "lat": 39.357622, "lng": -76.6102, "ratio": 16.5}, {"name": "Creative City Public Charter School", "district": "Baltimore City Public Schools", "city": "Baltimore", "level": 1, "low_grade": 0, "high_grade": 5, "enrollment": 277, "teachers": 22, "lunch_pct": 72.9, "charter": true, "lat": 39.333956, "lng": -76.665153, "ratio": 12.6}, {"name": "Baltimore International Academy West", "district": "Baltimore City Public Schools", "city": "Baltimore", "level": 1, "low_grade": 0, "high_grade": 8, "enrollment": 198, "teachers": 12, "lunch_pct": 72.2, "charter": true, "lat": 39.298159, "lng": -76.692546, "ratio": 16.5}, {"name": "Clay Hill Public Charter School", "district": "Baltimore City Public Schools", "city": "Baltimore", "level": 1, "low_grade": 0, "high_grade": 4, "enrollment": 256, "teachers": 17, "lunch_pct": 56.6, "charter": true, "lat": 39.291148, "lng": -76.539349, "ratio": 15.1}, {"name": "Campfield Early Childhood Center", "district": "Baltimore County Public Schools", "city": "Baltimore", "level": 1, "low_grade": -1, "high_grade": 0, "enrollment": 352, "teachers": 21, "lunch_pct": 61.9, "charter": false, "lat": 39.351821, "lng": -76.722557, "ratio": 16.8}, {"name": "Seven Oaks Elementary", "district": "Baltimore County Public Schools", "city": "Baltimore", "level": 1, "low_grade": -1, "high_grade": 5, "enrollment": 470, "teachers": 28, "lunch_pct": 43.8, "charter": false, "lat": 39.4053, "lng": -76.4879, "ratio": 16.8}, {"name": "Arbutus Elementary", "district": "Baltimore County Public Schools", "city": "Baltimore", "level": 1, "low_grade": -1, "high_grade": 5, "enrollment": 387, "teachers": 24, "lunch_pct": 62.3, "charter": false, "lat": 39.2478, "lng": -76.6968, "ratio": 16.1}, {"name": "Baltimore Highlands Elementary", "district": "Baltimore County Public Schools", "city": "Baltimore", "level": 1, "low_grade": -1, "high_grade": 5, "enrollment": 523, "teachers": 34, "lunch_pct": 68.8, "charter": false, "lat": 39.237088, "lng": -76.642129, "ratio": 15.4}, {"name": "Battle Grove Elementary", "district": "Baltimore County Public Schools", "city": "Baltimore", "level": 1, "low_grade": -1, "high_grade": 5, "enrollment": 322, "teachers": 25, "lunch_pct": 74.5, "charter": false, "lat": 39.2687, "lng": -76.4752, "ratio": 12.9}, {"name": "Bear Creek Elementary", "district": "Baltimore County Public Schools", "city": "Baltimore", "level": 1, "low_grade": -1, "high_grade": 5, "enrollment": 468, "teachers": 33, "lunch_pct": 70.3, "charter": false, "lat": 39.2684, "lng": -76.4824, "ratio": 14.2}, {"name": "Bedford Elementary", "district": "Baltimore County Public Schools", "city": "Baltimore", "level": 1, "low_grade": 1, "high_grade": 5, "enrollment": 296, "teachers": 22, "lunch_pct": 64.5, "charter": false, "lat": 39.3604, "lng": -76.7305, "ratio": 13.5}, {"name": "Berkshire Elementary", "district": "Baltimore County Public Schools", "city": "Baltimore", "level": 1, "low_grade": -1, "high_grade": 5, "enrollment": 471, "teachers": 29, "lunch_pct": 66.5, "charter": false, "lat": 39.2874, "lng": -76.5118, "ratio": 16.2}, {"name": "Carney Elementary", "district": "Baltimore County Public Schools", "city": "Baltimore", "level": 1, "low_grade": -1, "high_grade": 5, "enrollment": 522, "teachers": 40, "lunch_pct": 65.5, "charter": false, "lat": 39.393264, "lng": -76.521014, "ratio": 13.1}, {"name": "Chadwick Elementary", "district": "Baltimore County Public Schools", "city": "Baltimore", "level": 1, "low_grade": -1, "high_grade": 5, "enrollment": 606, "teachers": 41, "lunch_pct": 65.8, "charter": false, "lat": 39.31454, "lng": -76.765264, "ratio": 14.8}, {"name": "Charlesmont Elementary", "district": "Baltimore County Public Schools", "city": "Baltimore", "level": 1, "low_grade": -1, "high_grade": 5, "enrollment": 385, "teachers": 25, "lunch_pct": 69.6, "charter": false, "lat": 39.2733, "lng": -76.4861, "ratio": 15.4}, {"name": "Chase Elementary", "district": "Baltimore County Public Schools", "city": "Baltimore", "level": 1, "low_grade": -1, "high_grade": 5, "enrollment": 358, "teachers": 21, "lunch_pct": 60.1, "charter": false, "lat": 39.3443, "lng": -76.3929, "ratio": 17.0}, {"name": "Chesapeake Terrace Elementary", "district": "Baltimore County Public Schools", "city": "Baltimore", "level": 1, "low_grade": -1, "high_grade": 5, "enrollment": 330, "teachers": 17, "lunch_pct": 39.4, "charter": false, "lat": 39.2213, "lng": -76.4491, "ratio": 19.4}, {"name": "Colgate Elementary", "district": "Baltimore County Public Schools", "city": "Baltimore", "level": 1, "low_grade": -1, "high_grade": 5, "enrollment": 502, "teachers": 33, "lunch_pct": 70.7, "charter": false, "lat": 39.294796, "lng": -76.518379, "ratio": 15.2}, {"name": "Deep Creek Elementary", "district": "Baltimore County Public Schools", "city": "Baltimore", "level": 1, "low_grade": 0, "high_grade": 5, "enrollment": 417, "teachers": 30, "lunch_pct": 80.3, "charter": false, "lat": 39.3082, "lng": -76.4549, "ratio": 13.9}, {"name": "Dundalk Elementary", "district": "Baltimore County Public Schools", "city": "Baltimore", "level": 1, "low_grade": -1, "high_grade": 5, "enrollment": 743, "teachers": 48, "lunch_pct": 73.9, "charter": false, "lat": 39.258993, "lng": -76.518367, "ratio": 15.5}, {"name": "Edgemere Elementary", "district": "Baltimore County Public Schools", "city": "Baltimore", "level": 1, "low_grade": -1, "high_grade": 5, "enrollment": 387, "teachers": 25, "lunch_pct": 44.4, "charter": false, "lat": 39.2399, "lng": -76.4458, "ratio": 15.5}, {"name": "Edmondson Heights Elementary", "district": "Baltimore County Public Schools", "city": "Baltimore", "level": 1, "low_grade": -1, "high_grade": 5, "enrollment": 559, "teachers": 32, "lunch_pct": 69.6, "charter": false, "lat": 39.2989, "lng": -76.7193, "ratio": 17.5}, {"name": "Elmwood Elementary", "district": "Baltimore County Public Schools", "city": "Baltimore", "level": 1, "low_grade": -1, "high_grade": 5, "enrollment": 465, "teachers": 37, "lunch_pct": 64.3, "charter": false, "lat": 39.3489, "lng": -76.5202, "ratio": 12.6}, {"name": "Essex Elementary", "district": "Baltimore County Public Schools", "city": "Baltimore", "level": 1, "low_grade": -1, "high_grade": 5, "enrollment": 459, "teachers": 28, "lunch_pct": 72.3, "charter": false, "lat": 39.3092, "lng": -76.4799, "ratio": 16.4}, {"name": "Featherbed Lane Elementary", "district": "Baltimore County Public Schools", "city": "Baltimore", "level": 1, "low_grade": -1, "high_grade": 5, "enrollment": 544, "teachers": 37, "lunch_pct": 72.1, "charter": false, "lat": 39.3224, "lng": -76.7383, "ratio": 14.7}, {"name": "Fort Garrison Elementary", "district": "Baltimore County Public Schools", "city": "Baltimore", "level": 1, "low_grade": -1, "high_grade": 5, "enrollment": 272, "teachers": 22, "lunch_pct": 22.4, "charter": false, "lat": 39.4006, "lng": -76.7034, "ratio": 12.4}, {"name": "Fullerton Elementary", "district": "Baltimore County Public Schools", "city": "Baltimore", "level": 1, "low_grade": -1, "high_grade": 5, "enrollment": 411, "teachers": 27, "lunch_pct": 57.7, "charter": false, "lat": 39.3609, "lng": -76.5184, "ratio": 15.2}, {"name": "Grange Elementary", "district": "Baltimore County Public Schools", "city": "Baltimore", "level": 1, "low_grade": -1, "high_grade": 5, "enrollment": 483, "teachers": 26, "lunch_pct": 68.5, "charter": false, "lat": 39.265, "lng": -76.5021, "ratio": 18.6}, {"name": "Gunpowder Elementary", "district": "Baltimore County Public Schools", "city": "Baltimore", "level": 1, "low_grade": 0, "high_grade": 5, "enrollment": 510, "teachers": 31, "lunch_pct": 42.4, "charter": false, "lat": 39.4153, "lng": -76.4709, "ratio": 16.5}, {"name": "Harford Hills Elementary", "district": "Baltimore County Public Schools", "city": "Baltimore", "level": 1, "low_grade": -1, "high_grade": 5, "enrollment": 396, "teachers": 24, "lunch_pct": 62.4, "charter": false, "lat": 39.3998, "lng": -76.5366, "ratio": 16.5}, {"name": "Hawthorne Elementary", "district": "Baltimore County Public Schools", "city": "Baltimore", "level": 1, "low_grade": -1, "high_grade": 5, "enrollment": 491, "teachers": 35, "lunch_pct": 86.8, "charter": false, "lat": 39.3261, "lng": -76.4372, "ratio": 14.0}, {"name": "Hebbville Elementary", "district": "Baltimore County Public Schools", "city": "Baltimore", "level": 1, "low_grade": -1, "high_grade": 5, "enrollment": 450, "teachers": 34, "lunch_pct": 60.7, "charter": false, "lat": 39.34542, "lng": -76.752603, "ratio": 13.2}, {"name": "Hillcrest Elementary", "district": "Baltimore County Public Schools", "city": "Baltimore", "level": 1, "low_grade": -1, "high_grade": 5, "enrollment": 652, "teachers": 42, "lunch_pct": 34.4, "charter": false, "lat": 39.2695, "lng": -76.7468, "ratio": 15.5}, {"name": "Halstead Academy", "district": "Baltimore County Public Schools", "city": "Baltimore", "level": 1, "low_grade": -1, "high_grade": 5, "enrollment": 515, "teachers": 35, "lunch_pct": 75.9, "charter": false, "lat": 39.3768, "lng": -76.572, "ratio": 14.7}, {"name": "Johnnycake Elementary", "district": "Baltimore County Public Schools", "city": "Baltimore", "level": 1, "low_grade": -1, "high_grade": 5, "enrollment": 552, "teachers": 38, "lunch_pct": 67.6, "charter": false, "lat": 39.2925, "lng": -76.7356, "ratio": 14.5}, {"name": "Lansdowne Elementary", "district": "Baltimore County Public Schools", "city": "Baltimore", "level": 1, "low_grade": -1, "high_grade": 5, "enrollment": 598, "teachers": 45, "lunch_pct": 65.9, "charter": false, "lat": 39.250335, "lng": -76.656562, "ratio": 13.3}, {"name": "Logan Elementary", "district": "Baltimore County Public Schools", "city": "Baltimore", "level": 1, "low_grade": -1, "high_grade": 5, "enrollment": 529, "teachers": 39, "lunch_pct": 75.4, "charter": false, "lat": 39.2576, "lng": -76.5104, "ratio": 13.6}, {"name": "Mars Estates Elementary", "district": "Baltimore County Public Schools", "city": "Baltimore", "level": 1, "low_grade": -1, "high_grade": 5, "enrollment": 316, "teachers": 28, "lunch_pct": 74.4, "charter": false, "lat": 39.3134, "lng": -76.4507, "ratio": 11.3}, {"name": "Martin Boulevard Elementary", "district": "Baltimore County Public Schools", "city": "Baltimore", "level": 1, "low_grade": -1, "high_grade": 5, "enrollment": 247, "teachers": 21, "lunch_pct": 70.9, "charter": false, "lat": 39.3349, "lng": -76.4421, "ratio": 11.8}, {"name": "McCormick Elementary", "district": "Baltimore County Public Schools", "city": "Baltimore", "level": 1, "low_grade": -1, "high_grade": 5, "enrollment": 340, "teachers": 21, "lunch_pct": 77.6, "charter": false, "lat": 39.3411, "lng": -76.521, "ratio": 16.2}, {"name": "Middleborough Elementary", "district": "Baltimore County Public Schools", "city": "Baltimore", "level": 1, "low_grade": -1, "high_grade": 5, "enrollment": 295, "teachers": 19, "lunch_pct": 50.8, "charter": false, "lat": 39.3055, "lng": -76.435, "ratio": 15.5}, {"name": "Middlesex Elementary", "district": "Baltimore County Public Schools", "city": "Baltimore", "level": 1, "low_grade": -1, "high_grade": 5, "enrollment": 373, "teachers": 28, "lunch_pct": 73.7, "charter": false, "lat": 39.3249, "lng": -76.4529, "ratio": 13.3}, {"name": "Milbrook Elementary", "district": "Baltimore County Public Schools", "city": "Baltimore", "level": 1, "low_grade": 1, "high_grade": 5, "enrollment": 348, "teachers": 21, "lunch_pct": 64.7, "charter": false, "lat": 39.3604, "lng": -76.7128, "ratio": 16.6}, {"name": "Norwood Elementary", "district": "Baltimore County Public Schools", "city": "Baltimore", "level": 1, "low_grade": -1, "high_grade": 3, "enrollment": 524, "teachers": 30, "lunch_pct": 64.9, "charter": false, "lat": 39.2765, "lng": -76.5184, "ratio": 17.5}, {"name": "Oakleigh Elementary", "district": "Baltimore County Public Schools", "city": "Baltimore", "level": 1, "low_grade": -1, "high_grade": 5, "enrollment": 502, "teachers": 36, "lunch_pct": 67.1, "charter": false, "lat": 39.3937, "lng": -76.5526, "ratio": 13.9}, {"name": "Orems Elementary", "district": "Baltimore County Public Schools", "city": "Baltimore", "level": 1, "low_grade": -1, "high_grade": 5, "enrollment": 366, "teachers": 24, "lunch_pct": 63.1, "charter": false, "lat": 39.3323, "lng": -76.4654, "ratio": 15.2}, {"name": "Perry Hall Elementary", "district": "Baltimore County Public Schools", "city": "Baltimore", "level": 1, "low_grade": -1, "high_grade": 5, "enrollment": 443, "teachers": 27, "lunch_pct": 48.1, "charter": false, "lat": 39.3994, "lng": -76.4783, "ratio": 16.4}, {"name": "Pine Grove Elementary", "district": "Baltimore County Public Schools", "city": "Baltimore", "level": 1, "low_grade": -1, "high_grade": 5, "enrollment": 503, "teachers": 34, "lunch_pct": 46.7, "charter": false, "lat": 39.4111, "lng": -76.5293, "ratio": 14.8}, {"name": "Powhatan Elementary", "district": "Baltimore County Public Schools", "city": "Baltimore", "level": 1, "low_grade": -1, "high_grade": 5, "enrollment": 241, "teachers": 21, "lunch_pct": 66.0, "charter": false, "lat": 39.3346, "lng": -76.7202, "ratio": 11.5}, {"name": "Relay Elementary", "district": "Baltimore County Public Schools", "city": "Baltimore", "level": 1, "low_grade": -1, "high_grade": 5, "enrollment": 609, "teachers": 37, "lunch_pct": 56.8, "charter": false, "lat": 39.232296, "lng": -76.700543, "ratio": 16.5}, {"name": "Cromwell Valley Elementary Regional Magnet", "district": "Baltimore County Public Schools", "city": "Baltimore", "level": 1, "low_grade": -1, "high_grade": 5, "enrollment": 396, "teachers": 24, "lunch_pct": 34.8, "charter": false, "lat": 39.403688, "lng": -76.581392, "ratio": 16.5}, {"name": "Riverview Elementary", "district": "Baltimore County Public Schools", "city": "Baltimore", "level": 1, "low_grade": -1, "high_grade": 5, "enrollment": 546, "teachers": 37, "lunch_pct": 74.2, "charter": false, "lat": 39.2367, "lng": -76.6557, "ratio": 14.8}, {"name": "Rodgers Forge Elementary", "district": "Baltimore County Public Schools", "city": "Baltimore", "level": 1, "low_grade": 0, "high_grade": 5, "enrollment": 396, "teachers": 26, "lunch_pct": 12.6, "charter": false, "lat": 39.3812, "lng": -76.615, "ratio": 15.2}, {"name": "Sandalwood Elementary", "district": "Baltimore County Public Schools", "city": "Baltimore", "level": 1, "low_grade": -1, "high_grade": 5, "enrollment": 450, "teachers": 33, "lunch_pct": 79.8, "charter": false, "lat": 39.2942, "lng": -76.4571, "ratio": 13.6}, {"name": "Sandy Plains Elementary", "district": "Baltimore County Public Schools", "city": "Baltimore", "level": 1, "low_grade": -1, "high_grade": 5, "enrollment": 538, "teachers": 40, "lunch_pct": 78.6, "charter": false, "lat": 39.2601, "lng": -76.4865, "ratio": 13.4}, {"name": "Scotts Branch Elementary", "district": "Baltimore County Public Schools", "city": "Baltimore", "level": 1, "low_grade": 0, "high_grade": 5, "enrollment": 469, "teachers": 26, "lunch_pct": 70.8, "charter": false, "lat": 39.3584, "lng": -76.7636, "ratio": 18.0}, {"name": "Seneca Elementary", "district": "Baltimore County Public Schools", "city": "Baltimore", "level": 1, "low_grade": -1, "high_grade": 5, "enrollment": 368, "teachers": 22, "lunch_pct": 62.0, "charter": false, "lat": 39.3295, "lng": -76.391, "ratio": 16.7}, {"name": "Shady Spring Elementary", "district": "Baltimore County Public Schools", "city": "Baltimore", "level": 1, "low_grade": -1, "high_grade": 5, "enrollment": 373, "teachers": 27, "lunch_pct": 70.8, "charter": false, "lat": 39.3433, "lng": -76.5018, "ratio": 13.8}, {"name": "Stoneleigh Elementary", "district": "Baltimore County Public Schools", "city": "Baltimore", "level": 1, "low_grade": 0, "high_grade": 5, "enrollment": 664, "teachers": 38, "lunch_pct": 19.6, "charter": false, "lat": 39.381896, "lng": -76.59859, "ratio": 17.5}, {"name": "Summit Park Elementary", "district": "Baltimore County Public Schools", "city": "Baltimore", "level": 1, "low_grade": 0, "high_grade": 5, "enrollment": 328, "teachers": 26, "lunch_pct": 34.1, "charter": false, "lat": 39.3814, "lng": -76.6794, "ratio": 12.6}, {"name": "Sussex Elementary", "district": "Baltimore County Public Schools", "city": "Baltimore", "level": 1, "low_grade": -1, "high_grade": 5, "enrollment": 430, "teachers": 29, "lunch_pct": 74.0, "charter": false, "lat": 39.303102, "lng": -76.470244, "ratio": 14.8}, {"name": "Victory Villa Elementary", "district": "Baltimore County Public Schools", "city": "Baltimore", "level": 1, "low_grade": -1, "high_grade": 5, "enrollment": 659, "teachers": 42, "lunch_pct": 75.3, "charter": false, "lat": 39.341784, "lng": -76.455929, "ratio": 15.7}, {"name": "Villa Cresta Elementary", "district": "Baltimore County Public Schools", "city": "Baltimore", "level": 1, "low_grade": -1, "high_grade": 5, "enrollment": 637, "teachers": 42, "lunch_pct": 57.6, "charter": false, "lat": 39.3807, "lng": -76.5479, "ratio": 15.2}, {"name": "Winand Elementary", "district": "Baltimore County Public Schools", "city": "Baltimore", "level": 1, "low_grade": -1, "high_grade": 5, "enrollment": 451, "teachers": 25, "lunch_pct": 60.8, "charter": false, "lat": 39.3728, "lng": -76.7627, "ratio": 18.0}, {"name": "Winfield Elementary", "district": "Baltimore County Public Schools", "city": "Baltimore", "level": 1, "low_grade": -1, "high_grade": 5, "enrollment": 420, "teachers": 32, "lunch_pct": 67.4, "charter": false, "lat": 39.354, "lng": -76.7793, "ratio": 13.1}, {"name": "Woodbridge Elementary", "district": "Baltimore County Public Schools", "city": "Baltimore", "level": 1, "low_grade": -1, "high_grade": 5, "enrollment": 451, "teachers": 28, "lunch_pct": 67.6, "charter": false, "lat": 39.2949, "lng": -76.7584, "ratio": 16.1}, {"name": "Woodmoor Elementary", "district": "Baltimore County Public Schools", "city": "Baltimore", "level": 1, "low_grade": -1, "high_grade": 5, "enrollment": 554, "teachers": 40, "lunch_pct": 69.5, "charter": false, "lat": 39.337345, "lng": -76.740757, "ratio": 13.8}, {"name": "Westchester Elementary", "district": "Baltimore County Public Schools", "city": "Baltimore", "level": 1, "low_grade": -1, "high_grade": 5, "enrollment": 659, "teachers": 45, "lunch_pct": 29.6, "charter": false, "lat": 39.2726, "lng": -76.7702, "ratio": 14.6}, {"name": "Glenmar Elementary", "district": "Baltimore County Public Schools", "city": "Baltimore", "level": 1, "low_grade": -1, "high_grade": 5, "enrollment": 278, "teachers": 23, "lunch_pct": 57.2, "charter": false, "lat": 39.3461, "lng": -76.4481, "ratio": 12.1}, {"name": "Woodholme Elementary", "district": "Baltimore County Public Schools", "city": "Baltimore", "level": 1, "low_grade": 0, "high_grade": 5, "enrollment": 696, "teachers": 42, "lunch_pct": 57.8, "charter": false, "lat": 39.3893, "lng": -76.7491, "ratio": 16.6}, {"name": "Oliver Beach Elementary", "district": "Baltimore County Public Schools", "city": "Baltimore", "level": 1, "low_grade": -1, "high_grade": 5, "enrollment": 148, "teachers": 12, "lunch_pct": 53.4, "charter": false, "lat": 39.3699, "lng": -76.3541, "ratio": 12.3}, {"name": "West Towson Elementary", "district": "Baltimore County Public Schools", "city": "Baltimore", "level": 1, "low_grade": 0, "high_grade": 5, "enrollment": 382, "teachers": 25, "lunch_pct": 11.0, "charter": false, "lat": 39.404256, "lng": -76.634256, "ratio": 15.3}, {"name": "Dogwood Elementary", "district": "Baltimore County Public Schools", "city": "Baltimore", "level": 1, "low_grade": -1, "high_grade": 5, "enrollment": 490, "teachers": 35, "lunch_pct": 73.5, "charter": false, "lat": 39.3201, "lng": -76.7632, "ratio": 14.0}, {"name": "Joppa View Elementary", "district": "Baltimore County Public Schools", "city": "Baltimore", "level": 1, "low_grade": -1, "high_grade": 5, "enrollment": 528, "teachers": 29, "lunch_pct": 55.1, "charter": false, "lat": 39.3869, "lng": -76.4556, "ratio": 18.2}, {"name": "Rossville Elementary", "district": "Baltimore County Public Schools", "city": "Baltimore", "level": 1, "low_grade": -1, "high_grade": 5, "enrollment": 613, "teachers": 40, "lunch_pct": 51.2, "charter": false, "lat": 39.35863, "lng": -76.490257, "ratio": 15.3}], "middle": [{"name": "Brooklyn Park Middle", "district": "Anne Arundel County Public Schools", "city": "Baltimore", "level": 2, "low_grade": 6, "high_grade": 8, "enrollment": 775, "teachers": 59, "lunch_pct": 69.9, "charter": false, "lat": 39.2164, "lng": -76.6198, "ratio": 13.1}, {"name": "Booker T. Washington Middle", "district": "Baltimore City Public Schools", "city": "Baltimore", "level": 2, "low_grade": 6, "high_grade": 8, "enrollment": 157, "teachers": 16, "lunch_pct": 90.4, "charter": false, "lat": 39.3032, "lng": -76.6279, "ratio": 9.8}, {"name": "Katherine Johnson Global Academy", "district": "Baltimore City Public Schools", "city": "Baltimore", "level": 2, "low_grade": 3, "high_grade": 8, "enrollment": 541, "teachers": 30, "lunch_pct": 93.0, "charter": false, "lat": 39.300693, "lng": -76.65944, "ratio": 18.0}, {"name": "The Historic Cherry Hill Elementary/Middle", "district": "Baltimore City Public Schools", "city": "Baltimore", "level": 2, "low_grade": 3, "high_grade": 8, "enrollment": 590, "teachers": 36, "lunch_pct": 90.2, "charter": false, "lat": 39.247832, "lng": -76.624057, "ratio": 16.4}, {"name": "Stadium School", "district": "Baltimore City Public Schools", "city": "Baltimore", "level": 2, "low_grade": 6, "high_grade": 8, "enrollment": 339, "teachers": 18, "lunch_pct": 84.4, "charter": false, "lat": 39.321845, "lng": -76.602429, "ratio": 18.8}, {"name": "The Crossroads School", "district": "Baltimore City Public Schools", "city": "Baltimore", "level": 2, "low_grade": 6, "high_grade": 8, "enrollment": 162, "teachers": 13, "lunch_pct": 66.7, "charter": true, "lat": 39.281886, "lng": -76.596819, "ratio": 12.5}, {"name": "Vanguard Collegiate Middle", "district": "Baltimore City Public Schools", "city": "Baltimore", "level": 2, "low_grade": 6, "high_grade": 8, "enrollment": 343, "teachers": 23, "lunch_pct": 84.5, "charter": false, "lat": 39.320485, "lng": -76.546061, "ratio": 14.9}, {"name": "Lillie May Carroll Jackson School", "district": "Baltimore City Public Schools", "city": "Baltimore", "level": 2, "low_grade": 5, "high_grade": 8, "enrollment": 221, "teachers": 15, "lunch_pct": 73.8, "charter": true, "lat": 39.314749, "lng": -76.587136, "ratio": 14.7}, {"name": "Baltimore Collegiate School for Boys", "district": "Baltimore City Public Schools", "city": "Baltimore", "level": 2, "low_grade": 4, "high_grade": 8, "enrollment": 325, "teachers": 9, "lunch_pct": 77.2, "charter": true, "lat": 39.319077, "lng": -76.600405, "ratio": 36.1}, {"name": "Arbutus Middle", "district": "Baltimore County Public Schools", "city": "Baltimore", "level": 2, "low_grade": 6, "high_grade": 8, "enrollment": 970, "teachers": 58, "lunch_pct": 56.0, "charter": false, "lat": 39.2485, "lng": -76.7055, "ratio": 16.7}, {"name": "Deep Creek Middle", "district": "Baltimore County Public Schools", "city": "Baltimore", "level": 2, "low_grade": 6, "high_grade": 8, "enrollment": 752, "teachers": 52, "lunch_pct": 73.9, "charter": false, "lat": 39.2932, "lng": -76.4543, "ratio": 14.5}, {"name": "Dumbarton Middle", "district": "Baltimore County Public Schools", "city": "Baltimore", "level": 2, "low_grade": 6, "high_grade": 8, "enrollment": 1073, "teachers": 75, "lunch_pct": 31.5, "charter": false, "lat": 39.3806, "lng": -76.6119, "ratio": 14.3}, {"name": "Dundalk Middle", "district": "Baltimore County Public Schools", "city": "Baltimore", "level": 2, "low_grade": 6, "high_grade": 8, "enrollment": 860, "teachers": 62, "lunch_pct": 63.8, "charter": false, "lat": 39.2592, "lng": -76.5138, "ratio": 13.9}, {"name": "Holabird Middle", "district": "Baltimore County Public Schools", "city": "Baltimore", "level": 2, "low_grade": 4, "high_grade": 8, "enrollment": 912, "teachers": 59, "lunch_pct": 65.4, "charter": false, "lat": 39.276707, "lng": -76.516791, "ratio": 15.5}, {"name": "Southwest Academy", "district": "Baltimore County Public Schools", "city": "Baltimore", "level": 2, "low_grade": 6, "high_grade": 8, "enrollment": 739, "teachers": 52, "lunch_pct": 64.4, "charter": false, "lat": 39.2997, "lng": -76.7364, "ratio": 14.2}, {"name": "Lansdowne Middle", "district": "Baltimore County Public Schools", "city": "Baltimore", "level": 2, "low_grade": 6, "high_grade": 8, "enrollment": 869, "teachers": 63, "lunch_pct": 62.0, "charter": false, "lat": 39.2498, "lng": -76.6522, "ratio": 13.8}, {"name": "Loch Raven Technical Academy", "district": "Baltimore County Public Schools", "city": "Baltimore", "level": 2, "low_grade": 6, "high_grade": 8, "enrollment": 781, "teachers": 50, "lunch_pct": 60.1, "charter": false, "lat": 39.3899, "lng": -76.5787, "ratio": 15.6}, {"name": "Sudbrook Magnet Middle", "district": "Baltimore County Public Schools", "city": "Baltimore", "level": 2, "low_grade": 6, "high_grade": 8, "enrollment": 929, "teachers": 73, "lunch_pct": 50.1, "charter": false, "lat": 39.358998, "lng": -76.726054, "ratio": 12.7}, {"name": "Parkville Middle", "district": "Baltimore County Public Schools", "city": "Baltimore", "level": 2, "low_grade": 6, "high_grade": 8, "enrollment": 999, "teachers": 66, "lunch_pct": 55.2, "charter": false, "lat": 39.377629, "lng": -76.526952, "ratio": 15.1}, {"name": "Perry Hall Middle", "district": "Baltimore County Public Schools", "city": "Baltimore", "level": 2, "low_grade": 6, "high_grade": 8, "enrollment": 1754, "teachers": 106, "lunch_pct": 40.4, "charter": false, "lat": 39.398041, "lng": -76.474555, "ratio": 16.5}, {"name": "Pikesville Middle", "district": "Baltimore County Public Schools", "city": "Baltimore", "level": 2, "low_grade": 6, "high_grade": 8, "enrollment": 967, "teachers": 60, "lunch_pct": 56.5, "charter": false, "lat": 39.3777, "lng": -76.7068, "ratio": 16.1}, {"name": "Pine Grove Middle", "district": "Baltimore County Public Schools", "city": "Baltimore", "level": 2, "low_grade": 6, "high_grade": 8, "enrollment": 916, "teachers": 60, "lunch_pct": 56.4, "charter": false, "lat": 39.4055, "lng": -76.528, "ratio": 15.3}, {"name": "Stemmers Run Middle", "district": "Baltimore County Public Schools", "city": "Baltimore", "level": 2, "low_grade": 6, "high_grade": 8, "enrollment": 838, "teachers": 57, "lunch_pct": 68.3, "charter": false, "lat": 39.321836, "lng": -76.457195, "ratio": 14.7}, {"name": "Woodlawn Middle", "district": "Baltimore County Public Schools", "city": "Baltimore", "level": 2, "low_grade": 6, "high_grade": 8, "enrollment": 633, "teachers": 42, "lunch_pct": 67.1, "charter": false, "lat": 39.3342, "lng": -76.7358, "ratio": 15.1}, {"name": "Meadowood Education Center", "district": "Baltimore County Public Schools", "city": "Baltimore", "level": 2, "low_grade": 7, "high_grade": 8, "enrollment": 19, "teachers": 10, "lunch_pct": 73.7, "charter": false, "lat": 39.3162, "lng": -76.7283, "ratio": 1.9}, {"name": "Northwest Academy of Health Sciences", "district": "Baltimore County Public Schools", "city": "Baltimore", "level": 2, "low_grade": 6, "high_grade": 8, "enrollment": 759, "teachers": 52, "lunch_pct": 61.9, "charter": false, "lat": 39.3653, "lng": -76.7569, "ratio": 14.6}, {"name": "General John Stricker Middle", "district": "Baltimore County Public Schools", "city": "Baltimore", "level": 2, "low_grade": 6, "high_grade": 8, "enrollment": 745, "teachers": 58, "lunch_pct": 69.5, "charter": false, "lat": 39.2739, "lng": -76.4914, "ratio": 12.8}, {"name": "Golden Ring Middle", "district": "Baltimore County Public Schools", "city": "Baltimore", "level": 2, "low_grade": 6, "high_grade": 8, "enrollment": 903, "teachers": 53, "lunch_pct": 63.1, "charter": false, "lat": 39.3333, "lng": -76.4984, "ratio": 17.0}, {"name": "Middle River Middle", "district": "Baltimore County Public Schools", "city": "Baltimore", "level": 2, "low_grade": 6, "high_grade": 8, "enrollment": 978, "teachers": 64, "lunch_pct": 61.6, "charter": false, "lat": 39.3444, "lng": -76.4513, "ratio": 15.3}, {"name": "Windsor Mill Middle", "district": "Baltimore County Public Schools", "city": "Baltimore", "level": 2, "low_grade": 6, "high_grade": 8, "enrollment": 626, "teachers": 41, "lunch_pct": 55.0, "charter": false, "lat": 39.352844, "lng": -76.786468, "ratio": 15.3}, {"name": "Crossroads Center", "district": "Baltimore County Public Schools", "city": "Baltimore", "level": 2, "low_grade": 6, "high_grade": 8, "enrollment": 30, "teachers": 19, "lunch_pct": 80.0, "charter": false, "lat": 39.354445, "lng": -76.405204, "ratio": 1.6}, {"name": "Sparrows Point Middle", "district": "Baltimore County Public Schools", "city": "Baltimore", "level": 2, "low_grade": 6, "high_grade": 8, "enrollment": 561, "teachers": 37, "lunch_pct": 54.2, "charter": false, "lat": 39.237755, "lng": -76.442262, "ratio": 15.2}], "high": [{"name": "The Seed School of Maryland", "district": "SEED School of Maryland", "city": "Baltimore", "level": 3, "low_grade": 6, "high_grade": 12, "enrollment": 403, "teachers": 40, "lunch_pct": 100.0, "charter": false, "lat": 39.28404, "lng": -76.664092, "ratio": 10.1}, {"name": "Baltimore City College", "district": "Baltimore City Public Schools", "city": "Baltimore", "level": 3, "low_grade": 9, "high_grade": 12, "enrollment": 1497, "teachers": 83, "lunch_pct": 46.2, "charter": false, "lat": 39.3258, "lng": -76.5971, "ratio": 18.0}, {"name": "Baltimore Polytechnic Institute", "district": "Baltimore City Public Schools", "city": "Baltimore", "level": 3, "low_grade": 9, "high_grade": 12, "enrollment": 1555, "teachers": 77, "lunch_pct": 43.2, "charter": false, "lat": 39.346, "lng": -76.6431, "ratio": 20.2}, {"name": "Benjamin Franklin High School at Masonville Cove", "district": "Baltimore City Public Schools", "city": "Baltimore", "level": 3, "low_grade": 9, "high_grade": 12, "enrollment": 755, "teachers": 45, "lunch_pct": 61.1, "charter": false, "lat": 39.2327, "lng": -76.5936, "ratio": 16.8}, {"name": "Carver Vocational-Technical High", "district": "Baltimore City Public Schools", "city": "Baltimore", "level": 3, "low_grade": 9, "high_grade": 12, "enrollment": 1020, "teachers": 55, "lunch_pct": 80.9, "charter": false, "lat": 39.3045, "lng": -76.6527, "ratio": 18.5}, {"name": "Claremont School", "district": "Baltimore City Public Schools", "city": "Baltimore", "level": 3, "low_grade": 8, "high_grade": 12, "enrollment": 51, "teachers": 14, "lunch_pct": 58.8, "charter": false, "lat": 39.3028, "lng": -76.5545, "ratio": 3.6}, {"name": "Edmondson-Westside High", "district": "Baltimore City Public Schools", "city": "Baltimore", "level": 3, "low_grade": 9, "high_grade": 12, "enrollment": 859, "teachers": 56, "lunch_pct": 80.3, "charter": false, "lat": 39.2914, "lng": -76.688, "ratio": 15.3}, {"name": "Forest Park High", "district": "Baltimore City Public Schools", "city": "Baltimore", "level": 3, "low_grade": 9, "high_grade": 12, "enrollment": 826, "teachers": 48, "lunch_pct": 71.8, "charter": false, "lat": 39.3326, "lng": -76.6894, "ratio": 17.2}, {"name": "Frederick Douglass High", "district": "Baltimore City Public Schools", "city": "Baltimore", "level": 3, "low_grade": 9, "high_grade": 12, "enrollment": 663, "teachers": 42, "lunch_pct": 81.3, "charter": false, "lat": 39.3148, "lng": -76.6549, "ratio": 15.8}, {"name": "Achievement Academy at Harbor City High", "district": "Baltimore City Public Schools", "city": "Baltimore", "level": 3, "low_grade": 9, "high_grade": 12, "enrollment": 228, "teachers": 21, "lunch_pct": 81.6, "charter": false, "lat": 39.366066, "lng": -76.571382, "ratio": 10.9}, {"name": "Mergenthaler Vocational-Technical High", "district": "Baltimore City Public Schools", "city": "Baltimore", "level": 3, "low_grade": 9, "high_grade": 12, "enrollment": 1677, "teachers": 104, "lunch_pct": 74.4, "charter": false, "lat": 39.3322, "lng": -76.5911, "ratio": 16.1}, {"name": "Patterson High", "district": "Baltimore City Public Schools", "city": "Baltimore", "level": 3, "low_grade": 9, "high_grade": 12, "enrollment": 1335, "teachers": 79, "lunch_pct": 64.9, "charter": false, "lat": 39.2928, "lng": -76.5372, "ratio": 16.9}, {"name": "Paul Laurence Dunbar High", "district": "Baltimore City Public Schools", "city": "Baltimore", "level": 3, "low_grade": 9, "high_grade": 12, "enrollment": 1067, "teachers": 43, "lunch_pct": 73.2, "charter": false, "lat": 39.29554, "lng": -76.59848, "ratio": 24.8}, {"name": "Western High", "district": "Baltimore City Public Schools", "city": "Baltimore", "level": 3, "low_grade": 9, "high_grade": 12, "enrollment": 1262, "teachers": 71, "lunch_pct": 68.3, "charter": false, "lat": 39.3472, "lng": -76.6426, "ratio": 17.8}, {"name": "Eager Street Academy", "district": "Baltimore City Public Schools", "city": "Baltimore", "level": 3, "low_grade": 9, "high_grade": 12, "enrollment": 51, "teachers": 8, "lunch_pct": 60.8, "charter": false, "lat": 39.300657, "lng": -76.607084, "ratio": 6.4}, {"name": "ConneXions: A Community Based Arts School", "district": "Baltimore City Public Schools", "city": "Baltimore", "level": 3, "low_grade": 6, "high_grade": 12, "enrollment": 548, "teachers": 36, "lunch_pct": 85.9, "charter": true, "lat": 39.317956, "lng": -76.664359, "ratio": 15.2}, {"name": "Digital Harbor High School", "district": "Baltimore City Public Schools", "city": "Baltimore", "level": 3, "low_grade": 9, "high_grade": 12, "enrollment": 1591, "teachers": 77, "lunch_pct": 69.5, "charter": false, "lat": 39.2766, "lng": -76.6075, "ratio": 20.7}, {"name": "Reginald F. Lewis High", "district": "Baltimore City Public Schools", "city": "Baltimore", "level": 3, "low_grade": 9, "high_grade": 12, "enrollment": 577, "teachers": 37, "lunch_pct": 72.8, "charter": false, "lat": 39.3656, "lng": -76.5719, "ratio": 15.6}, {"name": "National Academy Foundation", "district": "Baltimore City Public Schools", "city": "Baltimore", "level": 3, "low_grade": 6, "high_grade": 12, "enrollment": 828, "teachers": 44, "lunch_pct": 59.9, "charter": false, "lat": 39.296846, "lng": -76.597726, "ratio": 18.8}, {"name": "Excel Academy at Francis M. Wood High", "district": "Baltimore City Public Schools", "city": "Baltimore", "level": 3, "low_grade": 9, "high_grade": 12, "enrollment": 307, "teachers": 19, "lunch_pct": 90.9, "charter": false, "lat": 39.292, "lng": -76.6344, "ratio": 16.2}, {"name": "Academy for College and Career Exploration", "district": "Baltimore City Public Schools", "city": "Baltimore", "level": 3, "low_grade": 6, "high_grade": 12, "enrollment": 902, "teachers": 59, "lunch_pct": 74.7, "charter": false, "lat": 39.3308, "lng": -76.6378, "ratio": 15.3}, {"name": "Vivien T. Thomas Medical Arts Academy", "district": "Baltimore City Public Schools", "city": "Baltimore", "level": 3, "low_grade": 9, "high_grade": 12, "enrollment": 388, "teachers": 24, "lunch_pct": 85.6, "charter": false, "lat": 39.2903, "lng": -76.64, "ratio": 16.2}, {"name": "Augusta Fells Savage Institute of Visual Arts", "district": "Baltimore City Public Schools", "city": "Baltimore", "level": 3, "low_grade": 9, "high_grade": 12, "enrollment": 296, "teachers": 20, "lunch_pct": 83.4, "charter": false, "lat": 39.297083, "lng": -76.641328, "ratio": 14.8}, {"name": "Baltimore School for the Arts", "district": "Baltimore City Public Schools", "city": "Baltimore", "level": 3, "low_grade": 9, "high_grade": 12, "enrollment": 426, "teachers": 25, "lunch_pct": 25.4, "charter": false, "lat": 39.2983, "lng": -76.6173, "ratio": 17.0}, {"name": "Coppin Academy", "district": "Baltimore City Public Schools", "city": "Baltimore", "level": 3, "low_grade": 9, "high_grade": 12, "enrollment": 337, "teachers": 20, "lunch_pct": 76.0, "charter": true, "lat": 39.313072, "lng": -76.657443, "ratio": 16.9}, {"name": "Renaissance Academy", "district": "Baltimore City Public Schools", "city": "Baltimore", "level": 3, "low_grade": 9, "high_grade": 12, "enrollment": 245, "teachers": 18, "lunch_pct": 88.6, "charter": false, "lat": 39.3032, "lng": -76.6279, "ratio": 13.6}, {"name": "New Era Academy", "district": "Baltimore City Public Schools", "city": "Baltimore", "level": 3, "low_grade": 9, "high_grade": 12, "enrollment": 287, "teachers": 13, "lunch_pct": 63.4, "charter": false, "lat": 39.253, "lng": -76.6213, "ratio": 22.1}, {"name": "Joseph C. Briscoe Academy", "district": "Baltimore City Public Schools", "city": "Baltimore", "level": 3, "low_grade": 7, "high_grade": 12, "enrollment": 37, "teachers": 16, "lunch_pct": 83.8, "charter": false, "lat": 39.298574, "lng": -76.624897, "ratio": 2.3}, {"name": "The Reach! Partnership School", "district": "Baltimore City Public Schools", "city": "Baltimore", "level": 3, "low_grade": 9, "high_grade": 12, "enrollment": 708, "teachers": 41, "lunch_pct": 81.1, "charter": false, "lat": 39.31761, "lng": -76.592893, "ratio": 17.3}, {"name": "Bluford Drew Jemison STEM Academy West", "district": "Baltimore City Public Schools", "city": "Baltimore", "level": 3, "low_grade": 6, "high_grade": 12, "enrollment": 180, "teachers": 19, "lunch_pct": 85.6, "charter": false, "lat": 39.297248, "lng": -76.641432, "ratio": 9.5}, {"name": "Baltimore Leadership School for Young Women", "district": "Baltimore City Public Schools", "city": "Baltimore", "level": 3, "low_grade": 6, "high_grade": 12, "enrollment": 494, "teachers": 36, "lunch_pct": 77.5, "charter": true, "lat": 39.295256, "lng": -76.618091, "ratio": 13.7}, {"name": "City Neighbors High", "district": "Baltimore City Public Schools", "city": "Baltimore", "level": 3, "low_grade": 9, "high_grade": 12, "enrollment": 425, "teachers": 28, "lunch_pct": 64.0, "charter": true, "lat": 39.350482, "lng": -76.554826, "ratio": 15.2}, {"name": "Green Street Academy", "district": "Baltimore City Public Schools", "city": "Baltimore", "level": 3, "low_grade": 6, "high_grade": 12, "enrollment": 854, "teachers": 50, "lunch_pct": 81.1, "charter": true, "lat": 39.287488, "lng": -76.671585, "ratio": 17.1}, {"name": "Baltimore Design School", "district": "Baltimore City Public Schools", "city": "Baltimore", "level": 3, "low_grade": 6, "high_grade": 12, "enrollment": 496, "teachers": 33, "lunch_pct": 75.4, "charter": false, "lat": 39.30722, "lng": -76.610928, "ratio": 15.0}, {"name": "Bard High School Early College", "district": "Baltimore City Public Schools", "city": "Baltimore", "level": 3, "low_grade": 9, "high_grade": 12, "enrollment": 431, "teachers": 25, "lunch_pct": 60.1, "charter": false, "lat": 39.317956, "lng": -76.664359, "ratio": 17.2}, {"name": "Western School of Technology", "district": "Baltimore County Public Schools", "city": "Baltimore", "level": 3, "low_grade": 9, "high_grade": 12, "enrollment": 942, "teachers": 63, "lunch_pct": 40.0, "charter": false, "lat": 39.2697, "lng": -76.7131, "ratio": 15.0}, {"name": "Catonsville High", "district": "Baltimore County Public Schools", "city": "Baltimore", "level": 3, "low_grade": 9, "high_grade": 12, "enrollment": 1729, "teachers": 107, "lunch_pct": 42.5, "charter": false, "lat": 39.259388, "lng": -76.731605, "ratio": 16.2}, {"name": "Chesapeake High", "district": "Baltimore County Public Schools", "city": "Baltimore", "level": 3, "low_grade": 9, "high_grade": 12, "enrollment": 1047, "teachers": 69, "lunch_pct": 64.1, "charter": false, "lat": 39.2927, "lng": -76.4194, "ratio": 15.2}, {"name": "Dundalk High", "district": "Baltimore County Public Schools", "city": "Baltimore", "level": 3, "low_grade": 9, "high_grade": 12, "enrollment": 2193, "teachers": 135, "lunch_pct": 61.8, "charter": false, "lat": 39.266351, "lng": -76.516297, "ratio": 16.2}, {"name": "Eastern Technical High School", "district": "Baltimore County Public Schools", "city": "Baltimore", "level": 3, "low_grade": 9, "high_grade": 12, "enrollment": 1262, "teachers": 68, "lunch_pct": 24.7, "charter": false, "lat": 39.325, "lng": -76.4733, "ratio": 18.6}, {"name": "Kenwood High", "district": "Baltimore County Public Schools", "city": "Baltimore", "level": 3, "low_grade": 9, "high_grade": 12, "enrollment": 1908, "teachers": 115, "lunch_pct": 62.8, "charter": false, "lat": 39.3256, "lng": -76.4624, "ratio": 16.6}, {"name": "Lansdowne High", "district": "Baltimore County Public Schools", "city": "Baltimore", "level": 3, "low_grade": 9, "high_grade": 12, "enrollment": 1410, "teachers": 94, "lunch_pct": 60.1, "charter": false, "lat": 39.2451, "lng": -76.6511, "ratio": 15.0}, {"name": "Loch Raven High", "district": "Baltimore County Public Schools", "city": "Baltimore", "level": 3, "low_grade": 9, "high_grade": 12, "enrollment": 891, "teachers": 60, "lunch_pct": 56.3, "charter": false, "lat": 39.405016, "lng": -76.563781, "ratio": 14.8}, {"name": "Milford Mill Academy", "district": "Baltimore County Public Schools", "city": "Baltimore", "level": 3, "low_grade": 9, "high_grade": 12, "enrollment": 1324, "teachers": 89, "lunch_pct": 57.3, "charter": false, "lat": 39.356486, "lng": -76.750057, "ratio": 14.9}, {"name": "Catonsville Center for Alternative Studies", "district": "Baltimore County Public Schools", "city": "Baltimore", "level": 3, "low_grade": 9, "high_grade": 12, "enrollment": 60, "teachers": 13, "lunch_pct": 78.3, "charter": false, "lat": 39.2526, "lng": -76.7254, "ratio": 4.6}, {"name": "Overlea High", "district": "Baltimore County Public Schools", "city": "Baltimore", "level": 3, "low_grade": 9, "high_grade": 12, "enrollment": 1365, "teachers": 86, "lunch_pct": 63.2, "charter": false, "lat": 39.3495, "lng": -76.5113, "ratio": 15.9}, {"name": "Parkville High", "district": "Baltimore County Public Schools", "city": "Baltimore", "level": 3, "low_grade": 9, "high_grade": 12, "enrollment": 2200, "teachers": 152, "lunch_pct": 62.1, "charter": false, "lat": 39.388508, "lng": -76.539556, "ratio": 14.5}, {"name": "Patapsco High and Center for Arts", "district": "Baltimore County Public Schools", "city": "Baltimore", "level": 3, "low_grade": 9, "high_grade": 12, "enrollment": 1312, "teachers": 89, "lunch_pct": 61.7, "charter": false, "lat": 39.2654, "lng": -76.4891, "ratio": 14.7}, {"name": "Perry Hall High", "district": "Baltimore County Public Schools", "city": "Baltimore", "level": 3, "low_grade": 9, "high_grade": 12, "enrollment": 2029, "teachers": 121, "lunch_pct": 45.4, "charter": false, "lat": 39.3926, "lng": -76.4646, "ratio": 16.8}, {"name": "Pikesville High", "district": "Baltimore County Public Schools", "city": "Baltimore", "level": 3, "low_grade": 9, "high_grade": 12, "enrollment": 895, "teachers": 57, "lunch_pct": 46.1, "charter": false, "lat": 39.3774, "lng": -76.6987, "ratio": 15.7}, {"name": "Woodlawn High", "district": "Baltimore County Public Schools", "city": "Baltimore", "level": 3, "low_grade": 9, "high_grade": 12, "enrollment": 1815, "teachers": 113, "lunch_pct": 63.1, "charter": false, "lat": 39.315443, "lng": -76.734428, "ratio": 16.1}, {"name": "Rosedale Center", "district": "Baltimore County Public Schools", "city": "Baltimore", "level": 3, "low_grade": 9, "high_grade": 12, "enrollment": 52, "teachers": 30, "lunch_pct": 78.8, "charter": false, "lat": 39.3332, "lng": -76.4918, "ratio": 1.7}]}, "cumberland": {"elem": [{"name": "Bel Air Elementary", "district": "Allegany County Public Schools", "city": "Cumberland", "level": 1, "low_grade": -1, "high_grade": 5, "enrollment": 199, "teachers": 17, "lunch_pct": 48.2, "charter": false, "lat": 39.5788, "lng": -78.8537, "ratio": 11.7}, {"name": "John Humbird Elementary", "district": "Allegany County Public Schools", "city": "Cumberland", "level": 1, "low_grade": -1, "high_grade": 5, "enrollment": 234, "teachers": 22, "lunch_pct": 87.2, "charter": false, "lat": 39.6256, "lng": -78.7656, "ratio": 10.6}, {"name": "Northeast Elementary", "district": "Allegany County Public Schools", "city": "Cumberland", "level": 1, "low_grade": -1, "high_grade": 5, "enrollment": 272, "teachers": 19, "lunch_pct": 58.1, "charter": false, "lat": 39.678793, "lng": -78.758712, "ratio": 14.3}, {"name": "West Side Elementary", "district": "Allegany County Public Schools", "city": "Cumberland", "level": 1, "low_grade": -1, "high_grade": 5, "enrollment": 305, "teachers": 25, "lunch_pct": 68.9, "charter": false, "lat": 39.6498, "lng": -78.7728, "ratio": 12.2}, {"name": "South Penn Elementary", "district": "Allegany County Public Schools", "city": "Cumberland", "level": 1, "low_grade": -1, "high_grade": 5, "enrollment": 523, "teachers": 46, "lunch_pct": 77.2, "charter": false, "lat": 39.6359, "lng": -78.7566, "ratio": 11.4}], "middle": [{"name": "Braddock Middle", "district": "Allegany County Public Schools", "city": "Cumberland", "level": 2, "low_grade": 6, "high_grade": 8, "enrollment": 603, "teachers": 42, "lunch_pct": 60.2, "charter": false, "lat": 39.665978, "lng": -78.770949, "ratio": 14.4}, {"name": "Washington Middle", "district": "Allegany County Public Schools", "city": "Cumberland", "level": 2, "low_grade": 6, "high_grade": 8, "enrollment": 583, "teachers": 46, "lunch_pct": 62.3, "charter": false, "lat": 39.63853, "lng": -78.745823, "ratio": 12.7}], "high": [{"name": "Allegany High", "district": "Allegany County Public Schools", "city": "Cumberland", "level": 3, "low_grade": 9, "high_grade": 12, "enrollment": 684, "teachers": 46, "lunch_pct": 53.5, "charter": false, "lat": 39.655804, "lng": -78.795466, "ratio": 14.9}, {"name": "Fort Hill High", "district": "Allegany County Public Schools", "city": "Cumberland", "level": 3, "low_grade": 9, "high_grade": 12, "enrollment": 692, "teachers": 41, "lunch_pct": 58.2, "charter": false, "lat": 39.644364, "lng": -78.748107, "ratio": 16.9}]}, "frostburg": {"elem": [{"name": "Beall Elementary", "district": "Allegany County Public Schools", "city": "Frostburg", "level": 1, "low_grade": -1, "high_grade": 5, "enrollment": 451, "teachers": 33, "lunch_pct": 62.7, "charter": false, "lat": 39.6543, "lng": -78.9318, "ratio": 13.7}, {"name": "Frost Elementary", "district": "Allegany County Public Schools", "city": "Frostburg", "level": 1, "low_grade": -1, "high_grade": 5, "enrollment": 236, "teachers": 14, "lunch_pct": 43.2, "charter": false, "lat": 39.671564, "lng": -78.930085, "ratio": 16.9}, {"name": "Route 40 Elementary", "district": "Garrett County Public Schools", "city": "Frostburg", "level": 1, "low_grade": -1, "high_grade": 5, "enrollment": 122, "teachers": 9, "lunch_pct": 40.2, "charter": false, "lat": 39.68682, "lng": -79.010434, "ratio": 13.6}], "middle": [], "high": [{"name": "Mountain Ridge High School", "district": "Allegany County Public Schools", "city": "Frostburg", "level": 3, "low_grade": 9, "high_grade": 12, "enrollment": 736, "teachers": 43, "lunch_pct": 48.0, "charter": false, "lat": 39.650263, "lng": -78.913692, "ratio": 17.1}]}, "lonaconing": {"elem": [{"name": "George's Creek Elementary", "district": "Allegany County Public Schools", "city": "Lonaconing", "level": 1, "low_grade": -1, "high_grade": 5, "enrollment": 268, "teachers": 20, "lunch_pct": 68.3, "charter": false, "lat": 39.5782, "lng": -78.9638, "ratio": 13.4}], "middle": [{"name": "Westmar Middle", "district": "Allegany County Public Schools", "city": "Lonaconing", "level": 2, "low_grade": 6, "high_grade": 8, "enrollment": 232, "teachers": 25, "lunch_pct": 70.3, "charter": false, "lat": 39.5612, "lng": -78.988, "ratio": 9.3}], "high": []}, "cresaptown": {"elem": [{"name": "Cresaptown Elementary", "district": "Allegany County Public Schools", "city": "Cresaptown", "level": 1, "low_grade": -1, "high_grade": 5, "enrollment": 267, "teachers": 18, "lunch_pct": 58.1, "charter": false, "lat": 39.5898, "lng": -78.8314, "ratio": 14.8}], "middle": [], "high": [{"name": "Center for Career & Technical Education", "district": "Allegany County Public Schools", "city": "Cresaptown", "level": 3, "low_grade": 11, "high_grade": 12, "enrollment": 289, "teachers": 25, "lunch_pct": 52.9, "charter": false, "lat": 39.6008, "lng": -78.8249, "ratio": 11.6}]}, "flintstone": {"elem": [{"name": "Flintstone Elementary", "district": "Allegany County Public Schools", "city": "Flintstone", "level": 1, "low_grade": -1, "high_grade": 5, "enrollment": 216, "teachers": 14, "lunch_pct": 57.9, "charter": false, "lat": 39.701416, "lng": -78.564443, "ratio": 15.4}], "middle": [], "high": []}, "mount savage": {"elem": [], "middle": [{"name": "Mount Savage Middle", "district": "Allegany County Public Schools", "city": "Mount Savage", "level": 2, "low_grade": 6, "high_grade": 8, "enrollment": 425, "teachers": 32, "lunch_pct": 53.6, "charter": false, "lat": 39.7011, "lng": -78.88, "ratio": 13.3}], "high": []}, "lavale": {"elem": [{"name": "Parkside Elementary", "district": "Allegany County Public Schools", "city": "Lavale", "level": 1, "low_grade": -1, "high_grade": 5, "enrollment": 210, "teachers": 16, "lunch_pct": 60.5, "charter": false, "lat": 39.6442, "lng": -78.8285, "ratio": 13.1}, {"name": "Cash Valley Elementary", "district": "Allegany County Public Schools", "city": "Lavale", "level": 1, "low_grade": -1, "high_grade": 5, "enrollment": 275, "teachers": 25, "lunch_pct": 68.0, "charter": false, "lat": 39.669002, "lng": -78.81398, "ratio": 11.0}], "middle": [], "high": []}, "westernport": {"elem": [{"name": "Westernport Elementary", "district": "Allegany County Public Schools", "city": "Westernport", "level": 1, "low_grade": -1, "high_grade": 5, "enrollment": 261, "teachers": 17, "lunch_pct": 65.1, "charter": false, "lat": 39.482111, "lng": -79.04188, "ratio": 15.4}], "middle": [], "high": []}, "mt savage": {"elem": [{"name": "Mt. Savage Elementary", "district": "Allegany County Public Schools", "city": "Mt Savage", "level": 1, "low_grade": -1, "high_grade": 5, "enrollment": 220, "teachers": 15, "lunch_pct": 61.4, "charter": false, "lat": 39.7011, "lng": -78.88, "ratio": 14.7}], "middle": [], "high": []}, "annapolis": {"elem": [{"name": "Annapolis Elementary", "district": "Anne Arundel County Public Schools", "city": "Annapolis", "level": 1, "low_grade": -1, "high_grade": 5, "enrollment": 200, "teachers": 23, "lunch_pct": 79.0, "charter": false, "lat": 38.976716, "lng": -76.487931, "ratio": 8.7}, {"name": "Cape St. Claire Elementary", "district": "Anne Arundel County Public Schools", "city": "Annapolis", "level": 1, "low_grade": -1, "high_grade": 5, "enrollment": 631, "teachers": 41, "lunch_pct": 13.8, "charter": false, "lat": 39.038827, "lng": -76.444845, "ratio": 15.4}, {"name": "Eastport Elementary", "district": "Anne Arundel County Public Schools", "city": "Annapolis", "level": 1, "low_grade": -1, "high_grade": 5, "enrollment": 269, "teachers": 26, "lunch_pct": 86.2, "charter": false, "lat": 38.97, "lng": -76.4832, "ratio": 10.3}, {"name": "Georgetown East Elementary", "district": "Anne Arundel County Public Schools", "city": "Annapolis", "level": 1, "low_grade": -1, "high_grade": 5, "enrollment": 303, "teachers": 31, "lunch_pct": 83.8, "charter": false, "lat": 38.9534, "lng": -76.4887, "ratio": 9.8}, {"name": "Germantown Elementary", "district": "Anne Arundel County Public Schools", "city": "Annapolis", "level": 1, "low_grade": -1, "high_grade": 5, "enrollment": 482, "teachers": 42, "lunch_pct": 75.3, "charter": false, "lat": 38.98125, "lng": -76.51636, "ratio": 11.5}, {"name": "Hillsmere Elementary", "district": "Anne Arundel County Public Schools", "city": "Annapolis", "level": 1, "low_grade": -1, "high_grade": 5, "enrollment": 390, "teachers": 28, "lunch_pct": 33.6, "charter": false, "lat": 38.9411, "lng": -76.4871, "ratio": 13.9}, {"name": "Walter S. Mills - Parole Elementary", "district": "Anne Arundel County Public Schools", "city": "Annapolis", "level": 1, "low_grade": -1, "high_grade": 5, "enrollment": 578, "teachers": 51, "lunch_pct": 94.5, "charter": false, "lat": 38.978322, "lng": -76.526446, "ratio": 11.3}, {"name": "Rolling Knolls Elementary", "district": "Anne Arundel County Public Schools", "city": "Annapolis", "level": 1, "low_grade": -1, "high_grade": 5, "enrollment": 377, "teachers": 33, "lunch_pct": 45.6, "charter": false, "lat": 38.997804, "lng": -76.556494, "ratio": 11.4}, {"name": "Tyler Heights Elementary", "district": "Anne Arundel County Public Schools", "city": "Annapolis", "level": 1, "low_grade": -1, "high_grade": 5, "enrollment": 424, "teachers": 41, "lunch_pct": 96.0, "charter": false, "lat": 38.955639, "lng": -76.499579, "ratio": 10.3}, {"name": "West Annapolis Elementary", "district": "Anne Arundel County Public Schools", "city": "Annapolis", "level": 1, "low_grade": 0, "high_grade": 5, "enrollment": 233, "teachers": 18, "lunch_pct": 21.5, "charter": false, "lat": 38.991489, "lng": -76.503554, "ratio": 12.9}, {"name": "Windsor Farm Elementary", "district": "Anne Arundel County Public Schools", "city": "Annapolis", "level": 1, "low_grade": -1, "high_grade": 5, "enrollment": 491, "teachers": 34, "lunch_pct": 29.9, "charter": false, "lat": 39.0328, "lng": -76.4601, "ratio": 14.4}, {"name": "Monarch Academy Annapolis ES", "district": "Anne Arundel County Public Schools", "city": "Annapolis", "level": 1, "low_grade": 0, "high_grade": 5, "enrollment": 585, "teachers": 58, "lunch_pct": 67.7, "charter": false, "lat": 38.984078, "lng": -76.530663, "ratio": 10.1}], "middle": [{"name": "Annapolis Middle", "district": "Anne Arundel County Public Schools", "city": "Annapolis", "level": 2, "low_grade": 6, "high_grade": 8, "enrollment": 879, "teachers": 75, "lunch_pct": 83.2, "charter": false, "lat": 38.958048, "lng": -76.511464, "ratio": 11.7}, {"name": "Wiley H. Bates Middle", "district": "Anne Arundel County Public Schools", "city": "Annapolis", "level": 2, "low_grade": 6, "high_grade": 8, "enrollment": 682, "teachers": 66, "lunch_pct": 51.0, "charter": false, "lat": 38.9723, "lng": -76.5057, "ratio": 10.3}, {"name": "Mary Moss at Adams Academy", "district": "Anne Arundel County Public Schools", "city": "Annapolis", "level": 2, "low_grade": 6, "high_grade": 9, "enrollment": 35, "teachers": 22, "lunch_pct": 91.4, "charter": false, "lat": 38.981809, "lng": -76.500464, "ratio": 1.6}], "high": [{"name": "Annapolis High", "district": "Anne Arundel County Public Schools", "city": "Annapolis", "level": 3, "low_grade": 9, "high_grade": 12, "enrollment": 2127, "teachers": 148, "lunch_pct": 59.8, "charter": false, "lat": 38.9745, "lng": -76.5656, "ratio": 14.4}, {"name": "Broadneck High", "district": "Anne Arundel County Public Schools", "city": "Annapolis", "level": 3, "low_grade": 9, "high_grade": 12, "enrollment": 2174, "teachers": 122, "lunch_pct": 18.8, "charter": false, "lat": 39.0398, "lng": -76.4536, "ratio": 17.8}]}, "arnold": {"elem": [{"name": "Arnold Elementary", "district": "Anne Arundel County Public Schools", "city": "Arnold", "level": 1, "low_grade": 0, "high_grade": 5, "enrollment": 503, "teachers": 34, "lunch_pct": 16.1, "charter": false, "lat": 39.034298, "lng": -76.504004, "ratio": 14.8}, {"name": "Belvedere Elementary", "district": "Anne Arundel County Public Schools", "city": "Arnold", "level": 1, "low_grade": -1, "high_grade": 5, "enrollment": 535, "teachers": 37, "lunch_pct": 19.4, "charter": false, "lat": 39.0588, "lng": -76.5025, "ratio": 14.5}, {"name": "Broadneck Elementary", "district": "Anne Arundel County Public Schools", "city": "Arnold", "level": 1, "low_grade": 0, "high_grade": 5, "enrollment": 687, "teachers": 44, "lunch_pct": 17.0, "charter": false, "lat": 39.0484, "lng": -76.4838, "ratio": 15.6}], "middle": [{"name": "Magothy River Middle", "district": "Anne Arundel County Public Schools", "city": "Arnold", "level": 2, "low_grade": 6, "high_grade": 8, "enrollment": 683, "teachers": 47, "lunch_pct": 19.3, "charter": false, "lat": 39.059091, "lng": -76.513451, "ratio": 14.5}, {"name": "Severn River Middle", "district": "Anne Arundel County Public Schools", "city": "Arnold", "level": 2, "low_grade": 6, "high_grade": 8, "enrollment": 734, "teachers": 50, "lunch_pct": 19.8, "charter": false, "lat": 39.059091, "lng": -76.513451, "ratio": 14.7}], "high": []}, "odenton": {"elem": [{"name": "Odenton Elementary", "district": "Anne Arundel County Public Schools", "city": "Odenton", "level": 1, "low_grade": -1, "high_grade": 5, "enrollment": 575, "teachers": 42, "lunch_pct": 48.2, "charter": false, "lat": 39.0834, "lng": -76.6972, "ratio": 13.7}, {"name": "Waugh Chapel Elementary", "district": "Anne Arundel County Public Schools", "city": "Odenton", "level": 1, "low_grade": -1, "high_grade": 5, "enrollment": 573, "teachers": 39, "lunch_pct": 25.0, "charter": false, "lat": 39.0652, "lng": -76.6963, "ratio": 14.7}, {"name": "Seven Oaks Elementary", "district": "Anne Arundel County Public Schools", "city": "Odenton", "level": 1, "low_grade": -1, "high_grade": 5, "enrollment": 508, "teachers": 38, "lunch_pct": 53.0, "charter": false, "lat": 39.10422, "lng": -76.707068, "ratio": 13.4}, {"name": "Piney Orchard Elementary", "district": "Anne Arundel County Public Schools", "city": "Odenton", "level": 1, "low_grade": 0, "high_grade": 5, "enrollment": 966, "teachers": 61, "lunch_pct": 17.9, "charter": false, "lat": 39.061055, "lng": -76.718972, "ratio": 15.8}], "middle": [{"name": "Arundel Middle", "district": "Anne Arundel County Public Schools", "city": "Odenton", "level": 2, "low_grade": 6, "high_grade": 8, "enrollment": 1286, "teachers": 81, "lunch_pct": 27.6, "charter": false, "lat": 39.0717, "lng": -76.6861, "ratio": 15.9}], "high": []}, "gambrills": {"elem": [{"name": "Four Seasons Elementary", "district": "Anne Arundel County Public Schools", "city": "Gambrills", "level": 1, "low_grade": -1, "high_grade": 5, "enrollment": 671, "teachers": 41, "lunch_pct": 16.4, "charter": false, "lat": 39.0533, "lng": -76.6944, "ratio": 16.4}], "middle": [{"name": "Crofton Middle", "district": "Anne Arundel County Public Schools", "city": "Gambrills", "level": 2, "low_grade": 6, "high_grade": 8, "enrollment": 1374, "teachers": 79, "lunch_pct": 18.8, "charter": false, "lat": 38.9971, "lng": -76.6703, "ratio": 17.4}], "high": [{"name": "Arundel High", "district": "Anne Arundel County Public Schools", "city": "Gambrills", "level": 3, "low_grade": 9, "high_grade": 12, "enrollment": 1617, "teachers": 93, "lunch_pct": 25.7, "charter": false, "lat": 39.0712, "lng": -76.682, "ratio": 17.4}, {"name": "Crofton High School", "district": "Anne Arundel County Public Schools", "city": "Gambrills", "level": 3, "low_grade": 9, "high_grade": 12, "enrollment": 1805, "teachers": 96, "lunch_pct": 13.8, "charter": false, "lat": 39.001816, "lng": -76.668221, "ratio": 18.8}]}, "pasadena": {"elem": [{"name": "Bodkin Elementary", "district": "Anne Arundel County Public Schools", "city": "Pasadena", "level": 1, "low_grade": -1, "high_grade": 5, "enrollment": 520, "teachers": 34, "lunch_pct": 18.1, "charter": false, "lat": 39.1118, "lng": -76.4555, "ratio": 15.3}, {"name": "Fort Smallwood Elementary", "district": "Anne Arundel County Public Schools", "city": "Pasadena", "level": 1, "low_grade": -1, "high_grade": 5, "enrollment": 425, "teachers": 32, "lunch_pct": 20.9, "charter": false, "lat": 39.133341, "lng": -76.476833, "ratio": 13.3}, {"name": "High Point Elementary", "district": "Anne Arundel County Public Schools", "city": "Pasadena", "level": 1, "low_grade": -1, "high_grade": 5, "enrollment": 704, "teachers": 45, "lunch_pct": 52.0, "charter": false, "lat": 39.144177, "lng": -76.539971, "ratio": 15.6}, {"name": "Jacobsville Elementary", "district": "Anne Arundel County Public Schools", "city": "Pasadena", "level": 1, "low_grade": -1, "high_grade": 5, "enrollment": 510, "teachers": 32, "lunch_pct": 30.8, "charter": false, "lat": 39.1222, "lng": -76.5247, "ratio": 15.9}, {"name": "Lake Shore Elementary", "district": "Anne Arundel County Public Schools", "city": "Pasadena", "level": 1, "low_grade": -1, "high_grade": 5, "enrollment": 333, "teachers": 24, "lunch_pct": 24.3, "charter": false, "lat": 39.1064, "lng": -76.4935, "ratio": 13.9}, {"name": "Pasadena Elementary", "district": "Anne Arundel County Public Schools", "city": "Pasadena", "level": 1, "low_grade": -1, "high_grade": 5, "enrollment": 356, "teachers": 30, "lunch_pct": 31.7, "charter": false, "lat": 39.109184, "lng": -76.567723, "ratio": 11.9}, {"name": "Riviera Beach Elementary", "district": "Anne Arundel County Public Schools", "city": "Pasadena", "level": 1, "low_grade": -1, "high_grade": 5, "enrollment": 281, "teachers": 21, "lunch_pct": 49.8, "charter": false, "lat": 39.1595, "lng": -76.5118, "ratio": 13.4}, {"name": "Sunset Elementary", "district": "Anne Arundel County Public Schools", "city": "Pasadena", "level": 1, "low_grade": -1, "high_grade": 5, "enrollment": 434, "teachers": 28, "lunch_pct": 38.7, "charter": false, "lat": 39.1543, "lng": -76.523, "ratio": 15.5}], "middle": [{"name": "Chesapeake Bay Middle", "district": "Anne Arundel County Public Schools", "city": "Pasadena", "level": 2, "low_grade": 6, "high_grade": 8, "enrollment": 1067, "teachers": 79, "lunch_pct": 26.5, "charter": false, "lat": 39.1124, "lng": -76.4583, "ratio": 13.5}, {"name": "Northeast Middle", "district": "Anne Arundel County Public Schools", "city": "Pasadena", "level": 2, "low_grade": 6, "high_grade": 8, "enrollment": 882, "teachers": 52, "lunch_pct": 48.6, "charter": false, "lat": 39.1323, "lng": -76.549, "ratio": 17.0}], "high": [{"name": "Chesapeake High", "district": "Anne Arundel County Public Schools", "city": "Pasadena", "level": 3, "low_grade": 9, "high_grade": 12, "enrollment": 1419, "teachers": 82, "lunch_pct": 23.3, "charter": false, "lat": 39.1107, "lng": -76.4623, "ratio": 17.3}, {"name": "Northeast High", "district": "Anne Arundel County Public Schools", "city": "Pasadena", "level": 3, "low_grade": 9, "high_grade": 12, "enrollment": 1390, "teachers": 79, "lunch_pct": 44.2, "charter": false, "lat": 39.1444, "lng": -76.5291, "ratio": 17.6}]}, "severna park": {"elem": [{"name": "Benfield Elementary", "district": "Anne Arundel County Public Schools", "city": "Severna Park", "level": 1, "low_grade": -1, "high_grade": 5, "enrollment": 455, "teachers": 30, "lunch_pct": 6.2, "charter": false, "lat": 39.0853, "lng": -76.5891, "ratio": 15.2}, {"name": "Folger Mckinsey Elementary", "district": "Anne Arundel County Public Schools", "city": "Severna Park", "level": 1, "low_grade": 0, "high_grade": 5, "enrollment": 636, "teachers": 38, "lunch_pct": 5.2, "charter": false, "lat": 39.08303, "lng": -76.538181, "ratio": 16.7}, {"name": "Jones Elementary", "district": "Anne Arundel County Public Schools", "city": "Severna Park", "level": 1, "low_grade": 0, "high_grade": 5, "enrollment": 312, "teachers": 20, "lunch_pct": 16.3, "charter": false, "lat": 39.058, "lng": -76.5359, "ratio": 15.6}, {"name": "Oak Hill Elementary", "district": "Anne Arundel County Public Schools", "city": "Severna Park", "level": 1, "low_grade": 0, "high_grade": 5, "enrollment": 614, "teachers": 36, "lunch_pct": 9.6, "charter": false, "lat": 39.083797, "lng": -76.569027, "ratio": 17.1}, {"name": "Severna Park Elementary", "district": "Anne Arundel County Public Schools", "city": "Severna Park", "level": 1, "low_grade": 0, "high_grade": 5, "enrollment": 379, "teachers": 26, "lunch_pct": 10.8, "charter": false, "lat": 39.0724, "lng": -76.5484, "ratio": 14.6}], "middle": [{"name": "Severna Park Middle", "district": "Anne Arundel County Public Schools", "city": "Severna Park", "level": 2, "low_grade": 6, "high_grade": 8, "enrollment": 1399, "teachers": 87, "lunch_pct": 8.7, "charter": false, "lat": 39.0873, "lng": -76.5859, "ratio": 16.1}], "high": [{"name": "Severna Park High", "district": "Anne Arundel County Public Schools", "city": "Severna Park", "level": 3, "low_grade": 9, "high_grade": 12, "enrollment": 1873, "teachers": 97, "lunch_pct": 8.0, "charter": false, "lat": 39.076969, "lng": -76.560963, "ratio": 19.3}, {"name": "Anne Arundel Evening High", "district": "Anne Arundel County Public Schools", "city": "Severna Park", "level": 3, "low_grade": 9, "high_grade": 12, "enrollment": 242, "teachers": null, "lunch_pct": 5.4, "charter": false, "lat": 39.076619, "lng": -76.558282, "ratio": 242.0}]}, "laurel": {"elem": [{"name": "Brock Bridge Elementary", "district": "Anne Arundel County Public Schools", "city": "Laurel", "level": 1, "low_grade": -1, "high_grade": 5, "enrollment": 472, "teachers": 35, "lunch_pct": 76.1, "charter": false, "lat": 39.0883, "lng": -76.8213, "ratio": 13.5}, {"name": "Maryland City Elementary", "district": "Anne Arundel County Public Schools", "city": "Laurel", "level": 1, "low_grade": -1, "high_grade": 5, "enrollment": 436, "teachers": 35, "lunch_pct": 84.4, "charter": false, "lat": 39.096, "lng": -76.8176, "ratio": 12.5}, {"name": "Monarch Global Academy PCS Laurel Campus", "district": "Anne Arundel County Public Schools", "city": "Laurel", "level": 1, "low_grade": 0, "high_grade": 8, "enrollment": 830, "teachers": 60, "lunch_pct": 52.7, "charter": false, "lat": 39.085699, "lng": -76.824378, "ratio": 13.8}, {"name": "Forest Ridge Elementary", "district": "Howard County Public Schools", "city": "Laurel", "level": 1, "low_grade": -1, "high_grade": 5, "enrollment": 648, "teachers": 45, "lunch_pct": 36.7, "charter": false, "lat": 39.1351, "lng": -76.8401, "ratio": 14.4}, {"name": "Hammond Elementary", "district": "Howard County Public Schools", "city": "Laurel", "level": 1, "low_grade": 0, "high_grade": 5, "enrollment": 651, "teachers": 42, "lunch_pct": 18.3, "charter": false, "lat": 39.148, "lng": -76.8785, "ratio": 15.5}, {"name": "Laurel Woods Elementary", "district": "Howard County Public Schools", "city": "Laurel", "level": 1, "low_grade": -1, "high_grade": 5, "enrollment": 662, "teachers": 55, "lunch_pct": 61.6, "charter": false, "lat": 39.1176, "lng": -76.842, "ratio": 12.0}, {"name": "Gorman Crossing Elementary", "district": "Howard County Public Schools", "city": "Laurel", "level": 1, "low_grade": -1, "high_grade": 5, "enrollment": 743, "teachers": 56, "lunch_pct": 20.5, "charter": false, "lat": 39.1452, "lng": -76.8597, "ratio": 13.3}, {"name": "Scotchtown Hills Elementary", "district": "Prince George's County Public Schools", "city": "Laurel", "level": 1, "low_grade": -1, "high_grade": 6, "enrollment": 612, "teachers": 40, "lunch_pct": 76.0, "charter": false, "lat": 39.1086, "lng": -76.8782, "ratio": 15.3}, {"name": "Bond Mill Elementary", "district": "Prince George's County Public Schools", "city": "Laurel", "level": 1, "low_grade": 0, "high_grade": 5, "enrollment": 481, "teachers": 31, "lunch_pct": 49.9, "charter": false, "lat": 39.1097, "lng": -76.8957, "ratio": 15.5}, {"name": "Deerfield Run Elementary", "district": "Prince George's County Public Schools", "city": "Laurel", "level": 1, "low_grade": -1, "high_grade": 5, "enrollment": 577, "teachers": 38, "lunch_pct": 87.3, "charter": false, "lat": 39.0711, "lng": -76.8466, "ratio": 15.2}, {"name": "James H. Harrison Elementary", "district": "Prince George's County Public Schools", "city": "Laurel", "level": 1, "low_grade": -1, "high_grade": 6, "enrollment": 302, "teachers": 26, "lunch_pct": 79.1, "charter": false, "lat": 39.0722, "lng": -76.8625, "ratio": 11.6}, {"name": "Laurel Elementary", "district": "Prince George's County Public Schools", "city": "Laurel", "level": 1, "low_grade": -1, "high_grade": 5, "enrollment": 566, "teachers": 43, "lunch_pct": 84.5, "charter": false, "lat": 39.1049, "lng": -76.8525, "ratio": 13.2}, {"name": "Montpelier Elementary", "district": "Prince George's County Public Schools", "city": "Laurel", "level": 1, "low_grade": -1, "high_grade": 5, "enrollment": 562, "teachers": 36, "lunch_pct": 77.8, "charter": false, "lat": 39.053938, "lng": -76.84594, "ratio": 15.6}, {"name": "Oaklands Elementary", "district": "Prince George's County Public Schools", "city": "Laurel", "level": 1, "low_grade": -1, "high_grade": 5, "enrollment": 395, "teachers": 29, "lunch_pct": 92.2, "charter": false, "lat": 39.078887, "lng": -76.849428, "ratio": 13.6}], "middle": [{"name": "Hammond Middle School", "district": "Howard County Public Schools", "city": "Laurel", "level": 2, "low_grade": 6, "high_grade": 8, "enrollment": 570, "teachers": 40, "lunch_pct": 17.2, "charter": false, "lat": 39.1485, "lng": -76.8789, "ratio": 14.2}, {"name": "Murray Hill Middle", "district": "Howard County Public Schools", "city": "Laurel", "level": 2, "low_grade": 6, "high_grade": 8, "enrollment": 591, "teachers": 50, "lunch_pct": 39.6, "charter": false, "lat": 39.1453, "lng": -76.8577, "ratio": 11.8}, {"name": "Dwight D. Eisenhower Middle", "district": "Prince George's County Public Schools", "city": "Laurel", "level": 2, "low_grade": 6, "high_grade": 8, "enrollment": 1084, "teachers": 73, "lunch_pct": 84.0, "charter": false, "lat": 39.0794, "lng": -76.8542, "ratio": 14.8}], "high": [{"name": "Laurel High", "district": "Prince George's County Public Schools", "city": "Laurel", "level": 3, "low_grade": 9, "high_grade": 12, "enrollment": 2134, "teachers": 120, "lunch_pct": 69.2, "charter": false, "lat": 39.0943, "lng": -76.8676, "ratio": 17.8}]}, "edgewater": {"elem": [{"name": "Central Elementary", "district": "Anne Arundel County Public Schools", "city": "Edgewater", "level": 1, "low_grade": 0, "high_grade": 5, "enrollment": 570, "teachers": 43, "lunch_pct": 16.0, "charter": false, "lat": 38.9242, "lng": -76.5645, "ratio": 13.3}, {"name": "Edgewater Elementary", "district": "Anne Arundel County Public Schools", "city": "Edgewater", "level": 1, "low_grade": -1, "high_grade": 5, "enrollment": 578, "teachers": 37, "lunch_pct": 40.0, "charter": false, "lat": 38.9379, "lng": -76.5575, "ratio": 15.6},