{"belle": {"elem": [{"name": "BELLE ELEM.", "district": "MARIES CO. R-II", "city": "BELLE", "level": 1, "low_grade": -1, "high_grade": 4, "enrollment": 275, "teachers": 21, "lunch_pct": 98.5, "charter": false, "lat": 38.287251, "lng": -91.726066, "ratio": 13.1}], "middle": [], "high": [{"name": "BELLE HIGH", "district": "MARIES CO. R-II", "city": "BELLE", "level": 3, "low_grade": 9, "high_grade": 12, "enrollment": 245, "teachers": 21, "lunch_pct": 38.0, "charter": false, "lat": 38.287346, "lng": -91.726855, "ratio": 11.7}]}, "bland": {"elem": [], "middle": [{"name": "MARIES CO. MIDDLE", "district": "MARIES CO. R-II", "city": "BLAND", "level": 2, "low_grade": 5, "high_grade": 8, "enrollment": 210, "teachers": 18, "lunch_pct": 99.5, "charter": false, "lat": 38.300491, "lng": -91.633801, "ratio": 11.7}], "high": []}, "bethany": {"elem": [{"name": "SOUTH HARRISON ELEM.", "district": "SOUTH HARRISON CO. R-II", "city": "BETHANY", "level": 1, "low_grade": 0, "high_grade": 4, "enrollment": 309, "teachers": 30, "lunch_pct": 59.9, "charter": false, "lat": 40.263105, "lng": -94.028863, "ratio": 10.3}], "middle": [{"name": "SOUTH HARRISON MIDDLE", "district": "SOUTH HARRISON CO. R-II", "city": "BETHANY", "level": 2, "low_grade": 5, "high_grade": 8, "enrollment": 245, "teachers": 18, "lunch_pct": 58.0, "charter": false, "lat": 40.282424, "lng": -94.017445, "ratio": 13.6}], "high": [{"name": "SOUTH HARRISON HIGH", "district": "SOUTH HARRISON CO. R-II", "city": "BETHANY", "level": 3, "low_grade": 9, "high_grade": 12, "enrollment": 254, "teachers": 18, "lunch_pct": 42.1, "charter": false, "lat": 40.281314, "lng": -94.017839, "ratio": 14.1}, {"name": "NORTH CENTRAL CAREER CTR.", "district": "SOUTH HARRISON CO. R-II", "city": "BETHANY", "level": 3, "low_grade": 7, "high_grade": 12, "enrollment": 0, "teachers": 10, "lunch_pct": 0.0, "charter": false, "lat": 40.282023, "lng": -94.014071, "ratio": 0.1}]}, "portageville": {"elem": [{"name": "PORTAGEVILLE ELEM.", "district": "PORTAGEVILLE", "city": "PORTAGEVILLE", "level": 1, "low_grade": -1, "high_grade": 5, "enrollment": 295, "teachers": 28, "lunch_pct": 99.3, "charter": false, "lat": 36.434932, "lng": -89.697619, "ratio": 10.5}], "middle": [], "high": [{"name": "PORTAGEVILLE HIGH", "district": "PORTAGEVILLE", "city": "PORTAGEVILLE", "level": 3, "low_grade": 6, "high_grade": 12, "enrollment": 373, "teachers": 31, "lunch_pct": 58.7, "charter": false, "lat": 36.433703, "lng": -89.69885, "ratio": 12.0}]}, "lilbourn": {"elem": [{"name": "LILBOURN ELEMENTARY", "district": "NEW MADRID CO. R-I", "city": "LILBOURN", "level": 1, "low_grade": -1, "high_grade": 5, "enrollment": 236, "teachers": 18, "lunch_pct": 100.0, "charter": false, "lat": 36.591672, "lng": -89.609501, "ratio": 13.1}], "middle": [], "high": []}, "new madrid": {"elem": [{"name": "NEW MADRID ELEMENTARY", "district": "NEW MADRID CO. R-I", "city": "NEW MADRID", "level": 1, "low_grade": -1, "high_grade": 5, "enrollment": 280, "teachers": 20, "lunch_pct": 100.0, "charter": false, "lat": 36.605109, "lng": -89.536101, "ratio": 14.0}], "middle": [{"name": "CENTRAL MIDDLE SCHOOL", "district": "NEW MADRID CO. R-I", "city": "NEW MADRID", "level": 2, "low_grade": 6, "high_grade": 8, "enrollment": 297, "teachers": 27, "lunch_pct": 100.0, "charter": false, "lat": 36.575363, "lng": -89.585953, "ratio": 11.0}], "high": [{"name": "CENTRAL HIGH SCHOOL", "district": "NEW MADRID CO. R-I", "city": "NEW MADRID", "level": 3, "low_grade": 9, "high_grade": 12, "enrollment": 400, "teachers": 31, "lunch_pct": 100.0, "charter": false, "lat": 36.573395, "lng": -89.585484, "ratio": 12.9}, {"name": "NEW MADRID R-I TECH SKILLS CTR", "district": "NEW MADRID CO. R-I", "city": "NEW MADRID", "level": 3, "low_grade": 9, "high_grade": 12, "enrollment": 0, "teachers": 9, "lunch_pct": 0.0, "charter": false, "lat": 36.573395, "lng": -89.585484, "ratio": 0.1}, {"name": "NEW MADRID BEND YOUTH CTR.", "district": "DIVISION OF YOUTH SERVICE", "city": "NEW MADRID", "level": 3, "low_grade": 6, "high_grade": 12, "enrollment": 0, "teachers": null, "lunch_pct": 0.0, "charter": false, "lat": 36.570663, "lng": -89.582729, "ratio": 1.0}]}, "matthews": {"elem": [{"name": "MATTHEWS ELEMENTARY", "district": "NEW MADRID CO. R-I", "city": "MATTHEWS", "level": 1, "low_grade": -1, "high_grade": 5, "enrollment": 141, "teachers": 12, "lunch_pct": 100.0, "charter": false, "lat": 36.761967, "lng": -89.586076, "ratio": 11.8}], "middle": [], "high": []}, "sedalia": {"elem": [{"name": "PETTIS CO. ELEM.", "district": "PETTIS CO. R-XII", "city": "SEDALIA", "level": 1, "low_grade": -1, "high_grade": 8, "enrollment": 113, "teachers": 17, "lunch_pct": 100.0, "charter": false, "lat": 38.748975, "lng": -93.336442, "ratio": 6.6}, {"name": "HEBER HUNT ELEM.", "district": "SEDALIA 200", "city": "SEDALIA", "level": 1, "low_grade": 0, "high_grade": 4, "enrollment": 413, "teachers": 35, "lunch_pct": 73.8, "charter": false, "lat": 38.706672, "lng": -93.248532, "ratio": 11.8}, {"name": "HORACE MANN ELEM.", "district": "SEDALIA 200", "city": "SEDALIA", "level": 1, "low_grade": 0, "high_grade": 4, "enrollment": 260, "teachers": 24, "lunch_pct": 71.9, "charter": false, "lat": 38.698314, "lng": -93.240791, "ratio": 10.8}, {"name": "WASHINGTON ELEM.", "district": "SEDALIA 200", "city": "SEDALIA", "level": 1, "low_grade": 0, "high_grade": 4, "enrollment": 199, "teachers": 24, "lunch_pct": 86.9, "charter": false, "lat": 38.705084, "lng": -93.213907, "ratio": 8.3}, {"name": "PARKVIEW ELEM.", "district": "SEDALIA 200", "city": "SEDALIA", "level": 1, "low_grade": 0, "high_grade": 4, "enrollment": 468, "teachers": 35, "lunch_pct": 67.3, "charter": false, "lat": 38.693926, "lng": -93.207789, "ratio": 13.4}, {"name": "SKYLINE ELEM.", "district": "SEDALIA 200", "city": "SEDALIA", "level": 1, "low_grade": 0, "high_grade": 4, "enrollment": 489, "teachers": 35, "lunch_pct": 50.3, "charter": false, "lat": 38.683282, "lng": -93.257648, "ratio": 14.0}], "middle": [{"name": "SEDALIA MIDDLE SCHOOL", "district": "SEDALIA 200", "city": "SEDALIA", "level": 2, "low_grade": 5, "high_grade": 5, "enrollment": 384, "teachers": 28, "lunch_pct": 65.6, "charter": false, "lat": 38.691777, "lng": -93.221865, "ratio": 13.7}, {"name": "SMITH COTTON JUNIOR HIGH SCHL", "district": "SEDALIA 200", "city": "SEDALIA", "level": 2, "low_grade": 6, "high_grade": 8, "enrollment": 1130, "teachers": 80, "lunch_pct": 64.9, "charter": false, "lat": 38.703098, "lng": -93.225581, "ratio": 14.1}], "high": [{"name": "STATE FAIR", "district": "STATE FAIR COMMUNITY COLLEGE", "city": "SEDALIA", "level": 3, "low_grade": 9, "high_grade": 12, "enrollment": 0, "teachers": 8, "lunch_pct": 0.0, "charter": false, "lat": 38.69705, "lng": -93.266601, "ratio": 0.1}, {"name": "SMITH-COTTON HIGH SCHOOL", "district": "SEDALIA 200", "city": "SEDALIA", "level": 3, "low_grade": 9, "high_grade": 12, "enrollment": 1474, "teachers": 88, "lunch_pct": 59.0, "charter": false, "lat": 38.672401, "lng": -93.257606, "ratio": 16.8}]}, "hillsboro": {"elem": [{"name": "GRANDVIEW ELEM.", "district": "GRANDVIEW R-II", "city": "HILLSBORO", "level": 1, "low_grade": -1, "high_grade": 4, "enrollment": 230, "teachers": 22, "lunch_pct": 50.9, "charter": false, "lat": 38.216437, "lng": -90.66425, "ratio": 10.5}, {"name": "HILLSBORO ELEM.", "district": "HILLSBORO R-III", "city": "HILLSBORO", "level": 1, "low_grade": 3, "high_grade": 4, "enrollment": 462, "teachers": 32, "lunch_pct": 35.1, "charter": false, "lat": 38.236714, "lng": -90.558026, "ratio": 14.4}, {"name": "HILLSBORO PRIMARY", "district": "HILLSBORO R-III", "city": "HILLSBORO", "level": 1, "low_grade": 0, "high_grade": 2, "enrollment": 670, "teachers": 50, "lunch_pct": 33.9, "charter": false, "lat": 38.239934, "lng": -90.564857, "ratio": 13.4}], "middle": [{"name": "GRANDVIEW MIDDLE", "district": "GRANDVIEW R-II", "city": "HILLSBORO", "level": 2, "low_grade": 5, "high_grade": 8, "enrollment": 158, "teachers": 12, "lunch_pct": 41.1, "charter": false, "lat": 38.21523, "lng": -90.664243, "ratio": 13.2}, {"name": "HILLSBORO MIDDLE ELEM.", "district": "HILLSBORO R-III", "city": "HILLSBORO", "level": 2, "low_grade": 5, "high_grade": 6, "enrollment": 483, "teachers": 33, "lunch_pct": 33.1, "charter": false, "lat": 38.237242, "lng": -90.560912, "ratio": 14.6}, {"name": "HILLSBORO JR. HIGH", "district": "HILLSBORO R-III", "city": "HILLSBORO", "level": 2, "low_grade": 7, "high_grade": 8, "enrollment": 544, "teachers": 34, "lunch_pct": 31.4, "charter": false, "lat": 38.235146, "lng": -90.556269, "ratio": 16.0}], "high": [{"name": "JEFFERSON COLLEGE", "district": "JEFFERSON COLLEGE", "city": "HILLSBORO", "level": 3, "low_grade": 10, "high_grade": 12, "enrollment": 0, "teachers": 20, "lunch_pct": 0.0, "charter": false, "lat": 38.261709, "lng": -90.560391, "ratio": 0.1}, {"name": "NEW DAY - DAY TREATMENT", "district": "DIVISION OF YOUTH SERVICE", "city": "HILLSBORO", "level": 3, "low_grade": 6, "high_grade": 12, "enrollment": 11, "teachers": 2, "lunch_pct": 72.7, "charter": false, "lat": 38.226898, "lng": -90.561923, "ratio": 5.5}, {"name": "HILLSBORO TREATMENT CTR.", "district": "DIVISION OF YOUTH SERVICE", "city": "HILLSBORO", "level": 3, "low_grade": 6, "high_grade": 12, "enrollment": 0, "teachers": null, "lunch_pct": 0.0, "charter": false, "lat": 38.235843, "lng": -90.569027, "ratio": 1.0}, {"name": "GRANDVIEW HIGH", "district": "GRANDVIEW R-II", "city": "HILLSBORO", "level": 3, "low_grade": 9, "high_grade": 12, "enrollment": 261, "teachers": 20, "lunch_pct": 36.8, "charter": false, "lat": 38.214153, "lng": -90.667058, "ratio": 13.1}, {"name": "HILLSBORO HIGH", "district": "HILLSBORO R-III", "city": "HILLSBORO", "level": 3, "low_grade": 9, "high_grade": 12, "enrollment": 1121, "teachers": 69, "lunch_pct": 25.2, "charter": false, "lat": 38.24146, "lng": -90.569991, "ratio": 16.2}]}, "neosho": {"elem": [{"name": "BENTON ELEM.", "district": "NEOSHO SCHOOL DISTRICT", "city": "NEOSHO", "level": 1, "low_grade": 0, "high_grade": 4, "enrollment": 505, "teachers": 36, "lunch_pct": 69.3, "charter": false, "lat": 36.858748, "lng": -94.350818, "ratio": 14.0}, {"name": "CENTRAL ELEM.", "district": "NEOSHO SCHOOL DISTRICT", "city": "NEOSHO", "level": 1, "low_grade": 0, "high_grade": 4, "enrollment": 159, "teachers": 15, "lunch_pct": 75.5, "charter": false, "lat": 36.867627, "lng": -94.371733, "ratio": 10.6}, {"name": "SOUTH ELEM.", "district": "NEOSHO SCHOOL DISTRICT", "city": "NEOSHO", "level": 1, "low_grade": 0, "high_grade": 4, "enrollment": 277, "teachers": 21, "lunch_pct": 67.5, "charter": false, "lat": 36.855507, "lng": -94.381507, "ratio": 13.2}, {"name": "GEORGE WASHINGTON CARVER ELEM.", "district": "NEOSHO SCHOOL DISTRICT", "city": "NEOSHO", "level": 1, "low_grade": 0, "high_grade": 4, "enrollment": 551, "teachers": 33, "lunch_pct": 49.2, "charter": false, "lat": 36.852698, "lng": -94.417637, "ratio": 16.7}, {"name": "WESTVIEW ELEM.", "district": "WESTVIEW C-6", "city": "NEOSHO", "level": 1, "low_grade": -1, "high_grade": 8, "enrollment": 109, "teachers": 12, "lunch_pct": 65.1, "charter": false, "lat": 36.837054, "lng": -94.510343, "ratio": 9.1}], "middle": [{"name": "MIDDLE SCH.", "district": "NEOSHO SCHOOL DISTRICT", "city": "NEOSHO", "level": 2, "low_grade": 5, "high_grade": 6, "enrollment": 720, "teachers": 50, "lunch_pct": 62.4, "charter": false, "lat": 36.847573, "lng": -94.406011, "ratio": 14.4}, {"name": "NEOSHO JR. HIGH", "district": "NEOSHO SCHOOL DISTRICT", "city": "NEOSHO", "level": 2, "low_grade": 7, "high_grade": 8, "enrollment": 748, "teachers": 45, "lunch_pct": 58.0, "charter": false, "lat": 36.855633, "lng": -94.417524, "ratio": 16.6}], "high": [{"name": "CROWDER AVTS", "district": "CROWDER COLLEGE", "city": "NEOSHO", "level": 3, "low_grade": 9, "high_grade": 12, "enrollment": 0, "teachers": 11, "lunch_pct": 0.0, "charter": false, "lat": 36.813433, "lng": -94.369347, "ratio": 0.1}, {"name": "NEOSHO HIGH", "district": "NEOSHO SCHOOL DISTRICT", "city": "NEOSHO", "level": 3, "low_grade": 9, "high_grade": 12, "enrollment": 1491, "teachers": 81, "lunch_pct": 47.5, "charter": false, "lat": 36.863674, "lng": -94.380604, "ratio": 18.4}]}, "springfield": {"elem": [{"name": "BINGHAM ELEM.", "district": "SPRINGFIELD R-XII", "city": "SPRINGFIELD", "level": 1, "low_grade": 0, "high_grade": 5, "enrollment": 422, "teachers": 61, "lunch_pct": 78.4, "charter": false, "lat": 37.202688, "lng": -93.253706, "ratio": 6.9}, {"name": "BISSETT ELEM.", "district": "SPRINGFIELD R-XII", "city": "SPRINGFIELD", "level": 1, "low_grade": 0, "high_grade": 5, "enrollment": 215, "teachers": 17, "lunch_pct": 85.6, "charter": false, "lat": 37.222587, "lng": -93.337034, "ratio": 12.6}, {"name": "BOWERMAN ELEM.", "district": "SPRINGFIELD R-XII", "city": "SPRINGFIELD", "level": 1, "low_grade": -1, "high_grade": 5, "enrollment": 243, "teachers": 19, "lunch_pct": 90.1, "charter": false, "lat": 37.236624, "lng": -93.298835, "ratio": 12.8}, {"name": "BOYD ELEM.", "district": "SPRINGFIELD R-XII", "city": "SPRINGFIELD", "level": 1, "low_grade": -1, "high_grade": 5, "enrollment": 175, "teachers": 18, "lunch_pct": 77.7, "charter": false, "lat": 37.224167, "lng": -93.285995, "ratio": 9.7}, {"name": "COWDEN ELEM.", "district": "SPRINGFIELD R-XII", "city": "SPRINGFIELD", "level": 1, "low_grade": -1, "high_grade": 5, "enrollment": 274, "teachers": 19, "lunch_pct": 62.4, "charter": false, "lat": 37.161526, "lng": -93.287003, "ratio": 14.4}, {"name": "DELAWARE ELEM.", "district": "SPRINGFIELD R-XII", "city": "SPRINGFIELD", "level": 1, "low_grade": -1, "high_grade": 5, "enrollment": 303, "teachers": 28, "lunch_pct": 65.7, "charter": false, "lat": 37.18694, "lng": -93.26842, "ratio": 10.8}, {"name": "FIELD ELEM.", "district": "SPRINGFIELD R-XII", "city": "SPRINGFIELD", "level": 1, "low_grade": 0, "high_grade": 5, "enrollment": 376, "teachers": 24, "lunch_pct": 27.7, "charter": false, "lat": 37.162819, "lng": -93.256082, "ratio": 15.7}, {"name": "FREMONT ELEM.", "district": "SPRINGFIELD R-XII", "city": "SPRINGFIELD", "level": 1, "low_grade": -1, "high_grade": 5, "enrollment": 382, "teachers": 27, "lunch_pct": 80.4, "charter": false, "lat": 37.248079, "lng": -93.269281, "ratio": 14.1}, {"name": "HICKORY HILLS ELEM.", "district": "SPRINGFIELD R-XII", "city": "SPRINGFIELD", "level": 1, "low_grade": 0, "high_grade": 5, "enrollment": 353, "teachers": 22, "lunch_pct": 26.9, "charter": false, "lat": 37.222209, "lng": -93.196227, "ratio": 16.0}, {"name": "HOLLAND ELEM.", "district": "SPRINGFIELD R-XII", "city": "SPRINGFIELD", "level": 1, "low_grade": -1, "high_grade": 5, "enrollment": 233, "teachers": 20, "lunch_pct": 78.1, "charter": false, "lat": 37.171128, "lng": -93.287658, "ratio": 11.7}, {"name": "HORACE MANN ELEM.", "district": "SPRINGFIELD R-XII", "city": "SPRINGFIELD", "level": 1, "low_grade": -1, "high_grade": 5, "enrollment": 398, "teachers": 28, "lunch_pct": 63.6, "charter": false, "lat": 37.146099, "lng": -93.305607, "ratio": 14.2}, {"name": "MARK TWAIN ELEM.", "district": "SPRINGFIELD R-XII", "city": "SPRINGFIELD", "level": 1, "low_grade": -1, "high_grade": 5, "enrollment": 323, "teachers": 25, "lunch_pct": 69.7, "charter": false, "lat": 37.172117, "lng": -93.305578, "ratio": 12.9}, {"name": "MCGREGOR ELEM.", "district": "SPRINGFIELD R-XII", "city": "SPRINGFIELD", "level": 1, "low_grade": 0, "high_grade": 5, "enrollment": 271, "teachers": 24, "lunch_pct": 89.7, "charter": false, "lat": 37.200942, "lng": -93.307461, "ratio": 11.3}, {"name": "PERSHING ELEM.", "district": "SPRINGFIELD R-XII", "city": "SPRINGFIELD", "level": 1, "low_grade": 0, "high_grade": 5, "enrollment": 153, "teachers": 11, "lunch_pct": 56.2, "charter": false, "lat": 37.174832, "lng": -93.242816, "ratio": 13.9}, {"name": "PITTMAN ELEM.", "district": "SPRINGFIELD R-XII", "city": "SPRINGFIELD", "level": 1, "low_grade": 0, "high_grade": 5, "enrollment": 219, "teachers": 18, "lunch_pct": 66.2, "charter": false, "lat": 37.187307, "lng": -93.235677, "ratio": 12.2}, {"name": "PLEASANT VIEW ELEM.", "district": "SPRINGFIELD R-XII", "city": "SPRINGFIELD", "level": 1, "low_grade": 0, "high_grade": 5, "enrollment": 179, "teachers": 11, "lunch_pct": 57.5, "charter": false, "lat": 37.295994, "lng": -93.250051, "ratio": 16.3}, {"name": "ROBBERSON ELEM.", "district": "SPRINGFIELD R-XII", "city": "SPRINGFIELD", "level": 1, "low_grade": 0, "high_grade": 5, "enrollment": 166, "teachers": 15, "lunch_pct": 88.6, "charter": false, "lat": 37.240265, "lng": -93.276451, "ratio": 11.1}, {"name": "ROUNTREE ELEM.", "district": "SPRINGFIELD R-XII", "city": "SPRINGFIELD", "level": 1, "low_grade": 0, "high_grade": 5, "enrollment": 226, "teachers": 15, "lunch_pct": 48.2, "charter": false, "lat": 37.196823, "lng": -93.272499, "ratio": 15.1}, {"name": "SEQUIOTA ELEM.", "district": "SPRINGFIELD R-XII", "city": "SPRINGFIELD", "level": 1, "low_grade": 0, "high_grade": 5, "enrollment": 344, "teachers": 23, "lunch_pct": 34.3, "charter": false, "lat": 37.150507, "lng": -93.230193, "ratio": 15.0}, {"name": "SHERWOOD ELEM.", "district": "SPRINGFIELD R-XII", "city": "SPRINGFIELD", "level": 1, "low_grade": 0, "high_grade": 5, "enrollment": 462, "teachers": 32, "lunch_pct": 62.1, "charter": false, "lat": 37.169053, "lng": -93.339795, "ratio": 14.4}, {"name": "SUNSHINE ELEM.", "district": "SPRINGFIELD R-XII", "city": "SPRINGFIELD", "level": 1, "low_grade": 0, "high_grade": 5, "enrollment": 351, "teachers": 23, "lunch_pct": 75.2, "charter": false, "lat": 37.182684, "lng": -93.2897, "ratio": 15.3}, {"name": "WALT DISNEY ELEM.", "district": "SPRINGFIELD R-XII", "city": "SPRINGFIELD", "level": 1, "low_grade": 0, "high_grade": 5, "enrollment": 568, "teachers": 31, "lunch_pct": 27.3, "charter": false, "lat": 37.139603, "lng": -93.270963, "ratio": 18.3}, {"name": "WATKINS ELEM.", "district": "SPRINGFIELD R-XII", "city": "SPRINGFIELD", "level": 1, "low_grade": -1, "high_grade": 5, "enrollment": 250, "teachers": 18, "lunch_pct": 81.6, "charter": false, "lat": 37.243671, "lng": -93.298825, "ratio": 13.9}, {"name": "WEAVER ELEM.", "district": "SPRINGFIELD R-XII", "city": "SPRINGFIELD", "level": 1, "low_grade": -1, "high_grade": 5, "enrollment": 224, "teachers": 24, "lunch_pct": 91.1, "charter": false, "lat": 37.225684, "lng": -93.299735, "ratio": 9.3}, {"name": "WELLER ELEM.", "district": "SPRINGFIELD R-XII", "city": "SPRINGFIELD", "level": 1, "low_grade": -1, "high_grade": 5, "enrollment": 297, "teachers": 27, "lunch_pct": 83.2, "charter": false, "lat": 37.22855, "lng": -93.267548, "ratio": 11.0}, {"name": "WESTPORT ELEM.", "district": "SPRINGFIELD R-XII", "city": "SPRINGFIELD", "level": 1, "low_grade": 0, "high_grade": 5, "enrollment": 384, "teachers": 31, "lunch_pct": 87.8, "charter": false, "lat": 37.207479, "lng": -93.340387, "ratio": 12.4}, {"name": "WILDER ELEM.", "district": "SPRINGFIELD R-XII", "city": "SPRINGFIELD", "level": 1, "low_grade": 0, "high_grade": 5, "enrollment": 343, "teachers": 26, "lunch_pct": 38.8, "charter": false, "lat": 37.166742, "lng": -93.230414, "ratio": 13.2}, {"name": "WILLIAMS ELEM.", "district": "SPRINGFIELD R-XII", "city": "SPRINGFIELD", "level": 1, "low_grade": -1, "high_grade": 5, "enrollment": 317, "teachers": 29, "lunch_pct": 85.2, "charter": false, "lat": 37.24166, "lng": -93.320762, "ratio": 10.9}, {"name": "YORK ELEM.", "district": "SPRINGFIELD R-XII", "city": "SPRINGFIELD", "level": 1, "low_grade": -1, "high_grade": 5, "enrollment": 204, "teachers": 16, "lunch_pct": 89.2, "charter": false, "lat": 37.218754, "lng": -93.319761, "ratio": 12.8}, {"name": "JEFFRIES ELEM.", "district": "SPRINGFIELD R-XII", "city": "SPRINGFIELD", "level": 1, "low_grade": -1, "high_grade": 5, "enrollment": 440, "teachers": 28, "lunch_pct": 72.0, "charter": false, "lat": 37.140725, "lng": -93.335305, "ratio": 15.7}, {"name": "MCBRIDE ELEM.", "district": "SPRINGFIELD R-XII", "city": "SPRINGFIELD", "level": 1, "low_grade": -1, "high_grade": 4, "enrollment": 382, "teachers": 26, "lunch_pct": 27.5, "charter": false, "lat": 37.122033, "lng": -93.34332, "ratio": 14.7}, {"name": "GRAY ELEM.", "district": "SPRINGFIELD R-XII", "city": "SPRINGFIELD", "level": 1, "low_grade": -1, "high_grade": 4, "enrollment": 434, "teachers": 29, "lunch_pct": 20.0, "charter": false, "lat": 37.117568, "lng": -93.321698, "ratio": 15.0}, {"name": "TRUMAN ELEM.", "district": "SPRINGFIELD R-XII", "city": "SPRINGFIELD", "level": 1, "low_grade": -1, "high_grade": 5, "enrollment": 255, "teachers": 21, "lunch_pct": 40.8, "charter": false, "lat": 37.26731, "lng": -93.280428, "ratio": 12.1}, {"name": "DAVID HARRISON ELEMENTARY", "district": "SPRINGFIELD R-XII", "city": "SPRINGFIELD", "level": 1, "low_grade": -1, "high_grade": 4, "enrollment": 288, "teachers": 21, "lunch_pct": 37.2, "charter": false, "lat": 37.128144, "lng": -93.340581, "ratio": 13.7}, {"name": "WILLARD CENTRAL ELEM.", "district": "WILLARD R-II", "city": "SPRINGFIELD", "level": 1, "low_grade": -1, "high_grade": 4, "enrollment": 414, "teachers": 33, "lunch_pct": 39.6, "charter": false, "lat": 37.24506, "lng": -93.419272, "ratio": 12.5}, {"name": "WILLARD SOUTH ELEM.", "district": "WILLARD R-II", "city": "SPRINGFIELD", "level": 1, "low_grade": -1, "high_grade": 4, "enrollment": 391, "teachers": 32, "lunch_pct": 51.7, "charter": false, "lat": 37.229514, "lng": -93.363613, "ratio": 12.2}, {"name": "WILLARD ORCHARD HILLS ELEM", "district": "WILLARD R-II", "city": "SPRINGFIELD", "level": 1, "low_grade": -1, "high_grade": 4, "enrollment": 424, "teachers": 36, "lunch_pct": 41.5, "charter": false, "lat": 37.19883, "lng": -93.37309, "ratio": 11.8}], "middle": [{"name": "CARVER MIDDLE", "district": "SPRINGFIELD R-XII", "city": "SPRINGFIELD", "level": 2, "low_grade": 6, "high_grade": 8, "enrollment": 695, "teachers": 49, "lunch_pct": 61.2, "charter": false, "lat": 37.163365, "lng": -93.346801, "ratio": 14.2}, {"name": "CHEROKEE MIDDLE", "district": "SPRINGFIELD R-XII", "city": "SPRINGFIELD", "level": 2, "low_grade": 6, "high_grade": 8, "enrollment": 758, "teachers": 48, "lunch_pct": 26.8, "charter": false, "lat": 37.117515, "lng": -93.290769, "ratio": 15.8}, {"name": "HICKORY HILLS MIDDLE", "district": "SPRINGFIELD R-XII", "city": "SPRINGFIELD", "level": 2, "low_grade": 6, "high_grade": 8, "enrollment": 414, "teachers": 28, "lunch_pct": 46.4, "charter": false, "lat": 37.222209, "lng": -93.196227, "ratio": 14.8}, {"name": "JARRETT MIDDLE", "district": "SPRINGFIELD R-XII", "city": "SPRINGFIELD", "level": 2, "low_grade": 6, "high_grade": 8, "enrollment": 445, "teachers": 39, "lunch_pct": 70.3, "charter": false, "lat": 37.199003, "lng": -93.289636, "ratio": 11.4}, {"name": "PERSHING MIDDLE", "district": "SPRINGFIELD R-XII", "city": "SPRINGFIELD", "level": 2, "low_grade": 6, "high_grade": 8, "enrollment": 704, "teachers": 44, "lunch_pct": 40.9, "charter": false, "lat": 37.174832, "lng": -93.242816, "ratio": 16.0}, {"name": "PIPKIN MIDDLE", "district": "SPRINGFIELD R-XII", "city": "SPRINGFIELD", "level": 2, "low_grade": 6, "high_grade": 8, "enrollment": 340, "teachers": 42, "lunch_pct": 81.8, "charter": false, "lat": 37.221644, "lng": -93.292721, "ratio": 8.1}, {"name": "REED MIDDLE", "district": "SPRINGFIELD R-XII", "city": "SPRINGFIELD", "level": 2, "low_grade": 6, "high_grade": 8, "enrollment": 512, "teachers": 42, "lunch_pct": 69.9, "charter": false, "lat": 37.233902, "lng": -93.294353, "ratio": 12.2}, {"name": "WESTPORT MIDDLE SCHOOL", "district": "SPRINGFIELD R-XII", "city": "SPRINGFIELD", "level": 2, "low_grade": 6, "high_grade": 8, "enrollment": 433, "teachers": 35, "lunch_pct": 86.8, "charter": false, "lat": 37.207479, "lng": -93.340387, "ratio": 12.4}, {"name": "PLEASANT VIEW MIDDLE", "district": "SPRINGFIELD R-XII", "city": "SPRINGFIELD", "level": 2, "low_grade": 6, "high_grade": 8, "enrollment": 379, "teachers": 25, "lunch_pct": 55.7, "charter": false, "lat": 37.295994, "lng": -93.250051, "ratio": 15.2}, {"name": "WILLARD INTERMEDIATE-SOUTH", "district": "WILLARD R-II", "city": "SPRINGFIELD", "level": 2, "low_grade": 5, "high_grade": 6, "enrollment": 325, "teachers": 25, "lunch_pct": 44.9, "charter": false, "lat": 37.204136, "lng": -93.373011, "ratio": 13.0}], "high": [{"name": "GRAFF CAREER CENTER", "district": "OZARKS TECHNICAL COMM COLLEGE", "city": "SPRINGFIELD", "level": 3, "low_grade": 11, "high_grade": 12, "enrollment": 0, "teachers": 33, "lunch_pct": 0.0, "charter": false, "lat": 37.216467, "lng": -93.279562, "ratio": 0.0}, {"name": "COMMUNITY LEARNING CTR.", "district": "DIVISION OF YOUTH SERVICE", "city": "SPRINGFIELD", "level": 3, "low_grade": 6, "high_grade": 12, "enrollment": 10, "teachers": 3, "lunch_pct": 70.0, "charter": false, "lat": 37.179298, "lng": -93.361042, "ratio": 3.3}, {"name": "WILSON CREEK GROUP HOME", "district": "DIVISION OF YOUTH SERVICE", "city": "SPRINGFIELD", "level": 3, "low_grade": 6, "high_grade": 12, "enrollment": 12, "teachers": 2, "lunch_pct": 75.0, "charter": false, "lat": 37.178402, "lng": -93.361274, "ratio": 6.0}, {"name": "EXCEL SCHOOL", "district": "DIVISION OF YOUTH SERVICE", "city": "SPRINGFIELD", "level": 3, "low_grade": 6, "high_grade": 12, "enrollment": 13, "teachers": 3, "lunch_pct": 76.9, "charter": false, "lat": 37.190216, "lng": -93.314268, "ratio": 4.3}, {"name": "DATEMA HOUSE", "district": "DIVISION OF YOUTH SERVICE", "city": "SPRINGFIELD", "level": 3, "low_grade": 5, "high_grade": 12, "enrollment": 10, "teachers": 1, "lunch_pct": 70.0, "charter": false, "lat": 37.197835, "lng": -93.28979, "ratio": 10.0}, {"name": "JUVENILE JUSTICE CTR.", "district": "SPRINGFIELD R-XII", "city": "SPRINGFIELD", "level": 3, "low_grade": 7, "high_grade": 12, "enrollment": 0, "teachers": null, "lunch_pct": 0.0, "charter": false, "lat": 37.220353, "lng": -93.29137, "ratio": 1.0}, {"name": "CENTRAL HIGH", "district": "SPRINGFIELD R-XII", "city": "SPRINGFIELD", "level": 3, "low_grade": 6, "high_grade": 12, "enrollment": 1464, "teachers": 113, "lunch_pct": 51.0, "charter": false, "lat": 37.218109, "lng": -93.28848, "ratio": 13.0}, {"name": "GLENDALE HIGH", "district": "SPRINGFIELD R-XII", "city": "SPRINGFIELD", "level": 3, "low_grade": 9, "high_grade": 12, "enrollment": 1307, "teachers": 83, "lunch_pct": 33.3, "charter": false, "lat": 37.163375, "lng": -93.227327, "ratio": 15.7}, {"name": "HILLCREST HIGH", "district": "SPRINGFIELD R-XII", "city": "SPRINGFIELD", "level": 3, "low_grade": 9, "high_grade": 12, "enrollment": 1017, "teachers": 60, "lunch_pct": 63.5, "charter": false, "lat": 37.257624, "lng": -93.298931, "ratio": 16.9}, {"name": "KICKAPOO HIGH", "district": "SPRINGFIELD R-XII", "city": "SPRINGFIELD", "level": 3, "low_grade": 9, "high_grade": 12, "enrollment": 1881, "teachers": 96, "lunch_pct": 26.5, "charter": false, "lat": 37.146785, "lng": -93.290143, "ratio": 19.6}, {"name": "PARKVIEW HIGH", "district": "SPRINGFIELD R-XII", "city": "SPRINGFIELD", "level": 3, "low_grade": 9, "high_grade": 12, "enrollment": 1234, "teachers": 83, "lunch_pct": 62.4, "charter": false, "lat": 37.189641, "lng": -93.296827, "ratio": 14.9}, {"name": "STUDY ALTERNATIVE HIGH", "district": "SPRINGFIELD R-XII", "city": "SPRINGFIELD", "level": 3, "low_grade": 9, "high_grade": 12, "enrollment": 0, "teachers": null, "lunch_pct": 0.0, "charter": false, "lat": 37.210442, "lng": -93.324092, "ratio": 1.0}]}, "montgomery city": {"elem": [{"name": "MONTGOMERY CITY ELEM.", "district": "MONTGOMERY CO. R-II", "city": "MONTGOMERY CITY", "level": 1, "low_grade": -1, "high_grade": 5, "enrollment": 353, "teachers": 24, "lunch_pct": 49.0, "charter": false, "lat": 38.981032, "lng": -91.513756, "ratio": 14.7}], "middle": [{"name": "MONTGOMERY CO. MIDDLE", "district": "MONTGOMERY CO. R-II", "city": "MONTGOMERY CITY", "level": 2, "low_grade": 6, "high_grade": 8, "enrollment": 239, "teachers": 19, "lunch_pct": 48.5, "charter": false, "lat": 38.953085, "lng": -91.483432, "ratio": 12.6}], "high": [{"name": "MONTGOMERY CITY TREATMENT CTR.", "district": "DIVISION OF YOUTH SERVICE", "city": "MONTGOMERY CITY", "level": 3, "low_grade": 6, "high_grade": 12, "enrollment": 0, "teachers": null, "lunch_pct": 0.0, "charter": false, "lat": 38.959497, "lng": -91.495974, "ratio": 1.0}, {"name": "MONTGOMERY CO. HIGH", "district": "MONTGOMERY CO. R-II", "city": "MONTGOMERY CITY", "level": 3, "low_grade": 9, "high_grade": 12, "enrollment": 363, "teachers": 26, "lunch_pct": 42.7, "charter": false, "lat": 38.951575, "lng": -91.481658, "ratio": 14.0}]}, "poplar bluff": {"elem": [{"name": "EUGENE FIELD ELEM.", "district": "POPLAR BLUFF R-I", "city": "POPLAR BLUFF", "level": 1, "low_grade": 1, "high_grade": 3, "enrollment": 272, "teachers": 26, "lunch_pct": 98.9, "charter": false, "lat": 36.741575, "lng": -90.401248, "ratio": 10.5}, {"name": "LAKE ROAD ELEM.", "district": "POPLAR BLUFF R-I", "city": "POPLAR BLUFF", "level": 1, "low_grade": 1, "high_grade": 6, "enrollment": 305, "teachers": 24, "lunch_pct": 99.0, "charter": false, "lat": 36.778835, "lng": -90.333788, "ratio": 12.7}, {"name": "POPLAR BLUFF KINDERGARTEN CTR.", "district": "POPLAR BLUFF R-I", "city": "POPLAR BLUFF", "level": 1, "low_grade": 0, "high_grade": 0, "enrollment": 375, "teachers": 28, "lunch_pct": 99.2, "charter": false, "lat": 36.769309, "lng": -90.43937, "ratio": 13.4}, {"name": "O'NEAL ELEM.", "district": "POPLAR BLUFF R-I", "city": "POPLAR BLUFF", "level": 1, "low_grade": 1, "high_grade": 3, "enrollment": 325, "teachers": 28, "lunch_pct": 99.1, "charter": false, "lat": 36.782009, "lng": -90.41917, "ratio": 11.6}, {"name": "OAK GROVE ELEM.", "district": "POPLAR BLUFF R-I", "city": "POPLAR BLUFF", "level": 1, "low_grade": 1, "high_grade": 3, "enrollment": 318, "teachers": 23, "lunch_pct": 99.1, "charter": false, "lat": 36.789372, "lng": -90.453733, "ratio": 13.8}], "middle": [{"name": "POPLAR BLUFF JR. HIGH", "district": "POPLAR BLUFF R-I", "city": "POPLAR BLUFF", "level": 2, "low_grade": 7, "high_grade": 8, "enrollment": 782, "teachers": 53, "lunch_pct": 63.6, "charter": false, "lat": 36.761587, "lng": -90.408603, "ratio": 14.8}, {"name": "POPLAR BLUFF MIDDLE SCHOOL", "district": "POPLAR BLUFF R-I", "city": "POPLAR BLUFF", "level": 2, "low_grade": 4, "high_grade": 6, "enrollment": 1018, "teachers": 60, "lunch_pct": 74.0, "charter": false, "lat": 36.768989, "lng": -90.412457, "ratio": 17.0}], "high": [{"name": "W. E. SEARS YOUTH CTR.", "district": "DIVISION OF YOUTH SERVICE", "city": "POPLAR BLUFF", "level": 3, "low_grade": 5, "high_grade": 12, "enrollment": 43, "teachers": 10, "lunch_pct": 93.0, "charter": false, "lat": 36.861008, "lng": -90.510696, "ratio": 4.3}, {"name": "SIERRA-OSAGE TREATMENT CTR.", "district": "DIVISION OF YOUTH SERVICE", "city": "POPLAR BLUFF", "level": 3, "low_grade": 5, "high_grade": 12, "enrollment": 20, "teachers": 2, "lunch_pct": 85.0, "charter": false, "lat": 36.859082, "lng": -90.50892, "ratio": 10.0}, {"name": "POPLAR BLUFF TECH. CAREER CTR.", "district": "POPLAR BLUFF R-I", "city": "POPLAR BLUFF", "level": 3, "low_grade": 10, "high_grade": 12, "enrollment": 0, "teachers": 11, "lunch_pct": 0.0, "charter": false, "lat": 36.793724, "lng": -90.450398, "ratio": 0.1}, {"name": "POPLAR BLUFF HIGH", "district": "POPLAR BLUFF R-I", "city": "POPLAR BLUFF", "level": 3, "low_grade": 9, "high_grade": 12, "enrollment": 1504, "teachers": 89, "lunch_pct": 56.1, "charter": false, "lat": 36.792234, "lng": -90.451374, "ratio": 16.9}]}, "cape girardeau": {"elem": [{"name": "ALMA SCHRADER ELEM.", "district": "CAPE GIRARDEAU 63", "city": "CAPE GIRARDEAU", "level": 1, "low_grade": 0, "high_grade": 4, "enrollment": 351, "teachers": 28, "lunch_pct": 0.9, "charter": false, "lat": 37.3279, "lng": -89.553937, "ratio": 12.5}, {"name": "FRANKLIN ELEM.", "district": "CAPE GIRARDEAU 63", "city": "CAPE GIRARDEAU", "level": 1, "low_grade": -1, "high_grade": 4, "enrollment": 217, "teachers": 28, "lunch_pct": 1.4, "charter": false, "lat": 37.322361, "lng": -89.566557, "ratio": 7.8}, {"name": "CLIPPARD ELEM.", "district": "CAPE GIRARDEAU 63", "city": "CAPE GIRARDEAU", "level": 1, "low_grade": -1, "high_grade": 4, "enrollment": 470, "teachers": 42, "lunch_pct": 0.6, "charter": false, "lat": 37.322361, "lng": -89.566557, "ratio": 11.2}, {"name": "JEFFERSON ELEM.", "district": "CAPE GIRARDEAU 63", "city": "CAPE GIRARDEAU", "level": 1, "low_grade": -1, "high_grade": 5, "enrollment": 483, "teachers": 43, "lunch_pct": 10.1, "charter": false, "lat": 37.298159, "lng": -89.540922, "ratio": 11.2}, {"name": "BLANCHARD ELEM.", "district": "CAPE GIRARDEAU 63", "city": "CAPE GIRARDEAU", "level": 1, "low_grade": -1, "high_grade": 4, "enrollment": 296, "teachers": 29, "lunch_pct": 1.0, "charter": false, "lat": 37.329933, "lng": -89.525079, "ratio": 10.2}, {"name": "NELL HOLCOMB ELEM.", "district": "NELL HOLCOMB R-IV", "city": "CAPE GIRARDEAU", "level": 1, "low_grade": -1, "high_grade": 8, "enrollment": 244, "teachers": 28, "lunch_pct": 41.0, "charter": false, "lat": 37.386717, "lng": -89.473804, "ratio": 8.7}], "middle": [{"name": "CENTRAL JR. HIGH", "district": "CAPE GIRARDEAU 63", "city": "CAPE GIRARDEAU", "level": 2, "low_grade": 7, "high_grade": 8, "enrollment": 618, "teachers": 50, "lunch_pct": 0.5, "charter": false, "lat": 37.308049, "lng": -89.546481, "ratio": 12.4}, {"name": "CENTRAL MIDDLE", "district": "CAPE GIRARDEAU 63", "city": "CAPE GIRARDEAU", "level": 2, "low_grade": 5, "high_grade": 6, "enrollment": 604, "teachers": 49, "lunch_pct": 0.5, "charter": false, "lat": 37.310398, "lng": -89.545132, "ratio": 12.3}], "high": [{"name": "GIRARDOT CENTER FOR YOUTH", "district": "DIVISION OF YOUTH SERVICE", "city": "CAPE GIRARDEAU", "level": 3, "low_grade": 5, "high_grade": 12, "enrollment": 18, "teachers": 4, "lunch_pct": 83.3, "charter": false, "lat": 37.312765, "lng": -89.523019, "ratio": 4.5}, {"name": "ECHO DAY TREATMENT CTR.", "district": "DIVISION OF YOUTH SERVICE", "city": "CAPE GIRARDEAU", "level": 3, "low_grade": 6, "high_grade": 12, "enrollment": 0, "teachers": null, "lunch_pct": 0.0, "charter": false, "lat": 37.286142, "lng": -89.57711, "ratio": 1.0}, {"name": "CENTRAL HIGH", "district": "CAPE GIRARDEAU 63", "city": "CAPE GIRARDEAU", "level": 3, "low_grade": 9, "high_grade": 12, "enrollment": 1341, "teachers": 89, "lunch_pct": 0.2, "charter": false, "lat": 37.276811, "lng": -89.565026, "ratio": 15.1}, {"name": "CAPE GIRARDEAU CAR  TECH CTR.", "district": "CAPE GIRARDEAU 63", "city": "CAPE GIRARDEAU", "level": 3, "low_grade": 9, "high_grade": 12, "enrollment": 0, "teachers": 22, "lunch_pct": 0.0, "charter": false, "lat": 37.273952, "lng": -89.565244, "ratio": 0.0}]}, "st louis": {"elem": [{"name": "MO School for the Blind - ELEM", "district": "MO SCHOOL FOR THE BLIND", "city": "ST LOUIS", "level": 1, "low_grade": 0, "high_grade": 8, "enrollment": 12, "teachers": 5, "lunch_pct": 25.0, "charter": false, "lat": 38.608337, "lng": -90.244549, "ratio": 2.4}, {"name": "PREMIER CHARTER SCHOOL", "district": "PREMIER CHARTER SCHOOL", "city": "ST LOUIS", "level": 1, "low_grade": -1, "high_grade": 8, "enrollment": 918, "teachers": 105, "lunch_pct": 54.4, "charter": true, "lat": 38.601629, "lng": -90.27866, "ratio": 8.7}, {"name": "ASPIRE ACADEMY", "district": "CONFLUENCE ACADEMIES", "city": "ST LOUIS", "level": 1, "low_grade": -1, "high_grade": 2, "enrollment": 100, "teachers": 14, "lunch_pct": 98.0, "charter": true, "lat": 38.695726, "lng": -90.245604, "ratio": 7.1}, {"name": "OLD NORTH ACADEMY", "district": "CONFLUENCE ACADEMIES", "city": "ST LOUIS", "level": 1, "low_grade": -1, "high_grade": 8, "enrollment": 546, "teachers": 46, "lunch_pct": 99.3, "charter": true, "lat": 38.654694, "lng": -90.196554, "ratio": 11.9}, {"name": "SOUTH CITY", "district": "CONFLUENCE ACADEMIES", "city": "ST LOUIS", "level": 1, "low_grade": -1, "high_grade": 8, "enrollment": 787, "teachers": 65, "lunch_pct": 99.2, "charter": true, "lat": 38.579799, "lng": -90.238105, "ratio": 12.1}, {"name": "CITY GARDEN MONTESSORI ECEC", "district": "CITY GARDEN MONTESSORI", "city": "ST LOUIS", "level": 1, "low_grade": -1, "high_grade": 0, "enrollment": 200, "teachers": 10, "lunch_pct": 40.5, "charter": true, "lat": 38.620086, "lng": -90.255385, "ratio": 20.0}, {"name": "ST LOUIS LANG IMMERSION SCHOOL", "district": "ST. LOUIS LANG IMMERSION SCH", "city": "ST LOUIS", "level": 1, "low_grade": -1, "high_grade": 8, "enrollment": 395, "teachers": 34, "lunch_pct": 54.2, "charter": true, "lat": 38.631312, "lng": -90.206975, "ratio": 11.6}, {"name": "GOTSCH INTERMEDIATE SCH.", "district": "AFFTON 101", "city": "ST LOUIS", "level": 1, "low_grade": 3, "high_grade": 5, "enrollment": 553, "teachers": 42, "lunch_pct": 31.8, "charter": false, "lat": 38.56158, "lng": -90.339323, "ratio": 13.2}, {"name": "MESNIER PRIMARY SCH.", "district": "AFFTON 101", "city": "ST LOUIS", "level": 1, "low_grade": -1, "high_grade": 2, "enrollment": 715, "teachers": 49, "lunch_pct": 28.8, "charter": false, "lat": 38.555676, "lng": -90.33636, "ratio": 14.6}, {"name": "BAYLESS ELEMENTARY", "district": "BAYLESS", "city": "ST LOUIS", "level": 1, "low_grade": -1, "high_grade": 5, "enrollment": 814, "teachers": 59, "lunch_pct": 48.3, "charter": false, "lat": 38.552951, "lng": -90.300714, "ratio": 13.8}, {"name": "BERMUDA ELEMENTARY", "district": "FERGUSON-FLORISSANT R-II", "city": "ST LOUIS", "level": 1, "low_grade": -1, "high_grade": 2, "enrollment": 143, "teachers": 20, "lunch_pct": 97.9, "charter": false, "lat": 38.726823, "lng": -90.294522, "ratio": 7.2}, {"name": "KEEVEN ELEM.", "district": "HAZELWOOD", "city": "ST LOUIS", "level": 1, "low_grade": -1, "high_grade": 5, "enrollment": 267, "teachers": 24, "lunch_pct": 98.9, "charter": false, "lat": 38.777687, "lng": -90.263513, "ratio": 11.1}, {"name": "GRANNEMANN ELEM.", "district": "HAZELWOOD", "city": "ST LOUIS", "level": 1, "low_grade": -1, "high_grade": 5, "enrollment": 411, "teachers": 31, "lunch_pct": 97.8, "charter": false, "lat": 38.781744, "lng": -90.243059, "ratio": 13.3}, {"name": "LARIMORE ELEM.", "district": "HAZELWOOD", "city": "ST LOUIS", "level": 1, "low_grade": -1, "high_grade": 5, "enrollment": 341, "teachers": 26, "lunch_pct": 99.1, "charter": false, "lat": 38.788924, "lng": -90.197965, "ratio": 13.1}, {"name": "TWILLMAN ELEM.", "district": "HAZELWOOD", "city": "ST LOUIS", "level": 1, "low_grade": -1, "high_grade": 5, "enrollment": 326, "teachers": 25, "lunch_pct": 99.1, "charter": false, "lat": 38.785107, "lng": -90.21824, "ratio": 13.0}, {"name": "ARROWPOINT ELEM.", "district": "HAZELWOOD", "city": "ST LOUIS", "level": 1, "low_grade": -1, "high_grade": 5, "enrollment": 358, "teachers": 32, "lunch_pct": 98.9, "charter": false, "lat": 38.812128, "lng": -90.227284, "ratio": 11.2}, {"name": "CONWAY ELEMENTARY", "district": "LADUE", "city": "ST LOUIS", "level": 1, "low_grade": 0, "high_grade": 4, "enrollment": 408, "teachers": 32, "lunch_pct": 6.1, "charter": false, "lat": 38.640179, "lng": -90.392773, "ratio": 12.8}, {"name": "OLD BONHOMME ELEMENTARY", "district": "LADUE", "city": "ST LOUIS", "level": 1, "low_grade": 0, "high_grade": 4, "enrollment": 391, "teachers": 35, "lunch_pct": 10.2, "charter": false, "lat": 38.669085, "lng": -90.389009, "ratio": 11.2}, {"name": "REED ELEMENTARY", "district": "LADUE", "city": "ST LOUIS", "level": 1, "low_grade": 0, "high_grade": 4, "enrollment": 369, "teachers": 32, "lunch_pct": 8.4, "charter": false, "lat": 38.652709, "lng": -90.363611, "ratio": 11.5}, {"name": "SPOEDE ELEMENTARY", "district": "LADUE", "city": "ST LOUIS", "level": 1, "low_grade": 0, "high_grade": 4, "enrollment": 365, "teachers": 31, "lunch_pct": 12.6, "charter": false, "lat": 38.663104, "lng": -90.416294, "ratio": 11.8}, {"name": "CRESTWOOD ELEM.", "district": "LINDBERGH SCHOOLS", "city": "ST LOUIS", "level": 1, "low_grade": 0, "high_grade": 5, "enrollment": 450, "teachers": 32, "lunch_pct": 14.0, "charter": false, "lat": 38.563382, "lng": -90.38353, "ratio": 14.1}, {"name": "KENNERLY ELEM.", "district": "LINDBERGH SCHOOLS", "city": "ST LOUIS", "level": 1, "low_grade": 0, "high_grade": 5, "enrollment": 489, "teachers": 38, "lunch_pct": 7.6, "charter": false, "lat": 38.5109, "lng": -90.377724, "ratio": 12.9}, {"name": "LONG ELEM.", "district": "LINDBERGH SCHOOLS", "city": "ST LOUIS", "level": 1, "low_grade": 0, "high_grade": 5, "enrollment": 545, "teachers": 34, "lunch_pct": 7.0, "charter": false, "lat": 38.546538, "lng": -90.381204, "ratio": 16.0}, {"name": "SAPPINGTON ELEM.", "district": "LINDBERGH SCHOOLS", "city": "ST LOUIS", "level": 1, "low_grade": 0, "high_grade": 5, "enrollment": 504, "teachers": 34, "lunch_pct": 13.9, "charter": false, "lat": 38.542703, "lng": -90.364917, "ratio": 14.8}, {"name": "HAGEMANN ELEM.", "district": "MEHLVILLE R-IX", "city": "ST LOUIS", "level": 1, "low_grade": 0, "high_grade": 5, "enrollment": 399, "teachers": 26, "lunch_pct": 23.8, "charter": false, "lat": 38.469502, "lng": -90.398708, "ratio": 15.3}, {"name": "BEASLEY ELEM.", "district": "MEHLVILLE R-IX", "city": "ST LOUIS", "level": 1, "low_grade": 0, "high_grade": 5, "enrollment": 283, "teachers": 27, "lunch_pct": 52.7, "charter": false, "lat": 38.496163, "lng": -90.287175, "ratio": 10.5}, {"name": "BIERBAUM ELEM.", "district": "MEHLVILLE R-IX", "city": "ST LOUIS", "level": 1, "low_grade": 0, "high_grade": 5, "enrollment": 533, "teachers": 43, "lunch_pct": 53.5, "charter": false, "lat": 38.530372, "lng": -90.310287, "ratio": 12.4}, {"name": "BLADES ELEM.", "district": "MEHLVILLE R-IX", "city": "ST LOUIS", "level": 1, "low_grade": 0, "high_grade": 5, "enrollment": 430, "teachers": 31, "lunch_pct": 30.2, "charter": false, "lat": 38.482672, "lng": -90.332668, "ratio": 13.9}, {"name": "OAKVILLE ELEM.", "district": "MEHLVILLE R-IX", "city": "ST LOUIS", "level": 1, "low_grade": 0, "high_grade": 5, "enrollment": 386, "teachers": 26, "lunch_pct": 22.3, "charter": false, "lat": 38.478538, "lng": -90.320748, "ratio": 14.8}, {"name": "POINT ELEM.", "district": "MEHLVILLE R-IX", "city": "ST LOUIS", "level": 1, "low_grade": 0, "high_grade": 5, "enrollment": 400, "teachers": 27, "lunch_pct": 15.2, "charter": false, "lat": 38.440539, "lng": -90.321197, "ratio": 14.8}, {"name": "TRAUTWEIN ELEM.", "district": "MEHLVILLE R-IX", "city": "ST LOUIS", "level": 1, "low_grade": 0, "high_grade": 5, "enrollment": 359, "teachers": 28, "lunch_pct": 42.3, "charter": false, "lat": 38.494432, "lng": -90.368596, "ratio": 12.8}, {"name": "WOHLWEND ELEM.", "district": "MEHLVILLE R-IX", "city": "ST LOUIS", "level": 1, "low_grade": 0, "high_grade": 5, "enrollment": 410, "teachers": 31, "lunch_pct": 26.6, "charter": false, "lat": 38.459212, "lng": -90.304506, "ratio": 13.2}, {"name": "FORDER ELEM.", "district": "MEHLVILLE R-IX", "city": "ST LOUIS", "level": 1, "low_grade": 0, "high_grade": 5, "enrollment": 363, "teachers": 31, "lunch_pct": 52.3, "charter": false, "lat": 38.524739, "lng": -90.286945, "ratio": 11.7}, {"name": "ROGERS ELEM.", "district": "MEHLVILLE R-IX", "city": "ST LOUIS", "level": 1, "low_grade": 0, "high_grade": 5, "enrollment": 423, "teachers": 29, "lunch_pct": 13.2, "charter": false, "lat": 38.419846, "lng": -90.336685, "ratio": 14.6}, {"name": "JEFFERSON ELEM.", "district": "NORMANDY SCHOOLS COLLABORATIVE", "city": "ST LOUIS", "level": 1, "low_grade": 1, "high_grade": 8, "enrollment": 262, "teachers": 17, "lunch_pct": 98.9, "charter": false, "lat": 38.71002, "lng": -90.294344, "ratio": 15.4}, {"name": "WASHINGTON ELEM.", "district": "NORMANDY SCHOOLS COLLABORATIVE", "city": "ST LOUIS", "level": 1, "low_grade": 1, "high_grade": 8, "enrollment": 359, "teachers": 19, "lunch_pct": 99.2, "charter": false, "lat": 38.684564, "lng": -90.32773, "ratio": 18.9}, {"name": "LUCAS CROSSING ELEM. COMPLEX", "district": "NORMANDY SCHOOLS COLLABORATIVE", "city": "ST LOUIS", "level": 1, "low_grade": 1, "high_grade": 8, "enrollment": 636, "teachers": 36, "lunch_pct": 99.5, "charter": false, "lat": 38.708154, "lng": -90.306272, "ratio": 17.7}, {"name": "CRAIG ELEM.", "district": "PARKWAY C-2", "city": "ST LOUIS", "level": 1, "low_grade": 0, "high_grade": 5, "enrollment": 389, "teachers": 28, "lunch_pct": 17.0, "charter": false, "lat": 38.684287, "lng": -90.441698, "ratio": 13.9}, {"name": "ROSS ELEM.", "district": "PARKWAY C-2", "city": "ST LOUIS", "level": 1, "low_grade": 0, "high_grade": 5, "enrollment": 385, "teachers": 31, "lunch_pct": 31.9, "charter": false, "lat": 38.680115, "lng": -90.458116, "ratio": 12.4}, {"name": "IVELAND ELEM.", "district": "RITENOUR", "city": "ST LOUIS", "level": 1, "low_grade": 0, "high_grade": 5, "enrollment": 439, "teachers": 34, "lunch_pct": 99.3, "charter": false, "lat": 38.693291, "lng": -90.383276, "ratio": 12.9}, {"name": "KRATZ ELEM.", "district": "RITENOUR", "city": "ST LOUIS", "level": 1, "low_grade": 0, "high_grade": 5, "enrollment": 538, "teachers": 41, "lunch_pct": 99.4, "charter": false, "lat": 38.731533, "lng": -90.365922, "ratio": 13.1}, {"name": "MARION ELEM.", "district": "RITENOUR", "city": "ST LOUIS", "level": 1, "low_grade": 0, "high_grade": 5, "enrollment": 475, "teachers": 36, "lunch_pct": 99.4, "charter": false, "lat": 38.706658, "lng": -90.37644, "ratio": 13.2}, {"name": "MARVIN ELEM.", "district": "RITENOUR", "city": "ST LOUIS", "level": 1, "low_grade": 0, "high_grade": 5, "enrollment": 517, "teachers": 37, "lunch_pct": 99.4, "charter": false, "lat": 38.716938, "lng": -90.358946, "ratio": 14.0}, {"name": "WYLAND ELEM.", "district": "RITENOUR", "city": "ST LOUIS", "level": 1, "low_grade": 0, "high_grade": 5, "enrollment": 490, "teachers": 35, "lunch_pct": 99.4, "charter": false, "lat": 38.694067, "lng": -90.356402, "ratio": 14.0}, {"name": "GIBSON ELEM.", "district": "RIVERVIEW GARDENS", "city": "ST LOUIS", "level": 1, "low_grade": 0, "high_grade": 5, "enrollment": 429, "teachers": 22, "lunch_pct": 99.3, "charter": false, "lat": 38.748977, "lng": -90.232429, "ratio": 19.5}, {"name": "DANFORTH ELEM.", "district": "RIVERVIEW GARDENS", "city": "ST LOUIS", "level": 1, "low_grade": 0, "high_grade": 5, "enrollment": 271, "teachers": 16, "lunch_pct": 98.9, "charter": false, "lat": 38.734161, "lng": -90.234424, "ratio": 16.9}, {"name": "GLASGOW ELEM.", "district": "RIVERVIEW GARDENS", "city": "ST LOUIS", "level": 1, "low_grade": 0, "high_grade": 5, "enrollment": 269, "teachers": 13, "lunch_pct": 98.9, "charter": false, "lat": 38.758764, "lng": -90.206168, "ratio": 20.7}, {"name": "KOCH ELEM.", "district": "RIVERVIEW GARDENS", "city": "ST LOUIS", "level": 1, "low_grade": 0, "high_grade": 5, "enrollment": 303, "teachers": 14, "lunch_pct": 99.0, "charter": false, "lat": 38.741623, "lng": -90.264289, "ratio": 21.6}, {"name": "LEMASTERS ELEM.", "district": "RIVERVIEW GARDENS", "city": "ST LOUIS", "level": 1, "low_grade": 0, "high_grade": 5, "enrollment": 295, "teachers": 10, "lunch_pct": 99.0, "charter": false, "lat": 38.75733, "lng": -90.269298, "ratio": 29.5}, {"name": "LEWIS AND CLARK ELEM.", "district": "RIVERVIEW GARDENS", "city": "ST LOUIS", "level": 1, "low_grade": 0, "high_grade": 5, "enrollment": 145, "teachers": 5, "lunch_pct": 97.9, "charter": false, "lat": 38.756855, "lng": -90.242611, "ratio": 29.0}, {"name": "MEADOWS ELEM.", "district": "RIVERVIEW GARDENS", "city": "ST LOUIS", "level": 1, "low_grade": 0, "high_grade": 5, "enrollment": 333, "teachers": 17, "lunch_pct": 99.1, "charter": false, "lat": 38.747242, "lng": -90.251176, "ratio": 19.6}, {"name": "HIGHLAND ELEM.", "district": "RIVERVIEW GARDENS", "city": "ST LOUIS", "level": 1, "low_grade": 0, "high_grade": 5, "enrollment": 274, "teachers": 15, "lunch_pct": 98.9, "charter": false, "lat": 38.754625, "lng": -90.197559, "ratio": 18.3}, {"name": "MOLINE ELEM.", "district": "RIVERVIEW GARDENS", "city": "ST LOUIS", "level": 1, "low_grade": 0, "high_grade": 5, "enrollment": 295, "teachers": 22, "lunch_pct": 99.0, "charter": false, "lat": 38.748225, "lng": -90.265279, "ratio": 13.4}, {"name": "HICKEY ELEM.", "district": "ST. LOUIS CITY", "city": "ST LOUIS", "level": 1, "low_grade": -1, "high_grade": 6, "enrollment": 273, "teachers": 19, "lunch_pct": 98.9, "charter": false, "lat": 38.669287, "lng": -90.24517, "ratio": 14.4}, {"name": "MULLANPHY BOTANICAL GARDENS", "district": "ST. LOUIS CITY", "city": "ST LOUIS", "level": 1, "low_grade": -1, "high_grade": 5, "enrollment": 451, "teachers": 34, "lunch_pct": 99.3, "charter": false, "lat": 38.617051, "lng": -90.254631, "ratio": 13.3}, {"name": "GATEWAY ELEM.", "district": "ST. LOUIS CITY", "city": "ST LOUIS", "level": 1, "low_grade": -1, "high_grade": 5, "enrollment": 516, "teachers": 27, "lunch_pct": 99.4, "charter": false, "lat": 38.641557, "lng": -90.210958, "ratio": 19.1}, {"name": "STIX EARLY CHILDHOOD CTR.", "district": "ST. LOUIS CITY", "city": "ST LOUIS", "level": 1, "low_grade": -1, "high_grade": 2, "enrollment": 474, "teachers": 26, "lunch_pct": 99.4, "charter": false, "lat": 38.631854, "lng": -90.255166, "ratio": 18.2}, {"name": "ASHLAND ELEM. AND BR.", "district": "ST. LOUIS CITY", "city": "ST LOUIS", "level": 1, "low_grade": -1, "high_grade": 6, "enrollment": 226, "teachers": 16, "lunch_pct": 98.7, "charter": false, "lat": 38.671772, "lng": -90.235749, "ratio": 14.1}, {"name": "BRYAN HILL ELEM.", "district": "ST. LOUIS CITY", "city": "ST LOUIS", "level": 1, "low_grade": -1, "high_grade": 5, "enrollment": 182, "teachers": 17, "lunch_pct": 98.4, "charter": false, "lat": 38.671147, "lng": -90.212613, "ratio": 10.7}, {"name": "BUDER ELEM.", "district": "ST. LOUIS CITY", "city": "ST LOUIS", "level": 1, "low_grade": -1, "high_grade": 5, "enrollment": 403, "teachers": 28, "lunch_pct": 99.3, "charter": false, "lat": 38.588994, "lng": -90.283197, "ratio": 14.4}, {"name": "COLE ELEM.", "district": "ST. LOUIS CITY", "city": "ST LOUIS", "level": 1, "low_grade": -1, "high_grade": 8, "enrollment": 326, "teachers": 24, "lunch_pct": 99.1, "charter": false, "lat": 38.645119, "lng": -90.238218, "ratio": 13.6}, {"name": "ELIAS MICHAEL ELEM.", "district": "ST. LOUIS CITY", "city": "ST LOUIS", "level": 1, "low_grade": -1, "high_grade": 8, "enrollment": 43, "teachers": 10, "lunch_pct": 93.0, "charter": false, "lat": 38.641389, "lng": -90.210167, "ratio": 4.3}, {"name": "FROEBEL ELEM.", "district": "ST. LOUIS CITY", "city": "ST LOUIS", "level": 1, "low_grade": -1, "high_grade": 5, "enrollment": 176, "teachers": 13, "lunch_pct": 98.3, "charter": false, "lat": 38.588384, "lng": -90.234015, "ratio": 13.5}, {"name": "MASON ELEM.", "district": "ST. LOUIS CITY", "city": "ST LOUIS", "level": 1, "low_grade": -1, "high_grade": 6, "enrollment": 389, "teachers": 28, "lunch_pct": 99.2, "charter": false, "lat": 38.610726, "lng": -90.290185, "ratio": 13.9}, {"name": "HAMILTON ELEM. COMMUNITY ED.", "district": "ST. LOUIS CITY", "city": "ST LOUIS", "level": 1, "low_grade": -1, "high_grade": 5, "enrollment": 253, "teachers": 19, "lunch_pct": 98.8, "charter": false, "lat": 38.65301, "lng": -90.289864, "ratio": 13.3}, {"name": "HENRY ELEM.", "district": "ST. LOUIS CITY", "city": "ST LOUIS", "level": 1, "low_grade": -1, "high_grade": 6, "enrollment": 204, "teachers": 15, "lunch_pct": 98.5, "charter": false, "lat": 38.6372, "lng": -90.1913, "ratio": 13.6}, {"name": "HERZOG ELEM.", "district": "ST. LOUIS CITY", "city": "ST LOUIS", "level": 1, "low_grade": -1, "high_grade": 6, "enrollment": 247, "teachers": 17, "lunch_pct": 98.8, "charter": false, "lat": 38.711053, "lng": -90.252072, "ratio": 14.5}, {"name": "JEFFERSON ELEM.", "district": "ST. LOUIS CITY", "city": "ST LOUIS", "level": 1, "low_grade": -1, "high_grade": 5, "enrollment": 127, "teachers": 12, "lunch_pct": 97.6, "charter": false, "lat": 38.641044, "lng": -90.202759, "ratio": 10.6}, {"name": "LACLEDE ELEM.", "district": "ST. LOUIS CITY", "city": "ST LOUIS", "level": 1, "low_grade": -1, "high_grade": 8, "enrollment": 264, "teachers": 19, "lunch_pct": 98.9, "charter": false, "lat": 38.677382, "lng": -90.276805, "ratio": 13.9}, {"name": "LEXINGTON ELEM.", "district": "ST. LOUIS CITY", "city": "ST LOUIS", "level": 1, "low_grade": -1, "high_grade": 5, "enrollment": 274, "teachers": 22, "lunch_pct": 98.9, "charter": false, "lat": 38.674287, "lng": -90.254973, "ratio": 12.5}, {"name": "MALLINCKRODT A.B.I. ELEM.", "district": "ST. LOUIS CITY", "city": "ST LOUIS", "level": 1, "low_grade": -1, "high_grade": 5, "enrollment": 284, "teachers": 18, "lunch_pct": 98.9, "charter": false, "lat": 38.596359, "lng": -90.293696, "ratio": 15.8}, {"name": "MANN ELEM.", "district": "ST. LOUIS CITY", "city": "ST LOUIS", "level": 1, "low_grade": -1, "high_grade": 6, "enrollment": 240, "teachers": 21, "lunch_pct": 98.8, "charter": false, "lat": 38.60225, "lng": -90.254679, "ratio": 11.4}, {"name": "MERAMEC ELEM.", "district": "ST. LOUIS CITY", "city": "ST LOUIS", "level": 1, "low_grade": -1, "high_grade": 5, "enrollment": 202, "teachers": 16, "lunch_pct": 98.5, "charter": false, "lat": 38.579808, "lng": -90.232386, "ratio": 12.6}, {"name": "OAK HILL ELEM.", "district": "ST. LOUIS CITY", "city": "ST LOUIS", "level": 1, "low_grade": -1, "high_grade": 5, "enrollment": 238, "teachers": 14, "lunch_pct": 98.7, "charter": false, "lat": 38.588901, "lng": -90.264196, "ratio": 17.0}, {"name": "SHENANDOAH ELEM.", "district": "ST. LOUIS CITY", "city": "ST LOUIS", "level": 1, "low_grade": -1, "high_grade": 6, "enrollment": 136, "teachers": 13, "lunch_pct": 97.8, "charter": false, "lat": 38.60911, "lng": -90.236869, "ratio": 10.5}, {"name": "SIGEL ELEM. COMM. ED. CTR.", "district": "ST. LOUIS CITY", "city": "ST LOUIS", "level": 1, "low_grade": -1, "high_grade": 6, "enrollment": 219, "teachers": 16, "lunch_pct": 98.6, "charter": false, "lat": 38.609895, "lng": -90.219445, "ratio": 13.7}, {"name": "WALBRIDGE ELEM. COMMUNITY ED.", "district": "ST. LOUIS CITY", "city": "ST LOUIS", "level": 1, "low_grade": -1, "high_grade": 6, "enrollment": 128, "teachers": 10, "lunch_pct": 97.7, "charter": false, "lat": 38.693713, "lng": -90.250809, "ratio": 12.8}, {"name": "WOODWARD ELEM.", "district": "ST. LOUIS CITY", "city": "ST LOUIS", "level": 1, "low_grade": -1, "high_grade": 5, "enrollment": 239, "teachers": 18, "lunch_pct": 98.7, "charter": false, "lat": 38.565681, "lng": -90.249943, "ratio": 13.3}, {"name": "HODGEN ELEM.", "district": "ST. LOUIS CITY", "city": "ST LOUIS", "level": 1, "low_grade": -1, "high_grade": 6, "enrollment": 199, "teachers": 22, "lunch_pct": 98.5, "charter": false, "lat": 38.616568, "lng": -90.224704, "ratio": 9.0}, {"name": "LYON AT BLOW ELEM.", "district": "ST. LOUIS CITY", "city": "ST LOUIS", "level": 1, "low_grade": -1, "high_grade": 8, "enrollment": 280, "teachers": 26, "lunch_pct": 98.9, "charter": false, "lat": 38.554909, "lng": -90.256861, "ratio": 10.8}, {"name": "SHAW VISUAL/PERF. ARTS CTR.", "district": "ST. LOUIS CITY", "city": "ST LOUIS", "level": 1, "low_grade": -1, "high_grade": 5, "enrollment": 321, "teachers": 23, "lunch_pct": 99.1, "charter": false, "lat": 38.611747, "lng": -90.27707, "ratio": 14.0}, {"name": "PEABODY ELEM.", "district": "ST. LOUIS CITY", "city": "ST LOUIS", "level": 1, "low_grade": -1, "high_grade": 5, "enrollment": 152, "teachers": 11, "lunch_pct": 98.0, "charter": false, "lat": 38.61671, "lng": -90.205053, "ratio": 13.8}, {"name": "AMES VISUAL/PERF. ARTS", "district": "ST. LOUIS CITY", "city": "ST LOUIS", "level": 1, "low_grade": -1, "high_grade": 5, "enrollment": 158, "teachers": 10, "lunch_pct": 98.1, "charter": false, "lat": 38.652765, "lng": -90.195367, "ratio": 15.8}, {"name": "WASHINGTON MONTESSORI", "district": "ST. LOUIS CITY", "city": "ST LOUIS", "level": 1, "low_grade": -1, "high_grade": 5, "enrollment": 277, "teachers": 20, "lunch_pct": 98.9, "charter": false, "lat": 38.65671, "lng": -90.259212, "ratio": 13.8}, {"name": "DEWEY SCH.-INTERNAT'L. STUDIES", "district": "ST. LOUIS CITY", "city": "ST LOUIS", "level": 1, "low_grade": -1, "high_grade": 5, "enrollment": 390, "teachers": 31, "lunch_pct": 99.2, "charter": false, "lat": 38.631061, "lng": -90.302379, "ratio": 12.6}, {"name": "BETTY WHEELER CLASSICAL JR. AC", "district": "ST. LOUIS CITY", "city": "ST LOUIS", "level": 1, "low_grade": -1, "high_grade": 5, "enrollment": 234, "teachers": 17, "lunch_pct": 98.7, "charter": false, "lat": 38.597948, "lng": -90.276605, "ratio": 13.8}, {"name": "WILKINSON EARLY CHILDHOOD CTR.", "district": "ST. LOUIS CITY", "city": "ST LOUIS", "level": 1, "low_grade": -1, "high_grade": 2, "enrollment": 256, "teachers": 19, "lunch_pct": 98.8, "charter": false, "lat": 38.621839, "lng": -90.304572, "ratio": 13.5}, {"name": "COLUMBIA ELEM. COMM. ED. CTR.", "district": "ST. LOUIS CITY", "city": "ST LOUIS", "level": 1, "low_grade": -1, "high_grade": 6, "enrollment": 221, "teachers": 15, "lunch_pct": 98.6, "charter": false, "lat": 38.653581, "lng": -90.218917, "ratio": 14.7}, {"name": "ADAMS ELEM.", "district": "ST. LOUIS CITY", "city": "ST LOUIS", "level": 1, "low_grade": -1, "high_grade": 6, "enrollment": 174, "teachers": 14, "lunch_pct": 98.3, "charter": false, "lat": 38.624746, "lng": -90.256722, "ratio": 12.4}, {"name": "MONROE ELEM.", "district": "ST. LOUIS CITY", "city": "ST LOUIS", "level": 1, "low_grade": -1, "high_grade": 6, "enrollment": 158, "teachers": 12, "lunch_pct": 98.1, "charter": false, "lat": 38.588103, "lng": -90.224821, "ratio": 13.2}, {"name": "WOERNER ELEM.", "district": "ST. LOUIS CITY", "city": "ST LOUIS", "level": 1, "low_grade": -1, "high_grade": 5, "enrollment": 362, "teachers": 25, "lunch_pct": 99.2, "charter": false, "lat": 38.569495, "lng": -90.268916, "ratio": 14.5}, {"name": "EARL NANCE SR. ELEM.", "district": "ST. LOUIS CITY", "city": "ST LOUIS", "level": 1, "low_grade": -1, "high_grade": 6, "enrollment": 321, "teachers": 22, "lunch_pct": 99.1, "charter": false, "lat": 38.721419, "lng": -90.241124, "ratio": 14.6}, {"name": "AVERY ELEM.", "district": "WEBSTER GROVES", "city": "ST LOUIS", "level": 1, "low_grade": 0, "high_grade": 5, "enrollment": 386, "teachers": 30, "lunch_pct": 9.6, "charter": false, "lat": 38.604133, "lng": -90.344122, "ratio": 12.9}, {"name": "BRISTOL ELEM.", "district": "WEBSTER GROVES", "city": "ST LOUIS", "level": 1, "low_grade": 0, "high_grade": 5, "enrollment": 388, "teachers": 27, "lunch_pct": 6.4, "charter": false, "lat": 38.592259, "lng": -90.360447, "ratio": 14.4}, {"name": "CLARK ELEM.", "district": "WEBSTER GROVES", "city": "ST LOUIS", "level": 1, "low_grade": 0, "high_grade": 5, "enrollment": 289, "teachers": 24, "lunch_pct": 4.5, "charter": false, "lat": 38.575279, "lng": -90.369244, "ratio": 12.0}, {"name": "EDGAR ROAD ELEM.", "district": "WEBSTER GROVES", "city": "ST LOUIS", "level": 1, "low_grade": 0, "high_grade": 5, "enrollment": 380, "teachers": 29, "lunch_pct": 4.2, "charter": false, "lat": 38.5719, "lng": -90.348387, "ratio": 13.1}, {"name": "HUDSON ELEM.", "district": "WEBSTER GROVES", "city": "ST LOUIS", "level": 1, "low_grade": 0, "high_grade": 5, "enrollment": 202, "teachers": 19, "lunch_pct": 12.4, "charter": false, "lat": 38.609177, "lng": -90.373468, "ratio": 10.6}, {"name": "DR. HENRY GIVENS JR. ELEM.", "district": "WEBSTER GROVES", "city": "ST LOUIS", "level": 1, "low_grade": 0, "high_grade": 5, "enrollment": 259, "teachers": 21, "lunch_pct": 27.4, "charter": false, "lat": 38.604834, "lng": -90.365565, "ratio": 12.3}], "middle": [{"name": "LIFT FOR LIFE ACADEMY", "district": "LIFT FOR LIFE ACADEMY", "city": "ST LOUIS", "level": 2, "low_grade": 5, "high_grade": 8, "enrollment": 256, "teachers": 25, "lunch_pct": 98.8, "charter": true, "lat": 38.608525, "lng": -90.200442, "ratio": 10.2}, {"name": "KIPP INSPIRE ACADEMY", "district": "KIPP ST LOUIS PUBLIC SCHOOLS", "city": "ST LOUIS", "level": 2, "low_grade": 5, "high_grade": 8, "enrollment": 401, "teachers": 41, "lunch_pct": 99.3, "charter": true, "lat": 38.640485, "lng": -90.208284, "ratio": 9.8}, {"name": "ROGERS MIDDLE", "district": "AFFTON 101", "city": "ST LOUIS", "level": 2, "low_grade": 6, "high_grade": 8, "enrollment": 601, "teachers": 39, "lunch_pct": 36.6, "charter": false, "lat": 38.573154, "lng": -90.317251, "ratio": 15.4}, {"name": "BAYLESS JUNIOR HIGH", "district": "BAYLESS", "city": "ST LOUIS", "level": 2, "low_grade": 6, "high_grade": 8, "enrollment": 418, "teachers": 24, "lunch_pct": 53.8, "charter": false, "lat": 38.551955, "lng": -90.300345, "ratio": 17.4}, {"name": "EAST MIDDLE", "district": "HAZELWOOD", "city": "ST LOUIS", "level": 2, "low_grade": 8, "high_grade": 8, "enrollment": 172, "teachers": 18, "lunch_pct": 98.3, "charter": false, "lat": 38.776104, "lng": -90.235529, "ratio": 9.6}, {"name": "SOUTHEAST MIDDLE", "district": "HAZELWOOD", "city": "ST LOUIS", "level": 2, "low_grade": 6, "high_grade": 8, "enrollment": 469, "teachers": 26, "lunch_pct": 99.4, "charter": false, "lat": 38.779497, "lng": -90.195692, "ratio": 18.0}, {"name": "LADUE MIDDLE", "district": "LADUE", "city": "ST LOUIS", "level": 2, "low_grade": 6, "high_grade": 8, "enrollment": 1018, "teachers": 76, "lunch_pct": 11.9, "charter": false, "lat": 38.640668, "lng": -90.385968, "ratio": 13.4}, {"name": "ROBERT H. SPERRENG MIDDLE", "district": "LINDBERGH SCHOOLS", "city": "ST LOUIS", "level": 2, "low_grade": 6, "high_grade": 8, "enrollment": 953, "teachers": 60, "lunch_pct": 14.2, "charter": false, "lat": 38.517585, "lng": -90.36748, "ratio": 15.9}, {"name": "MARGARET BUERKLE MIDDLE", "district": "MEHLVILLE R-IX", "city": "ST LOUIS", "level": 2, "low_grade": 6, "high_grade": 8, "enrollment": 588, "teachers": 43, "lunch_pct": 57.8, "charter": false, "lat": 38.504067, "lng": -90.307414, "ratio": 13.7}, {"name": "OAKVILLE MIDDLE", "district": "MEHLVILLE R-IX", "city": "ST LOUIS", "level": 2, "low_grade": 6, "high_grade": 8, "enrollment": 639, "teachers": 43, "lunch_pct": 19.9, "charter": false, "lat": 38.459859, "lng": -90.303158, "ratio": 14.9}, {"name": "WASHINGTON MIDDLE", "district": "MEHLVILLE R-IX", "city": "ST LOUIS", "level": 2, "low_grade": 6, "high_grade": 8, "enrollment": 429, "teachers": 37, "lunch_pct": 40.3, "charter": false, "lat": 38.492183, "lng": -90.371071, "ratio": 11.6}, {"name": "BERNARD MIDDLE", "district": "MEHLVILLE R-IX", "city": "ST LOUIS", "level": 2, "low_grade": 6, "high_grade": 8, "enrollment": 615, "teachers": 44, "lunch_pct": 29.3, "charter": false, "lat": 38.49518, "lng": -90.326386, "ratio": 14.0}, {"name": "RITENOUR MIDDLE", "district": "RITENOUR", "city": "ST LOUIS", "level": 2, "low_grade": 6, "high_grade": 8, "enrollment": 467, "teachers": 50, "lunch_pct": 99.4, "charter": false, "lat": 38.703396, "lng": -90.3482, "ratio": 9.3}, {"name": "R. G. CENTRAL MIDDLE", "district": "RIVERVIEW GARDENS", "city": "ST LOUIS", "level": 2, "low_grade": 6, "high_grade": 8, "enrollment": 691, "teachers": 30, "lunch_pct": 99.6, "charter": false, "lat": 38.745887, "lng": -90.237578, "ratio": 23.0}, {"name": "CARR LANE VPA MIDDLE", "district": "ST. LOUIS CITY", "city": "ST LOUIS", "level": 2, "low_grade": 6, "high_grade": 8, "enrollment": 400, "teachers": 30, "lunch_pct": 99.2, "charter": false, "lat": 38.639418, "lng": -90.212163, "ratio": 13.3}, {"name": "GATEWAY MIDDLE", "district": "ST. LOUIS CITY", "city": "ST LOUIS", "level": 2, "low_grade": 6, "high_grade": 8, "enrollment": 506, "teachers": 35, "lunch_pct": 99.4, "charter": false, "lat": 38.640707, "lng": -90.210752, "ratio": 14.5}, {"name": "COMPTON-DREW ILC MIDDLE", "district": "ST. LOUIS CITY", "city": "ST LOUIS", "level": 2, "low_grade": 6, "high_grade": 8, "enrollment": 409, "teachers": 39, "lunch_pct": 99.3, "charter": false, "lat": 38.629087, "lng": -90.272078, "ratio": 10.5}, {"name": "LONG MIDDLE COMMUNITY ED. CTR.", "district": "ST. LOUIS CITY", "city": "ST LOUIS", "level": 2, "low_grade": 6, "high_grade": 8, "enrollment": 274, "teachers": 20, "lunch_pct": 98.9, "charter": false, "lat": 38.580162, "lng": -90.267151, "ratio": 13.7}, {"name": "BUSCH MS CHARACTER  ATHLETICS", "district": "ST. LOUIS CITY", "city": "ST LOUIS", "level": 2, "low_grade": 6, "high_grade": 8, "enrollment": 372, "teachers": 17, "lunch_pct": 99.2, "charter": false, "lat": 38.577919, "lng": -90.297303, "ratio": 21.9}, {"name": "YEATMAN-LIDDELL MIDDLE SCHOOL", "district": "ST. LOUIS CITY", "city": "ST LOUIS", "level": 2, "low_grade": 6, "high_grade": 8, "enrollment": 284, "teachers": 17, "lunch_pct": 98.9, "charter": false, "lat": 38.675624, "lng": -90.228269, "ratio": 16.7}, {"name": "HIXSON MIDDLE", "district": "WEBSTER GROVES", "city": "ST LOUIS", "level": 2, "low_grade": 6, "high_grade": 8, "enrollment": 981, "teachers": 74, "lunch_pct": 12.1, "charter": false, "lat": 38.57958, "lng": -90.357473, "ratio": 13.3}], "high": [{"name": "HOGAN ST REGIONAL YOUTH CTR.", "district": "DIVISION OF YOUTH SERVICE", "city": "ST LOUIS", "level": 3, "low_grade": 6, "high_grade": 12, "enrollment": 11, "teachers": 1, "lunch_pct": 72.7, "charter": false, "lat": 38.646625, "lng": -90.200624, "ratio": 11.0}, {"name": "BISSELL HALL", "district": "DIVISION OF YOUTH SERVICE", "city": "ST LOUIS", "level": 3, "low_grade": 6, "high_grade": 12, "enrollment": 24, "teachers": 1, "lunch_pct": 87.5, "charter": false, "lat": 38.827905, "lng": -90.21885, "ratio": 24.0}, {"name": "TWIN RIVERS", "district": "DIVISION OF YOUTH SERVICE", "city": "ST LOUIS", "level": 3, "low_grade": 6, "high_grade": 12, "enrollment": 11, "teachers": 1, "lunch_pct": 72.7, "charter": false, "lat": 38.827905, "lng": -90.21885, "ratio": 11.0}, {"name": "FORT BELLEFONTAINE CAMPUS", "district": "DIVISION OF YOUTH SERVICE", "city": "ST LOUIS", "level": 3, "low_grade": 6, "high_grade": 12, "enrollment": 0, "teachers": null, "lunch_pct": 0.0, "charter": false, "lat": 38.827952, "lng": -90.218879, "ratio": 1.0}, {"name": "SPANISH LAKE CAMPUS", "district": "DIVISION OF YOUTH SERVICE", "city": "ST LOUIS", "level": 3, "low_grade": 6, "high_grade": 12, "enrollment": 0, "teachers": null, "lunch_pct": 0.0, "charter": false, "lat": 38.827905, "lng": -90.21885, "ratio": 1.0}, {"name": "LEWIS AND CLARK HALL", "district": "DIVISION OF YOUTH SERVICE", "city": "ST LOUIS", "level": 3, "low_grade": 6, "high_grade": 12, "enrollment": 12, "teachers": 0, "lunch_pct": 75.0, "charter": false, "lat": 38.827905, "lng": -90.21885, "ratio": 12.0}, {"name": "REACH ST. LOUIS DAY TREATMENT", "district": "DIVISION OF YOUTH SERVICE", "city": "ST LOUIS", "level": 3, "low_grade": 6, "high_grade": 12, "enrollment": 0, "teachers": null, "lunch_pct": 0.0, "charter": false, "lat": 38.656289, "lng": -90.298718, "ratio": 1.0}, {"name": "DISCOVERY HALL", "district": "DIVISION OF YOUTH SERVICE", "city": "ST LOUIS", "level": 3, "low_grade": 6, "high_grade": 12, "enrollment": 0, "teachers": null, "lunch_pct": 0.0, "charter": false, "lat": 38.827905, "lng": -90.21885, "ratio": 1.0}, {"name": "MO School for the Blind - HS", "district": "MO SCHOOL FOR THE BLIND", "city": "ST LOUIS", "level": 3, "low_grade": 9, "high_grade": 12, "enrollment": 30, "teachers": 9, "lunch_pct": 10.0, "charter": false, "lat": 38.608337, "lng": -90.244549, "ratio": 3.3}, {"name": "LIFT FOR LIFE ACADEMY HIGH SCH", "district": "LIFT FOR LIFE ACADEMY", "city": "ST LOUIS", "level": 3, "low_grade": 9, "high_grade": 12, "enrollment": 338, "teachers": 27, "lunch_pct": 99.1, "charter": true, "lat": 38.608525, "lng": -90.200442, "ratio": 12.5}, {"name": "CONFLUENCE PREPARATORY ACADEMY", "district": "CONFLUENCE ACADEMIES", "city": "ST LOUIS", "level": 3, "low_grade": 9, "high_grade": 12, "enrollment": 393, "teachers": 29, "lunch_pct": 100.0, "charter": true, "lat": 38.631015, "lng": -90.200823, "ratio": 13.6}, {"name": "AFFTON HIGH", "district": "AFFTON 101", "city": "ST LOUIS", "level": 3, "low_grade": 9, "high_grade": 12, "enrollment": 739, "teachers": 50, "lunch_pct": 35.5, "charter": false, "lat": 38.559589, "lng": -90.324386, "ratio": 14.8}, {"name": "BAYLESS SENIOR HIGH", "district": "BAYLESS", "city": "ST LOUIS", "level": 3, "low_grade": 9, "high_grade": 12, "enrollment": 566, "teachers": 29, "lunch_pct": 48.1, "charter": false, "lat": 38.552048, "lng": -90.30145, "ratio": 19.5}, {"name": "THE INNOVATION SCHOOL AT CV", "district": "FERGUSON-FLORISSANT R-II", "city": "ST LOUIS", "level": 3, "low_grade": 9, "high_grade": 12, "enrollment": 146, "teachers": 15, "lunch_pct": 97.9, "charter": false, "lat": 38.727245, "lng": -90.304738, "ratio": 9.7}, {"name": "HANCOCK SR. HIGH", "district": "HANCOCK PLACE", "city": "ST LOUIS", "level": 3, "low_grade": 9, "high_grade": 12, "enrollment": 389, "teachers": 26, "lunch_pct": 91.0, "charter": false, "lat": 38.524756, "lng": -90.28104, "ratio": 15.0}, {"name": "HAZELWOOD EAST HIGH", "district": "HAZELWOOD", "city": "ST LOUIS", "level": 3, "low_grade": 9, "high_grade": 12, "enrollment": 1264, "teachers": 60, "lunch_pct": 65.7, "charter": false, "lat": 38.776104, "lng": -90.235529, "ratio": 21.1}, {"name": "LADUE HORTON WATKINS HIGH", "district": "LADUE", "city": "ST LOUIS", "level": 3, "low_grade": 9, "high_grade": 12, "enrollment": 1313, "teachers": 94, "lunch_pct": 12.2, "charter": false, "lat": 38.640001, "lng": -90.397307, "ratio": 14.0}, {"name": "MEHLVILLE HIGH SCHOOL", "district": "MEHLVILLE R-IX", "city": "ST LOUIS", "level": 3, "low_grade": 9, "high_grade": 12, "enrollment": 1440, "teachers": 102, "lunch_pct": 42.6, "charter": false, "lat": 38.512524, "lng": -90.314396, "ratio": 14.1}, {"name": "OAKVILLE SR. HIGH", "district": "MEHLVILLE R-IX", "city": "ST LOUIS", "level": 3, "low_grade": 9, "high_grade": 12, "enrollment": 1780, "teachers": 112, "lunch_pct": 22.1, "charter": false, "lat": 38.472186, "lng": -90.321442, "ratio": 15.9}, {"name": "NORMANDY HIGH", "district": "NORMANDY SCHOOLS COLLABORATIVE", "city": "ST LOUIS", "level": 3, "low_grade": 9, "high_grade": 12, "enrollment": 732, "teachers": 46, "lunch_pct": 99.6, "charter": false, "lat": 38.682662, "lng": -90.297349, "ratio": 15.9}, {"name": "NORTH HIGH", "district": "PARKWAY C-2", "city": "ST LOUIS", "level": 3, "low_grade": 9, "high_grade": 12, "enrollment": 1074, "teachers": 80, "lunch_pct": 33.7, "charter": false, "lat": 38.690259, "lng": -90.46817, "ratio": 13.4}, {"name": "RITENOUR SR. HIGH", "district": "RITENOUR", "city": "ST LOUIS", "level": 3, "low_grade": 9, "high_grade": 12, "enrollment": 1873, "teachers": 98, "lunch_pct": 99.8, "charter": false, "lat": 38.710206, "lng": -90.357181, "ratio": 19.1}, {"name": "RIVERVIEW GARDENS SR. HIGH", "district": "RIVERVIEW GARDENS", "city": "ST LOUIS", "level": 3, "low_grade": 9, "high_grade": 12, "enrollment": 1331, "teachers": 65, "lunch_pct": 99.8, "charter": false, "lat": 38.755484, "lng": -90.212361, "ratio": 20.5}, {"name": "GATEWAY HIGH", "district": "ST. LOUIS CITY", "city": "ST LOUIS", "level": 3, "low_grade": 9, "high_grade": 12, "enrollment": 825, "teachers": 72, "lunch_pct": 99.6, "charter": false, "lat": 38.621722, "lng": -90.269741, "ratio": 11.5}, {"name": "SOLDAN INTERNATIONAL STUDIES", "district": "ST. LOUIS CITY", "city": "ST LOUIS", "level": 3, "low_grade": 9, "high_grade": 12, "enrollment": 487, "teachers": 40, "lunch_pct": 99.4, "charter": false, "lat": 38.655439, "lng": -90.272427, "ratio": 12.2}, {"name": "VO. TECH. TUITION", "district": "ST. LOUIS CITY", "city": "ST LOUIS", "level": 3, "low_grade": 10, "high_grade": 12, "enrollment": 0, "teachers": null, "lunch_pct": 0.0, "charter": false, "lat": 38.633409, "lng": -90.194724, "ratio": 1.0}, {"name": "BEAUMONT CTE HIGH SCHOOL", "district": "ST. LOUIS CITY", "city": "ST LOUIS", "level": 3, "low_grade": 9, "high_grade": 12, "enrollment": 236, "teachers": null, "lunch_pct": 98.7, "charter": false, "lat": 38.662699, "lng": -90.22195, "ratio": 236.0}, {"name": "COMMUNITY ACCESS JOB TRAINING", "district": "ST. LOUIS CITY", "city": "ST LOUIS", "level": 3, "low_grade": 8, "high_grade": 12, "enrollment": 84, "teachers": 14, "lunch_pct": 96.4, "charter": false, "lat": 38.587531, "lng": -90.304345, "ratio": 6.0}, {"name": "METRO HIGH", "district": "ST. LOUIS CITY", "city": "ST LOUIS", "level": 3, "low_grade": 9, "high_grade": 12, "enrollment": 343, "teachers": 23, "lunch_pct": 99.1, "charter": false, "lat": 38.640941, "lng": -90.243149, "ratio": 14.9}, {"name": "ROOSEVELT HIGH", "district": "ST. LOUIS CITY", "city": "ST LOUIS", "level": 3, "low_grade": 9, "high_grade": 12, "enrollment": 460, "teachers": 35, "lunch_pct": 99.3, "charter": false, "lat": 38.600051, "lng": -90.236964, "ratio": 13.1}, {"name": "SUMNER HIGH", "district": "ST. LOUIS CITY", "city": "ST LOUIS", "level": 3, "low_grade": 9, "high_grade": 12, "enrollment": 264, "teachers": 18, "lunch_pct": 98.9, "charter": false, "lat": 38.659691, "lng": -90.239109, "ratio": 14.7}, {"name": "VASHON HIGH", "district": "ST. LOUIS CITY", "city": "ST LOUIS", "level": 3, "low_grade": 9, "high_grade": 12, "enrollment": 568, "teachers": 41, "lunch_pct": 99.5, "charter": false, "lat": 38.647923, "lng": -90.221271, "ratio": 13.9}, {"name": "CENTRAL VISUAL/PERF. ARTS HIGH", "district": "ST. LOUIS CITY", "city": "ST LOUIS", "level": 3, "low_grade": 9, "high_grade": 12, "enrollment": 386, "teachers": 29, "lunch_pct": 99.2, "charter": false, "lat": 38.604372, "lng": -90.270897, "ratio": 13.3}, {"name": "MILLER CAREER ACADEMY", "district": "ST. LOUIS CITY", "city": "ST LOUIS", "level": 3, "low_grade": 9, "high_grade": 12, "enrollment": 532, "teachers": 45, "lunch_pct": 99.4, "charter": false, "lat": 38.642568, "lng": -90.228308, "ratio": 11.8}, {"name": "CARNAHAN SCH. OF THE FUTURE", "district": "ST. LOUIS CITY", "city": "ST LOUIS", "level": 3, "low_grade": 11, "high_grade": 12, "enrollment": 149, "teachers": 11, "lunch_pct": 98.0, "charter": false, "lat": 38.581757, "lng": -90.228755, "ratio": 13.5}, {"name": "MCKINLEY CLASS. LEADERSHIP AC.", "district": "ST. LOUIS CITY", "city": "ST LOUIS", "level": 3, "low_grade": 6, "high_grade": 12, "enrollment": 559, "teachers": 40, "lunch_pct": 99.5, "charter": false, "lat": 38.609895, "lng": -90.219445, "ratio": 14.0}, {"name": "WEBSTER GROVES HIGH", "district": "WEBSTER GROVES", "city": "ST LOUIS", "level": 3, "low_grade": 9, "high_grade": 12, "enrollment": 1315, "teachers": 92, "lunch_pct": 12.3, "charter": false, "lat": 38.590081, "lng": -90.348316, "ratio": 14.3}]}, "kansas city": {"elem": [{"name": "KC INTERNATIONAL-WALLACE", "district": "KC INTERNATIONAL ACADEMY", "city": "KANSAS CITY", "level": 1, "low_grade": -1, "high_grade": 8, "enrollment": 665, "teachers": 90, "lunch_pct": 100.0, "charter": true, "lat": 39.1087, "lng": -94.483741, "ratio": 7.4}, {"name": "HOGAN PREPARATORY ACADEMY ELEM", "district": "HOGAN PREPARATORY ACADEMY", "city": "KANSAS CITY", "level": 1, "low_grade": -1, "high_grade": 6, "enrollment": 391, "teachers": 22, "lunch_pct": 99.2, "charter": true, "lat": 39.033134, "lng": -94.552097, "ratio": 17.8}, {"name": "GORDON PARKS ELEM.", "district": "GORDON PARKS ELEM.", "city": "KANSAS CITY", "level": 1, "low_grade": -1, "high_grade": 4, "enrollment": 130, "teachers": 15, "lunch_pct": 100.0, "charter": true, "lat": 39.060306, "lng": -94.602896, "ratio": 8.7}, {"name": "GENESIS SCHOOL INC.", "district": "GENESIS SCHOOL INC.", "city": "KANSAS CITY", "level": 1, "low_grade": -1, "high_grade": 8, "enrollment": 225, "teachers": 23, "lunch_pct": 98.7, "charter": true, "lat": 39.046492, "lng": -94.539573, "ratio": 9.8}, {"name": "Academie Lafayette Oak Elem", "district": "ACADEMIE LAFAYETTE", "city": "Kansas City", "level": 1, "low_grade": 0, "high_grade": 5, "enrollment": 497, "teachers": 33, "lunch_pct": 22.1, "charter": true, "lat": 39.00233, "lng": -94.583692, "ratio": 15.1}, {"name": "ACADEMIE LAFAYETTE CHERRY ELEM", "district": "ACADEMIE LAFAYETTE", "city": "KANSAS CITY", "level": 1, "low_grade": -1, "high_grade": 5, "enrollment": 459, "teachers": 28, "lunch_pct": 25.7, "charter": true, "lat": 39.064646, "lng": -94.577974, "ratio": 16.4}, {"name": "SCUOLA VITA NUOVA CHARTER", "district": "SCUOLA VITA NUOVA", "city": "KANSAS CITY", "level": 1, "low_grade": 0, "high_grade": 8, "enrollment": 405, "teachers": 29, "lunch_pct": 73.6, "charter": true, "lat": 39.107003, "lng": -94.556165, "ratio": 14.0}, {"name": "BROOKSIDE CHARTER ELEMENTARY", "district": "BROOKSIDE CHARTER SCH.", "city": "KANSAS CITY", "level": 1, "low_grade": -1, "high_grade": 5, "enrollment": 513, "teachers": 47, "lunch_pct": 99.4, "charter": true, "lat": 39.012349, "lng": -94.563663, "ratio": 10.9}, {"name": "ALLEN VILLAGE ELEMENTARY ACADE", "district": "ALLEN VILLAGE", "city": "KANSAS CITY", "level": 1, "low_grade": 3, "high_grade": 5, "enrollment": 98, "teachers": 7, "lunch_pct": 83.7, "charter": true, "lat": 39.052917, "lng": -94.594845, "ratio": 14.0}, {"name": "ALLEN VILLAGE PRIMARY ACADEMY", "district": "ALLEN VILLAGE", "city": "KANSAS CITY", "level": 1, "low_grade": 0, "high_grade": 2, "enrollment": 74, "teachers": 6, "lunch_pct": 90.5, "charter": true, "lat": 39.052917, "lng": -94.594845, "ratio": 12.3}, {"name": "UNIVERSITY ACADEMY-LOWER", "district": "UNIVERSITY ACADEMY", "city": "KANSAS CITY", "level": 1, "low_grade": -1, "high_grade": 5, "enrollment": 617, "teachers": 41, "lunch_pct": 99.5, "charter": true, "lat": 39.003423, "lng": -94.578839, "ratio": 15.0}, {"name": "LEE A. TOLBERT COM. ACADEMY", "district": "LEE A. TOLBERT COM. ACADEMY", "city": "KANSAS CITY", "level": 1, "low_grade": -1, "high_grade": 8, "enrollment": 364, "teachers": 31, "lunch_pct": 99.2, "charter": true, "lat": 39.064469, "lng": -94.568038, "ratio": 11.7}, {"name": "GUADALUPE CENTERS ELEMENTARY", "district": "GUADALUPE CENTERS SCHOOLS", "city": "KANSAS CITY", "level": 1, "low_grade": -1, "high_grade": 5, "enrollment": 781, "teachers": 59, "lunch_pct": 92.6, "charter": true, "lat": 39.093568, "lng": -94.521265, "ratio": 13.2}, {"name": "KIPP ENDEAVOR ACADEMY", "district": "KIPP: ENDEAVOR ACADEMY", "city": "KANSAS CITY", "level": 1, "low_grade": -1, "high_grade": 8, "enrollment": 604, "teachers": 58, "lunch_pct": 99.5, "charter": true, "lat": 39.091707, "lng": -94.550868, "ratio": 10.4}, {"name": "FRONTIER SCHOOL OF INNOVATION", "district": "FRONTIER SCHOOLS", "city": "Kansas City", "level": 1, "low_grade": -1, "high_grade": 5, "enrollment": 620, "teachers": 58, "lunch_pct": 82.7, "charter": true, "lat": 39.136006, "lng": -94.503465, "ratio": 10.7}, {"name": "HOPE LEADERSHIP ACADEMY", "district": "HOPE LEADERSHIP ACADEMY", "city": "KANSAS CITY", "level": 1, "low_grade": 0, "high_grade": 4, "enrollment": 101, "teachers": 16, "lunch_pct": 97.0, "charter": true, "lat": 39.068236, "lng": -94.550288, "ratio": 6.3}, {"name": "CROSSROADS - CENTRAL STREET", "district": "CROSSROADS CHARTER SCHOOLS", "city": "KANSAS CITY", "level": 1, "low_grade": -1, "high_grade": 6, "enrollment": 360, "teachers": 35, "lunch_pct": 54.7, "charter": true, "lat": 39.101946, "lng": -94.586664, "ratio": 10.3}, {"name": "CROSSROADS - QUALITY HILL", "district": "CROSSROADS CHARTER SCHOOLS", "city": "KANSAS CITY", "level": 1, "low_grade": 0, "high_grade": 5, "enrollment": 259, "teachers": 24, "lunch_pct": 59.8, "charter": true, "lat": 39.101364, "lng": -94.590337, "ratio": 10.8}, {"name": "ACADEMY FOR INTEGRATED ARTS", "district": "ACADEMY FOR INTEGRATED ARTS", "city": "Kansas City", "level": 1, "low_grade": -1, "high_grade": 6, "enrollment": 270, "teachers": 26, "lunch_pct": 98.9, "charter": true, "lat": 38.984194, "lng": -94.576428, "ratio": 10.4}, {"name": "ELEMENTARY SCHOOL", "district": "CITIZENS OF THE WORLD CHARTER", "city": "KANSAS CITY", "level": 1, "low_grade": -1, "high_grade": 4, "enrollment": 270, "teachers": 22, "lunch_pct": 53.7, "charter": true, "lat": 39.064555, "lng": -94.589948, "ratio": 12.3}, {"name": "BOONE ELEM.", "district": "CENTER 58", "city": "KANSAS CITY", "level": 1, "low_grade": 0, "high_grade": 5, "enrollment": 272, "teachers": 25, "lunch_pct": 49.6, "charter": false, "lat": 38.967584, "lng": -94.594007, "ratio": 10.9}, {"name": "CENTER ELEM.", "district": "CENTER 58", "city": "KANSAS CITY", "level": 1, "low_grade": 0, "high_grade": 5, "enrollment": 347, "teachers": 26, "lunch_pct": 99.1, "charter": false, "lat": 38.974215, "lng": -94.56382, "ratio": 13.3}, {"name": "INDIAN CREEK ELEM.", "district": "CENTER 58", "city": "KANSAS CITY", "level": 1, "low_grade": 0, "high_grade": 5, "enrollment": 274, "teachers": 20, "lunch_pct": 98.9, "charter": false, "lat": 38.950363, "lng": -94.588275, "ratio": 13.7}, {"name": "RED BRIDGE ELEM.", "district": "CENTER 58", "city": "KANSAS CITY", "level": 1, "low_grade": 0, "high_grade": 5, "enrollment": 237, "teachers": 20, "lunch_pct": 46.8, "charter": false, "lat": 38.932587, "lng": -94.5871, "ratio": 11.8}, {"name": "MARTIN CITY ELEM.", "district": "GRANDVIEW C-4", "city": "KANSAS CITY", "level": 1, "low_grade": 0, "high_grade": 8, "enrollment": 668, "teachers": 56, "lunch_pct": 70.7, "charter": false, "lat": 38.885761, "lng": -94.592567, "ratio": 11.9}, {"name": "COMPASS ELEMENTARY", "district": "HICKMAN MILLS C-1", "city": "KANSAS CITY", "level": 1, "low_grade": 0, "high_grade": 5, "enrollment": 326, "teachers": 20, "lunch_pct": 100.0, "charter": false, "lat": 38.937267, "lng": -94.526158, "ratio": 16.3}, {"name": "DOBBS ELEMENTARY", "district": "HICKMAN MILLS C-1", "city": "KANSAS CITY", "level": 1, "low_grade": 0, "high_grade": 5, "enrollment": 322, "teachers": 21, "lunch_pct": 100.0, "charter": false, "lat": 38.954107, "lng": -94.504254, "ratio": 15.3}, {"name": "INGELS ELEMENTARY", "district": "HICKMAN MILLS C-1", "city": "KANSAS CITY", "level": 1, "low_grade": 0, "high_grade": 5, "enrollment": 292, "teachers": 19, "lunch_pct": 100.0, "charter": false, "lat": 38.913079, "lng": -94.506577, "ratio": 15.4}, {"name": "MILLENNIUM AT SANTE FE", "district": "HICKMAN MILLS C-1", "city": "KANSAS CITY", "level": 1, "low_grade": 0, "high_grade": 5, "enrollment": 288, "teachers": 21, "lunch_pct": 100.0, "charter": false, "lat": 38.961934, "lng": -94.506293, "ratio": 13.7}, {"name": "TRUMAN ELEMENTARY", "district": "HICKMAN MILLS C-1", "city": "KANSAS CITY", "level": 1, "low_grade": 0, "high_grade": 5, "enrollment": 325, "teachers": 22, "lunch_pct": 100.0, "charter": false, "lat": 38.949431, "lng": -94.493348, "ratio": 14.8}, {"name": "WARFORD ELEMENTARY", "district": "HICKMAN MILLS C-1", "city": "KANSAS CITY", "level": 1, "low_grade": 0, "high_grade": 5, "enrollment": 394, "teachers": 25, "lunch_pct": 100.0, "charter": false, "lat": 38.919724, "lng": -94.547255, "ratio": 15.8}, {"name": "ERVIN ELEMENTARY SCHOOL", "district": "HICKMAN MILLS C-1", "city": "KANSAS CITY", "level": 1, "low_grade": -1, "high_grade": 5, "enrollment": 629, "teachers": 43, "lunch_pct": 100.0, "charter": false, "lat": 38.932525, "lng": -94.488966, "ratio": 14.6}, {"name": "BORDER STAR MONTESSORI", "district": "KANSAS CITY 33", "city": "KANSAS CITY", "level": 1, "low_grade": -1, "high_grade": 6, "enrollment": 288, "teachers": 22, "lunch_pct": 99.0, "charter": false, "lat": 39.013304, "lng": -94.592692, "ratio": 13.1}, {"name": "FAXON ELEMENTARY", "district": "KANSAS CITY 33", "city": "KANSAS CITY", "level": 1, "low_grade": -1, "high_grade": 6, "enrollment": 301, "teachers": 27, "lunch_pct": 99.0, "charter": false, "lat": 39.068295, "lng": -94.56816, "ratio": 11.1}, {"name": "CARVER DUAL LANGUAGE SCHOOL", "district": "KANSAS CITY 33", "city": "KANSAS CITY", "level": 1, "low_grade": -1, "high_grade": 6, "enrollment": 473, "teachers": 34, "lunch_pct": 99.4, "charter": false, "lat": 39.042024, "lng": -94.532128, "ratio": 13.9}, {"name": "GARFIELD ELEMENTARY", "district": "KANSAS CITY 33", "city": "KANSAS CITY", "level": 1, "low_grade": -1, "high_grade": 6, "enrollment": 649, "teachers": 38, "lunch_pct": 99.5, "charter": false, "lat": 39.109051, "lng": -94.552197, "ratio": 17.1}, {"name": "GEORGE MELCHER ELEMENTARY", "district": "KANSAS CITY 33", "city": "KANSAS CITY", "level": 1, "low_grade": -1, "high_grade": 6, "enrollment": 296, "teachers": 24, "lunch_pct": 99.0, "charter": false, "lat": 39.053673, "lng": -94.52821, "ratio": 12.3}, {"name": "JAMES ELEMENTARY", "district": "KANSAS CITY 33", "city": "KANSAS CITY", "level": 1, "low_grade": -1, "high_grade": 6, "enrollment": 207, "teachers": 22, "lunch_pct": 98.6, "charter": false, "lat": 39.114386, "lng": -94.513215, "ratio": 9.4}, {"name": "JOHN T. HARTMAN ELEMENTARY", "district": "KANSAS CITY 33", "city": "KANSAS CITY", "level": 1, "low_grade": -1, "high_grade": 6, "enrollment": 317, "teachers": 25, "lunch_pct": 99.1, "charter": false, "lat": 38.980429, "lng": -94.584728, "ratio": 12.7}, {"name": "LONGFELLOW ELEMENTARY", "district": "KANSAS CITY 33", "city": "KANSAS CITY", "level": 1, "low_grade": -1, "high_grade": 6, "enrollment": 231, "teachers": 18, "lunch_pct": 98.7, "charter": false, "lat": 39.074685, "lng": -94.57711, "ratio": 12.8}, {"name": "PHILLIS WHEATLEY ELEMENTARY", "district": "KANSAS CITY 33", "city": "KANSAS CITY", "level": 1, "low_grade": -1, "high_grade": 6, "enrollment": 391, "teachers": 31, "lunch_pct": 99.2, "charter": false, "lat": 39.082384, "lng": -94.547142, "ratio": 12.6}, {"name": "PITCHER ELEMENTARY", "district": "KANSAS CITY 33", "city": "KANSAS CITY", "level": 1, "low_grade": -1, "high_grade": 6, "enrollment": 283, "teachers": 26, "lunch_pct": 98.9, "charter": false, "lat": 39.052376, "lng": -94.463828, "ratio": 10.9}, {"name": "TROOST ELEMENTARY", "district": "KANSAS CITY 33", "city": "KANSAS CITY", "level": 1, "low_grade": -1, "high_grade": 6, "enrollment": 251, "teachers": 23, "lunch_pct": 98.8, "charter": false, "lat": 39.019621, "lng": -94.572669, "ratio": 10.9}, {"name": "WENDELL PHILLIPS ELEMENTARY", "district": "KANSAS CITY 33", "city": "KANSAS CITY", "level": 1, "low_grade": -1, "high_grade": 6, "enrollment": 295, "teachers": 25, "lunch_pct": 99.0, "charter": false, "lat": 39.082537, "lng": -94.552783, "ratio": 11.8}, {"name": "WHITTIER ELEMENTARY", "district": "KANSAS CITY 33", "city": "KANSAS CITY", "level": 1, "low_grade": -1, "high_grade": 6, "enrollment": 351, "teachers": 27, "lunch_pct": 99.1, "charter": false, "lat": 39.100175, "lng": -94.541209, "ratio": 13.0}, {"name": "AC PREP ELEMENTARY", "district": "KANSAS CITY 33", "city": "KANSAS CITY", "level": 1, "low_grade": -1, "high_grade": 8, "enrollment": 341, "teachers": 35, "lunch_pct": 99.1, "charter": false, "lat": 39.009782, "lng": -94.543276, "ratio": 9.7}, {"name": "ROGERS ELEMENTARY", "district": "KANSAS CITY 33", "city": "KANSAS CITY", "level": 1, "low_grade": -1, "high_grade": 6, "enrollment": 543, "teachers": 39, "lunch_pct": 99.4, "charter": false, "lat": 39.083947, "lng": -94.507494, "ratio": 13.9}, {"name": "FOREIGN LANGUAGE ACADEMY", "district": "KANSAS CITY 33", "city": "KANSAS CITY", "level": 1, "low_grade": -1, "high_grade": 8, "enrollment": 613, "teachers": 48, "lunch_pct": 99.5, "charter": false, "lat": 39.064486, "lng": -94.58366, "ratio": 12.8}, {"name": "GLADSTONE ELEMENTARY", "district": "KANSAS CITY 33", "city": "KANSAS CITY", "level": 1, "low_grade": -1, "high_grade": 6, "enrollment": 372, "teachers": 31, "lunch_pct": 99.2, "charter": false, "lat": 39.115861, "lng": -94.527257, "ratio": 12.0}, {"name": "PRIMITIVO GARCIA ELEMENTARY", "district": "KANSAS CITY 33", "city": "KANSAS CITY", "level": 1, "low_grade": -1, "high_grade": 6, "enrollment": 263, "teachers": 26, "lunch_pct": 98.9, "charter": false, "lat": 39.09383, "lng": -94.595931, "ratio": 10.1}, {"name": "B. BANNEKER ELEMENTARY", "district": "KANSAS CITY 33", "city": "KANSAS CITY", "level": 1, "low_grade": -1, "high_grade": 6, "enrollment": 390, "teachers": 30, "lunch_pct": 99.2, "charter": false, "lat": 38.999011, "lng": -94.545828, "ratio": 13.0}, {"name": "TRAILWOODS ELEMENTARY", "district": "KANSAS CITY 33", "city": "KANSAS CITY", "level": 1, "low_grade": -1, "high_grade": 6, "enrollment": 347, "teachers": 30, "lunch_pct": 99.1, "charter": false, "lat": 39.088849, "lng": -94.5098, "ratio": 11.6}, {"name": "HOLLIDAY MONTESSORI", "district": "KANSAS CITY 33", "city": "KANSAS CITY", "level": 1, "low_grade": -1, "high_grade": 6, "enrollment": 343, "teachers": 22, "lunch_pct": 99.1, "charter": false, "lat": 38.994885, "lng": -94.537312, "ratio": 15.6}, {"name": "M. L. KING  ELEMENTARY", "district": "KANSAS CITY 33", "city": "KANSAS CITY", "level": 1, "low_grade": -1, "high_grade": 6, "enrollment": 665, "teachers": 38, "lunch_pct": 99.5, "charter": false, "lat": 39.038979, "lng": -94.564544, "ratio": 17.5}, {"name": "HALE COOK ELEMENTARY", "district": "KANSAS CITY 33", "city": "KANSAS CITY", "level": 1, "low_grade": -1, "high_grade": 6, "enrollment": 284, "teachers": 23, "lunch_pct": 98.9, "charter": false, "lat": 38.995802, "lng": -94.596914, "ratio": 12.3}, {"name": "SUMMIT POINTE ELEM.", "district": "LEE'S SUMMIT R-VII", "city": "KANSAS CITY", "level": 1, "low_grade": 0, "high_grade": 5, "enrollment": 536, "teachers": 39, "lunch_pct": 10.4, "charter": false, "lat": 38.855599, "lng": -94.433811, "ratio": 13.7}, {"name": "SHOAL CREEK ELEM.", "district": "LIBERTY 53", "city": "KANSAS CITY", "level": 1, "low_grade": 0, "high_grade": 5, "enrollment": 883, "teachers": 54, "lunch_pct": 8.3, "charter": false, "lat": 39.256688, "lng": -94.466964, "ratio": 16.4}, {"name": "LIBERTY OAKS ELEM.", "district": "LIBERTY 53", "city": "KANSAS CITY", "level": 1, "low_grade": 0, "high_grade": 5, "enrollment": 522, "teachers": 37, "lunch_pct": 31.0, "charter": false, "lat": 39.240941, "lng": -94.474799, "ratio": 14.1}, {"name": "KELLYBROOK ELEM SCHOOL", "district": "LIBERTY 53", "city": "KANSAS CITY", "level": 1, "low_grade": 0, "high_grade": 5, "enrollment": 522, "teachers": 33, "lunch_pct": 28.0, "charter": false, "lat": 39.287041, "lng": -94.491612, "ratio": 15.8}, {"name": "BRIARCLIFF ELEMENTARY", "district": "NORTH KANSAS CITY 74", "city": "KANSAS CITY", "level": 1, "low_grade": 0, "high_grade": 5, "enrollment": 310, "teachers": 23, "lunch_pct": 45.8, "charter": false, "lat": 39.169159, "lng": -94.585335, "ratio": 13.5}, {"name": "CHOUTEAU ELEMENTARY", "district": "NORTH KANSAS CITY 74", "city": "KANSAS CITY", "level": 1, "low_grade": -1, "high_grade": 5, "enrollment": 358, "teachers": 29, "lunch_pct": 71.8, "charter": false, "lat": 39.159453, "lng": -94.529262, "ratio": 12.3}, {"name": "CLARDY ELEMENTARY", "district": "NORTH KANSAS CITY 74", "city": "KANSAS CITY", "level": 1, "low_grade": 0, "high_grade": 5, "enrollment": 495, "teachers": 30, "lunch_pct": 40.8, "charter": false, "lat": 39.241724, "lng": -94.567304, "ratio": 16.5}, {"name": "CRESTVIEW ELEMENTARY", "district": "NORTH KANSAS CITY 74", "city": "KANSAS CITY", "level": 1, "low_grade": 0, "high_grade": 5, "enrollment": 435, "teachers": 36, "lunch_pct": 67.8, "charter": false, "lat": 39.17359, "lng": -94.571594, "ratio": 12.1}, {"name": "DAVIDSON ELEMENTARY", "district": "NORTH KANSAS CITY 74", "city": "KANSAS CITY", "level": 1, "low_grade": -1, "high_grade": 5, "enrollment": 517, "teachers": 33, "lunch_pct": 57.8, "charter": false, "lat": 39.187941, "lng": -94.558365, "ratio": 15.7}, {"name": "GASHLAND ELEMENTARY", "district": "NORTH KANSAS CITY 74", "city": "KANSAS CITY", "level": 1, "low_grade": -1, "high_grade": 1, "enrollment": 230, "teachers": 14, "lunch_pct": 40.0, "charter": false, "lat": 39.245305, "lng": -94.57457, "ratio": 16.4}, {"name": "GRACEMOR ELEMENTARY", "district": "NORTH KANSAS CITY 74", "city": "KANSAS CITY", "level": 1, "low_grade": -1, "high_grade": 5, "enrollment": 630, "teachers": 50, "lunch_pct": 68.4, "charter": false, "lat": 39.187776, "lng": -94.485382, "ratio": 12.6}, {"name": "LAKEWOOD ELEMENTARY", "district": "NORTH KANSAS CITY 74", "city": "KANSAS CITY", "level": 1, "low_grade": 0, "high_grade": 5, "enrollment": 187, "teachers": 17, "lunch_pct": 59.9, "charter": false, "lat": 39.18035, "lng": -94.532905, "ratio": 11.0}, {"name": "MAPLEWOOD ELEMENTARY", "district": "NORTH KANSAS CITY 74", "city": "KANSAS CITY", "level": 1, "low_grade": -1, "high_grade": 5, "enrollment": 293, "teachers": 26, "lunch_pct": 72.0, "charter": false, "lat": 39.18867, "lng": -94.505094, "ratio": 11.3}, {"name": "NASHUA ELEMENTARY", "district": "NORTH KANSAS CITY 74", "city": "KANSAS CITY", "level": 1, "low_grade": 0, "high_grade": 5, "enrollment": 328, "teachers": 24, "lunch_pct": 20.7, "charter": false, "lat": 39.300102, "lng": -94.577343, "ratio": 13.7}, {"name": "RAVENWOOD ELEMENTARY", "district": "NORTH KANSAS CITY 74", "city": "KANSAS CITY", "level": 1, "low_grade": 0, "high_grade": 5, "enrollment": 319, "teachers": 28, "lunch_pct": 55.2, "charter": false, "lat": 39.199738, "lng": -94.519635, "ratio": 11.4}, {"name": "TOPPING ELEMENTARY", "district": "NORTH KANSAS CITY 74", "city": "KANSAS CITY", "level": 1, "low_grade": 0, "high_grade": 5, "enrollment": 318, "teachers": 25, "lunch_pct": 69.5, "charter": false, "lat": 39.174407, "lng": -94.511127, "ratio": 12.7}, {"name": "WEST ENGLEWOOD ELEMENTARY", "district": "NORTH KANSAS CITY 74", "city": "KANSAS CITY", "level": 1, "low_grade": 0, "high_grade": 5, "enrollment": 403, "teachers": 33, "lunch_pct": 67.0, "charter": false, "lat": 39.197029, "lng": -94.598643, "ratio": 12.2}, {"name": "WINNWOOD ELEMENTARY", "district": "NORTH KANSAS CITY 74", "city": "KANSAS CITY", "level": 1, "low_grade": -1, "high_grade": 5, "enrollment": 243, "teachers": 22, "lunch_pct": 81.1, "charter": false, "lat": 39.174151, "lng": -94.525962, "ratio": 11.0}, {"name": "FOX HILL ELEMENTARY", "district": "NORTH KANSAS CITY 74", "city": "KANSAS CITY", "level": 1, "low_grade": 0, "high_grade": 5, "enrollment": 587, "teachers": 36, "lunch_pct": 38.8, "charter": false, "lat": 39.284871, "lng": -94.569194, "ratio": 16.3}, {"name": "NORTHVIEW ELEMENTARY", "district": "NORTH KANSAS CITY 74", "city": "KANSAS CITY", "level": 1, "low_grade": 0, "high_grade": 5, "enrollment": 654, "teachers": 41, "lunch_pct": 15.1, "charter": false, "lat": 39.261253, "lng": -94.531411, "ratio": 16.0}, {"name": "BELL PRAIRIE ELEMENTARY", "district": "NORTH KANSAS CITY 74", "city": "KANSAS CITY", "level": 1, "low_grade": -1, "high_grade": 5, "enrollment": 712, "teachers": 47, "lunch_pct": 25.1, "charter": false, "lat": 39.287589, "lng": -94.539481, "ratio": 15.1}, {"name": "RISING HILL ELEMENTARY", "district": "NORTH KANSAS CITY 74", "city": "KANSAS CITY", "level": 1, "low_grade": -1, "high_grade": 5, "enrollment": 380, "teachers": 29, "lunch_pct": 37.6, "charter": false, "lat": 39.287688, "lng": -94.49347, "ratio": 13.1}, {"name": "ENGLISH LANDING ELEM.", "district": "PARK HILL", "city": "KANSAS CITY", "level": 1, "low_grade": 0, "high_grade": 5, "enrollment": 429, "teachers": 33, "lunch_pct": 28.0, "charter": false, "lat": 39.213527, "lng": -94.658753, "ratio": 13.0}, {"name": "ALFRED L. RENNER ELEM.", "district": "PARK HILL", "city": "KANSAS CITY", "level": 1, "low_grade": 0, "high_grade": 5, "enrollment": 427, "teachers": 32, "lunch_pct": 35.8, "charter": false, "lat": 39.244467, "lng": -94.665836, "ratio": 13.3}, {"name": "LINE CREEK ELEM.", "district": "PARK HILL", "city": "KANSAS CITY", "level": 1, "low_grade": 0, "high_grade": 5, "enrollment": 364, "teachers": 30, "lunch_pct": 44.8, "charter": false, "lat": 39.200078, "lng": -94.607209, "ratio": 12.1}, {"name": "SOUTHEAST ELEM.", "district": "PARK HILL", "city": "KANSAS CITY", "level": 1, "low_grade": 0, "high_grade": 5, "enrollment": 500, "teachers": 37, "lunch_pct": 32.2, "charter": false, "lat": 39.198408, "lng": -94.633337, "ratio": 13.5}, {"name": "THOMAS B. CHINN ELEM.", "district": "PARK HILL", "city": "KANSAS CITY", "level": 1, "low_grade": 0, "high_grade": 5, "enrollment": 450, "teachers": 36, "lunch_pct": 39.3, "charter": false, "lat": 39.222994, "lng": -94.643934, "ratio": 12.5}, {"name": "UNION CHAPEL ELEM.", "district": "PARK HILL", "city": "KANSAS CITY", "level": 1, "low_grade": 0, "high_grade": 5, "enrollment": 606, "teachers": 37, "lunch_pct": 13.5, "charter": false, "lat": 39.224251, "lng": -94.734758, "ratio": 16.4}, {"name": "PRAIRIE POINT ELEM.", "district": "PARK HILL", "city": "KANSAS CITY", "level": 1, "low_grade": 0, "high_grade": 5, "enrollment": 422, "teachers": 31, "lunch_pct": 29.4, "charter": false, "lat": 39.231744, "lng": -94.672304, "ratio": 13.6}, {"name": "HAWTHORN ELEM.", "district": "PARK HILL", "city": "KANSAS CITY", "level": 1, "low_grade": 0, "high_grade": 5, "enrollment": 452, "teachers": 30, "lunch_pct": 18.8, "charter": false, "lat": 39.245959, "lng": -94.709616, "ratio": 15.1}, {"name": "TIFFANY RIDGE ELEMENTARY SCHL", "district": "PARK HILL", "city": "KANSAS CITY", "level": 1, "low_grade": 0, "high_grade": 5, "enrollment": 471, "teachers": 36, "lunch_pct": 28.2, "charter": false, "lat": 39.259836, "lng": -94.638778, "ratio": 13.1}, {"name": "HOPEWELL ELEMENTARY", "district": "PARK HILL", "city": "KANSAS CITY", "level": 1, "low_grade": 0, "high_grade": 5, "enrollment": 481, "teachers": 36, "lunch_pct": 27.2, "charter": false, "lat": 39.200078, "lng": -94.607209, "ratio": 13.4}, {"name": "PATHFINDER ELEM.", "district": "PLATTE CO. R-III", "city": "KANSAS CITY", "level": 1, "low_grade": -1, "high_grade": 4, "enrollment": 602, "teachers": 43, "lunch_pct": 32.4, "charter": false, "lat": 39.251465, "lng": -94.604174, "ratio": 14.0}, {"name": "EASTWOOD HILLS ELEM.", "district": "RAYTOWN C-2", "city": "KANSAS CITY", "level": 1, "low_grade": 0, "high_grade": 5, "enrollment": 329, "teachers": 29, "lunch_pct": 82.4, "charter": false, "lat": 39.028077, "lng": -94.492858, "ratio": 11.3}, {"name": "FLEETRIDGE ELEM.", "district": "RAYTOWN C-2", "city": "KANSAS CITY", "level": 1, "low_grade": 0, "high_grade": 5, "enrollment": 315, "teachers": 24, "lunch_pct": 64.8, "charter": false, "lat": 39.020414, "lng": -94.42799, "ratio": 13.1}, {"name": "NORFLEET ELEM.", "district": "RAYTOWN C-2", "city": "KANSAS CITY", "level": 1, "low_grade": 0, "high_grade": 5, "enrollment": 311, "teachers": 21, "lunch_pct": 66.6, "charter": false, "lat": 39.009779, "lng": -94.431752, "ratio": 14.8}, {"name": "WESTRIDGE ELEM.", "district": "RAYTOWN C-2", "city": "KANSAS CITY", "level": 1, "low_grade": 0, "high_grade": 5, "enrollment": 321, "teachers": 24, "lunch_pct": 73.5, "charter": false, "lat": 38.985001, "lng": -94.489005, "ratio": 13.4}, {"name": "LITTLE BLUE ELEMENTARY", "district": "RAYTOWN C-2", "city": "KANSAS CITY", "level": 1, "low_grade": 0, "high_grade": 5, "enrollment": 373, "teachers": 31, "lunch_pct": 65.1, "charter": false, "lat": 39.010843, "lng": -94.418851, "ratio": 12.0}], "middle": [{"name": "HOGAN PREPARATORY ACAD MIDDLE", "district": "HOGAN PREPARATORY ACADEMY", "city": "KANSAS CITY", "level": 2, "low_grade": 7, "high_grade": 8, "enrollment": 188, "teachers": 12, "lunch_pct": 98.4, "charter": true, "lat": 39.009982, "lng": -94.551109, "ratio": 15.7}, {"name": "Academie Lafayette Armour IMS", "district": "ACADEMIE LAFAYETTE", "city": "KANSAS CITY", "level": 2, "low_grade": 6, "high_grade": 8, "enrollment": 264, "teachers": 19, "lunch_pct": 18.9, "charter": true, "lat": 39.063408, "lng": -94.582752, "ratio": 13.9}, {"name": "BROOKSIDE CHARTER MIDDLE SCHL", "district": "BROOKSIDE CHARTER SCH.", "city": "KANSAS CITY", "level": 2, "low_grade": 6, "high_grade": 8, "enrollment": 229, "teachers": 23, "lunch_pct": 98.7, "charter": true, "lat": 39.012349, "lng": -94.563663, "ratio": 10.0}, {"name": "ALLEN VILLAGE JUNIOR ACADEMY", "district": "ALLEN VILLAGE", "city": "KANSAS CITY", "level": 2, "low_grade": 6, "high_grade": 8, "enrollment": 105, "teachers": 8, "lunch_pct": 90.5, "charter": true, "lat": 39.052917, "lng": -94.594845, "ratio": 13.1}, {"name": "UNIVERSITY ACADEMY-MIDDLE", "district": "UNIVERSITY ACADEMY", "city": "KANSAS CITY", "level": 2, "low_grade": 6, "high_grade": 8, "enrollment": 264, "teachers": 21, "lunch_pct": 98.9, "charter": true, "lat": 39.003423, "lng": -94.578839, "ratio": 12.6}, {"name": "GUADALUPE CENTERS MIDDLE", "district": "GUADALUPE CENTERS SCHOOLS", "city": "KANSAS CITY", "level": 2, "low_grade": 6, "high_grade": 8, "enrollment": 344, "teachers": 32, "lunch_pct": 95.3, "charter": true, "lat": 39.079253, "lng": -94.596945, "ratio": 10.8}, {"name": "FRONTIER SCHL OF EXCELLENCE-M", "district": "FRONTIER SCHOOLS", "city": "KANSAS CITY", "level": 2, "low_grade": 6, "high_grade": 8, "enrollment": 85, "teachers": 11, "lunch_pct": 96.5, "charter": true, "lat": 39.025086, "lng": -94.573564, "ratio": 7.7},