{"fayetteville": {"elem": [{"name": "Ashley Elementary", "district": "Cumberland County Schools", "city": "Fayetteville", "level": 1, "low_grade": 3, "high_grade": 5, "enrollment": 178, "teachers": 14, "lunch_pct": 98.3, "charter": false, "lat": 35.0387, "lng": -78.9068, "ratio": 12.7}, {"name": "Brentwood Elementary", "district": "Cumberland County Schools", "city": "Fayetteville", "level": 1, "low_grade": -1, "high_grade": 5, "enrollment": 498, "teachers": 39, "lunch_pct": 99.4, "charter": false, "lat": 35.0382, "lng": -78.9832, "ratio": 12.8}, {"name": "Elizabeth M Cashwell Elementary", "district": "Cumberland County Schools", "city": "Fayetteville", "level": 1, "low_grade": -1, "high_grade": 5, "enrollment": 617, "teachers": 40, "lunch_pct": 99.5, "charter": false, "lat": 35.0065, "lng": -78.9149, "ratio": 15.4}, {"name": "Cliffdale Elementary", "district": "Cumberland County Schools", "city": "Fayetteville", "level": 1, "low_grade": -1, "high_grade": 5, "enrollment": 658, "teachers": 44, "lunch_pct": 99.5, "charter": false, "lat": 35.059, "lng": -78.9947, "ratio": 15.0}, {"name": "College Lakes Elementary", "district": "Cumberland County Schools", "city": "Fayetteville", "level": 1, "low_grade": 0, "high_grade": 5, "enrollment": 459, "teachers": 37, "lunch_pct": 99.3, "charter": false, "lat": 35.1278, "lng": -78.8994, "ratio": 12.4}, {"name": "J W Coon Elementary", "district": "Cumberland County Schools", "city": "Fayetteville", "level": 1, "low_grade": -1, "high_grade": 5, "enrollment": 199, "teachers": 18, "lunch_pct": 98.5, "charter": false, "lat": 35.032863, "lng": -78.959886, "ratio": 11.1}, {"name": "Cumberland Mills Elementary", "district": "Cumberland County Schools", "city": "Fayetteville", "level": 1, "low_grade": -1, "high_grade": 5, "enrollment": 572, "teachers": 40, "lunch_pct": 99.5, "charter": false, "lat": 35.0023, "lng": -78.9683, "ratio": 14.3}, {"name": "Cumberland Road Elementary", "district": "Cumberland County Schools", "city": "Fayetteville", "level": 1, "low_grade": -1, "high_grade": 5, "enrollment": 329, "teachers": 26, "lunch_pct": 99.1, "charter": false, "lat": 35.0211, "lng": -78.9111, "ratio": 12.7}, {"name": "Alderman Road Elementary", "district": "Cumberland County Schools", "city": "Fayetteville", "level": 1, "low_grade": -1, "high_grade": 5, "enrollment": 628, "teachers": 49, "lunch_pct": 99.5, "charter": false, "lat": 34.8952, "lng": -78.8603, "ratio": 12.8}, {"name": "Long Hill Elementary", "district": "Cumberland County Schools", "city": "Fayetteville", "level": 1, "low_grade": 2, "high_grade": 5, "enrollment": 442, "teachers": 32, "lunch_pct": 99.3, "charter": false, "lat": 35.1626, "lng": -78.8655, "ratio": 13.8}, {"name": "Mary McArthur Elementary", "district": "Cumberland County Schools", "city": "Fayetteville", "level": 1, "low_grade": -1, "high_grade": 5, "enrollment": 371, "teachers": 35, "lunch_pct": 99.2, "charter": false, "lat": 35.0252, "lng": -78.9412, "ratio": 10.6}, {"name": "Montclair Elementary", "district": "Cumberland County Schools", "city": "Fayetteville", "level": 1, "low_grade": -1, "high_grade": 5, "enrollment": 418, "teachers": 30, "lunch_pct": 99.0, "charter": false, "lat": 35.0555, "lng": -78.9613, "ratio": 13.9}, {"name": "Morganton Road Elementary", "district": "Cumberland County Schools", "city": "Fayetteville", "level": 1, "low_grade": 0, "high_grade": 5, "enrollment": 499, "teachers": 32, "lunch_pct": 99.4, "charter": false, "lat": 35.0796, "lng": -78.9874, "ratio": 15.6}, {"name": "Ponderosa Elementary", "district": "Cumberland County Schools", "city": "Fayetteville", "level": 1, "low_grade": -1, "high_grade": 5, "enrollment": 366, "teachers": 27, "lunch_pct": 99.2, "charter": false, "lat": 35.087, "lng": -78.9874, "ratio": 13.6}, {"name": "Benjamin J Martin Elementary", "district": "Cumberland County Schools", "city": "Fayetteville", "level": 1, "low_grade": -1, "high_grade": 5, "enrollment": 537, "teachers": 40, "lunch_pct": 99.4, "charter": false, "lat": 35.0931, "lng": -79.0099, "ratio": 13.4}, {"name": "J W Seabrook Elementary", "district": "Cumberland County Schools", "city": "Fayetteville", "level": 1, "low_grade": -1, "high_grade": 5, "enrollment": 269, "teachers": 21, "lunch_pct": 98.9, "charter": false, "lat": 34.9868, "lng": -78.7551, "ratio": 12.8}, {"name": "Sherwood Park Elementary", "district": "Cumberland County Schools", "city": "Fayetteville", "level": 1, "low_grade": -1, "high_grade": 5, "enrollment": 279, "teachers": 27, "lunch_pct": 98.9, "charter": false, "lat": 35.0185, "lng": -78.9622, "ratio": 10.3}, {"name": "Sunnyside Elementary", "district": "Cumberland County Schools", "city": "Fayetteville", "level": 1, "low_grade": 0, "high_grade": 5, "enrollment": 333, "teachers": 24, "lunch_pct": 99.1, "charter": false, "lat": 35.0281, "lng": -78.7969, "ratio": 13.9}, {"name": "Warrenwood Elementary", "district": "Cumberland County Schools", "city": "Fayetteville", "level": 1, "low_grade": -1, "high_grade": 5, "enrollment": 389, "teachers": 34, "lunch_pct": 99.2, "charter": false, "lat": 35.1206, "lng": -78.909, "ratio": 11.4}, {"name": "Westarea Elementary", "district": "Cumberland County Schools", "city": "Fayetteville", "level": 1, "low_grade": -1, "high_grade": 5, "enrollment": 559, "teachers": 40, "lunch_pct": 99.5, "charter": false, "lat": 35.0984, "lng": -78.9127, "ratio": 14.0}, {"name": "William H Owen Elementary", "district": "Cumberland County Schools", "city": "Fayetteville", "level": 1, "low_grade": -1, "high_grade": 5, "enrollment": 435, "teachers": 37, "lunch_pct": 99.3, "charter": false, "lat": 35.042, "lng": -78.9541, "ratio": 11.8}, {"name": "Bill Hefner Elementary", "district": "Cumberland County Schools", "city": "Fayetteville", "level": 1, "low_grade": -1, "high_grade": 5, "enrollment": 651, "teachers": 42, "lunch_pct": 99.5, "charter": false, "lat": 35.0685, "lng": -79.045, "ratio": 15.5}, {"name": "E Melvin Honeycutt Elementary", "district": "Cumberland County Schools", "city": "Fayetteville", "level": 1, "low_grade": 0, "high_grade": 5, "enrollment": 834, "teachers": 56, "lunch_pct": 50.4, "charter": false, "lat": 35.001, "lng": -78.9929, "ratio": 14.9}, {"name": "Alma O Easom Elementary", "district": "Cumberland County Schools", "city": "Fayetteville", "level": 1, "low_grade": 0, "high_grade": 1, "enrollment": 266, "teachers": 19, "lunch_pct": 98.9, "charter": false, "lat": 35.060879, "lng": -78.908525, "ratio": 14.0}, {"name": "Loyd E Auman Elementary", "district": "Cumberland County Schools", "city": "Fayetteville", "level": 1, "low_grade": -1, "high_grade": 5, "enrollment": 528, "teachers": 42, "lunch_pct": 99.4, "charter": false, "lat": 35.038, "lng": -79.0109, "ratio": 12.6}, {"name": "Ferguson-Easley Elementary", "district": "Cumberland County Schools", "city": "Fayetteville", "level": 1, "low_grade": 0, "high_grade": 5, "enrollment": 342, "teachers": 26, "lunch_pct": 99.1, "charter": false, "lat": 35.0851, "lng": -78.8996, "ratio": 13.2}, {"name": "Glendale Acres Elementary", "district": "Cumberland County Schools", "city": "Fayetteville", "level": 1, "low_grade": -1, "high_grade": 2, "enrollment": 220, "teachers": 18, "lunch_pct": 98.6, "charter": false, "lat": 35.0348, "lng": -78.9279, "ratio": 12.2}, {"name": "Howard L Hall Elementary", "district": "Cumberland County Schools", "city": "Fayetteville", "level": 1, "low_grade": 0, "high_grade": 5, "enrollment": 600, "teachers": 42, "lunch_pct": 99.5, "charter": false, "lat": 35.1569, "lng": -78.8876, "ratio": 14.3}, {"name": "Lucile Souders Elementary", "district": "Cumberland County Schools", "city": "Fayetteville", "level": 1, "low_grade": -1, "high_grade": 5, "enrollment": 418, "teachers": 29, "lunch_pct": 99.3, "charter": false, "lat": 35.0997, "lng": -78.8814, "ratio": 14.4}, {"name": "Margaret Willis Elementary", "district": "Cumberland County Schools", "city": "Fayetteville", "level": 1, "low_grade": -1, "high_grade": 5, "enrollment": 299, "teachers": 25, "lunch_pct": 99.0, "charter": false, "lat": 35.0712, "lng": -78.904, "ratio": 12.0}, {"name": "Walker-Spivey Elementary", "district": "Cumberland County Schools", "city": "Fayetteville", "level": 1, "low_grade": 0, "high_grade": 5, "enrollment": 269, "teachers": 22, "lunch_pct": 98.9, "charter": false, "lat": 35.03908, "lng": -78.87268, "ratio": 12.2}, {"name": "Vanstory Hills Elementary", "district": "Cumberland County Schools", "city": "Fayetteville", "level": 1, "low_grade": 2, "high_grade": 5, "enrollment": 469, "teachers": 35, "lunch_pct": 99.4, "charter": false, "lat": 35.0568, "lng": -78.9273, "ratio": 13.4}, {"name": "E E Miller Elementary", "district": "Cumberland County Schools", "city": "Fayetteville", "level": 1, "low_grade": -1, "high_grade": 5, "enrollment": 625, "teachers": 43, "lunch_pct": 99.5, "charter": false, "lat": 35.0544, "lng": -79.0441, "ratio": 14.5}, {"name": "Lake Rim Elementary", "district": "Cumberland County Schools", "city": "Fayetteville", "level": 1, "low_grade": -1, "high_grade": 5, "enrollment": 641, "teachers": 41, "lunch_pct": 99.5, "charter": false, "lat": 35.0495, "lng": -79.0763, "ratio": 15.6}, {"name": "Stoney Point Elementary", "district": "Cumberland County Schools", "city": "Fayetteville", "level": 1, "low_grade": 0, "high_grade": 5, "enrollment": 879, "teachers": 58, "lunch_pct": 37.1, "charter": false, "lat": 34.9796, "lng": -79.0148, "ratio": 15.2}, {"name": "New Century International Elementary", "district": "Cumberland County Schools", "city": "Fayetteville", "level": 1, "low_grade": -1, "high_grade": 5, "enrollment": 686, "teachers": 51, "lunch_pct": 99.6, "charter": false, "lat": 35.011755, "lng": -79.044104, "ratio": 13.5}, {"name": "Cumberland Academy K-5 Virtual School", "district": "Cumberland County Schools", "city": "Fayetteville", "level": 1, "low_grade": 0, "high_grade": 5, "enrollment": 406, "teachers": 31, "lunch_pct": 5.4, "charter": false, "lat": 35.065062, "lng": -78.874997, "ratio": 13.1}], "middle": [{"name": "Douglas Byrd Middle", "district": "Cumberland County Schools", "city": "Fayetteville", "level": 2, "low_grade": 6, "high_grade": 8, "enrollment": 935, "teachers": 61, "lunch_pct": 99.7, "charter": false, "lat": 35.0332, "lng": -78.9487, "ratio": 15.3}, {"name": "Anne Chesnutt Middle", "district": "Cumberland County Schools", "city": "Fayetteville", "level": 2, "low_grade": 6, "high_grade": 8, "enrollment": 443, "teachers": 37, "lunch_pct": 99.3, "charter": false, "lat": 35.0509, "lng": -78.9731, "ratio": 12.0}, {"name": "Lewis Chapel Middle", "district": "Cumberland County Schools", "city": "Fayetteville", "level": 2, "low_grade": 6, "high_grade": 8, "enrollment": 578, "teachers": 40, "lunch_pct": 99.5, "charter": false, "lat": 35.0485, "lng": -78.9764, "ratio": 14.4}, {"name": "Pine Forest Middle", "district": "Cumberland County Schools", "city": "Fayetteville", "level": 2, "low_grade": 6, "high_grade": 8, "enrollment": 738, "teachers": 46, "lunch_pct": 56.2, "charter": false, "lat": 35.1801, "lng": -78.8577, "ratio": 16.0}, {"name": "Westover Middle", "district": "Cumberland County Schools", "city": "Fayetteville", "level": 2, "low_grade": 6, "high_grade": 8, "enrollment": 784, "teachers": 49, "lunch_pct": 99.6, "charter": false, "lat": 35.0844, "lng": -78.9901, "ratio": 16.0}, {"name": "Mac Williams Middle", "district": "Cumberland County Schools", "city": "Fayetteville", "level": 2, "low_grade": 6, "high_grade": 8, "enrollment": 1151, "teachers": 60, "lunch_pct": 57.9, "charter": false, "lat": 35.0346, "lng": -78.7659, "ratio": 19.2}, {"name": "Seventy-First Classical Middle", "district": "Cumberland County Schools", "city": "Fayetteville", "level": 2, "low_grade": 6, "high_grade": 8, "enrollment": 430, "teachers": 31, "lunch_pct": 55.1, "charter": false, "lat": 35.038, "lng": -79.0084, "ratio": 13.9}, {"name": "Howard Learning Academy", "district": "Cumberland County Schools", "city": "Fayetteville", "level": 2, "low_grade": 5, "high_grade": 8, "enrollment": 16, "teachers": 16, "lunch_pct": 81.2, "charter": false, "lat": 35.02964, "lng": -78.897971, "ratio": 1.0}, {"name": "Luther Nick Jeralds Middle", "district": "Cumberland County Schools", "city": "Fayetteville", "level": 2, "low_grade": 6, "high_grade": 8, "enrollment": 616, "teachers": 39, "lunch_pct": 99.5, "charter": false, "lat": 35.0928, "lng": -78.8786, "ratio": 15.8}, {"name": "R Max Abbott Middle", "district": "Cumberland County Schools", "city": "Fayetteville", "level": 2, "low_grade": 6, "high_grade": 8, "enrollment": 759, "teachers": 46, "lunch_pct": 98.7, "charter": false, "lat": 35.051, "lng": -78.9236, "ratio": 16.5}, {"name": "John R Griffin Middle", "district": "Cumberland County Schools", "city": "Fayetteville", "level": 2, "low_grade": 6, "high_grade": 8, "enrollment": 1091, "teachers": 62, "lunch_pct": 39.7, "charter": false, "lat": 35.000029, "lng": -78.988911, "ratio": 17.6}, {"name": "Reid Ross Classical Middle", "district": "Cumberland County Schools", "city": "Fayetteville", "level": 2, "low_grade": 6, "high_grade": 8, "enrollment": 226, "teachers": 17, "lunch_pct": 74.3, "charter": false, "lat": 35.102, "lng": -78.8766, "ratio": 13.3}, {"name": "New Century International Middle", "district": "Cumberland County Schools", "city": "Fayetteville", "level": 2, "low_grade": 6, "high_grade": 8, "enrollment": 391, "teachers": 27, "lunch_pct": 54.7, "charter": false, "lat": 35.011, "lng": -79.03916, "ratio": 14.5}], "high": [{"name": "Douglas Byrd High", "district": "Cumberland County Schools", "city": "Fayetteville", "level": 3, "low_grade": 9, "high_grade": 12, "enrollment": 940, "teachers": 63, "lunch_pct": 99.0, "charter": false, "lat": 35.0314, "lng": -78.9485, "ratio": 14.9}, {"name": "Cape Fear High", "district": "Cumberland County Schools", "city": "Fayetteville", "level": 3, "low_grade": 9, "high_grade": 12, "enrollment": 1529, "teachers": 83, "lunch_pct": 50.0, "charter": false, "lat": 35.0345, "lng": -78.762, "ratio": 18.4}, {"name": "Massey Hill Classical High", "district": "Cumberland County Schools", "city": "Fayetteville", "level": 3, "low_grade": 9, "high_grade": 12, "enrollment": 264, "teachers": 21, "lunch_pct": 42.0, "charter": false, "lat": 35.0311, "lng": -78.8949, "ratio": 12.6}, {"name": "Pine Forest High", "district": "Cumberland County Schools", "city": "Fayetteville", "level": 3, "low_grade": 9, "high_grade": 12, "enrollment": 1572, "teachers": 82, "lunch_pct": 62.5, "charter": false, "lat": 35.1548, "lng": -78.8865, "ratio": 19.2}, {"name": "Seventy-First High", "district": "Cumberland County Schools", "city": "Fayetteville", "level": 3, "low_grade": 9, "high_grade": 12, "enrollment": 1366, "teachers": 80, "lunch_pct": 70.1, "charter": false, "lat": 35.039, "lng": -79.0052, "ratio": 17.1}, {"name": "Westover High", "district": "Cumberland County Schools", "city": "Fayetteville", "level": 3, "low_grade": 9, "high_grade": 12, "enrollment": 1202, "teachers": 67, "lunch_pct": 99.8, "charter": false, "lat": 35.0842, "lng": -78.9917, "ratio": 17.9}, {"name": "E E Smith High", "district": "Cumberland County Schools", "city": "Fayetteville", "level": 3, "low_grade": 9, "high_grade": 12, "enrollment": 1004, "teachers": 59, "lunch_pct": 99.2, "charter": false, "lat": 35.0844, "lng": -78.8957, "ratio": 17.0}, {"name": "Reid Ross Classical High", "district": "Cumberland County Schools", "city": "Fayetteville", "level": 3, "low_grade": 9, "high_grade": 12, "enrollment": 229, "teachers": 22, "lunch_pct": 73.8, "charter": false, "lat": 35.102, "lng": -78.877, "ratio": 10.4}, {"name": "Terry Sanford High", "district": "Cumberland County Schools", "city": "Fayetteville", "level": 3, "low_grade": 9, "high_grade": 12, "enrollment": 1224, "teachers": 61, "lunch_pct": 58.7, "charter": false, "lat": 35.065, "lng": -78.9156, "ratio": 20.1}, {"name": "Ramsey Street High", "district": "Cumberland County Schools", "city": "Fayetteville", "level": 3, "low_grade": 9, "high_grade": 12, "enrollment": 13, "teachers": 14, "lunch_pct": 76.9, "charter": false, "lat": 35.079029, "lng": -78.883418, "ratio": 0.9}, {"name": "Jack Britt High", "district": "Cumberland County Schools", "city": "Fayetteville", "level": 3, "low_grade": 9, "high_grade": 12, "enrollment": 1890, "teachers": 100, "lunch_pct": 38.1, "charter": false, "lat": 34.9773, "lng": -79.0113, "ratio": 18.9}, {"name": "Cross Creek Early College", "district": "Cumberland County Schools", "city": "Fayetteville", "level": 3, "low_grade": 9, "high_grade": 12, "enrollment": 246, "teachers": 12, "lunch_pct": 57.3, "charter": false, "lat": 35.07564, "lng": -78.89198, "ratio": 20.5}, {"name": "Cumberland Polytechnic", "district": "Cumberland County Schools", "city": "Fayetteville", "level": 3, "low_grade": 9, "high_grade": 13, "enrollment": 289, "teachers": 12, "lunch_pct": 42.6, "charter": false, "lat": 35.066276, "lng": -78.921718, "ratio": 24.1}, {"name": "Alger B. Wilkins High School", "district": "Cumberland County Schools", "city": "Fayetteville", "level": 3, "low_grade": 9, "high_grade": 12, "enrollment": 128, "teachers": 10, "lunch_pct": 97.7, "charter": false, "lat": 35.083313, "lng": -78.951917, "ratio": 12.8}, {"name": "Cumberland International Early College", "district": "Cumberland County Schools", "city": "Fayetteville", "level": 3, "low_grade": 9, "high_grade": 12, "enrollment": 269, "teachers": 12, "lunch_pct": 55.0, "charter": false, "lat": 35.07336, "lng": -78.895349, "ratio": 22.4}, {"name": "Cumberland Academy 6-12 Virtual School", "district": "Cumberland County Schools", "city": "Fayetteville", "level": 3, "low_grade": 6, "high_grade": 12, "enrollment": 590, "teachers": 40, "lunch_pct": 65.3, "charter": false, "lat": 35.065062, "lng": -78.874997, "ratio": 14.8}]}, "roseboro": {"elem": [{"name": "Beaver Dam Elementary", "district": "Cumberland County Schools", "city": "Roseboro", "level": 1, "low_grade": 0, "high_grade": 5, "enrollment": 86, "teachers": 8, "lunch_pct": 96.5, "charter": false, "lat": 34.8945, "lng": -78.5808, "ratio": 10.8}, {"name": "Roseboro Elementary", "district": "Sampson County Schools", "city": "Roseboro", "level": 1, "low_grade": -1, "high_grade": 5, "enrollment": 387, "teachers": 26, "lunch_pct": 99.2, "charter": false, "lat": 34.944194, "lng": -78.521743, "ratio": 14.9}], "middle": [{"name": "Roseboro-Salemburg Middle", "district": "Sampson County Schools", "city": "Roseboro", "level": 2, "low_grade": 6, "high_grade": 8, "enrollment": 406, "teachers": 24, "lunch_pct": 99.3, "charter": false, "lat": 34.950249, "lng": -78.513009, "ratio": 16.9}], "high": []}, "spring lake": {"elem": [{"name": "Manchester Elementary", "district": "Cumberland County Schools", "city": "Spring Lake", "level": 1, "low_grade": 0, "high_grade": 5, "enrollment": 271, "teachers": 20, "lunch_pct": 98.9, "charter": false, "lat": 35.1705, "lng": -78.967, "ratio": 13.6}, {"name": "William T Brown Elementary", "district": "Cumberland County Schools", "city": "Spring Lake", "level": 1, "low_grade": -1, "high_grade": 5, "enrollment": 598, "teachers": 38, "lunch_pct": 99.5, "charter": false, "lat": 35.160002, "lng": -78.965201, "ratio": 15.7}, {"name": "Anderson Creek Academy", "district": "Anderson Creek Academy", "city": "Spring Lake", "level": 1, "low_grade": 0, "high_grade": 5, "enrollment": 288, "teachers": 10, "lunch_pct": 0.0, "charter": true, "lat": 35.277769, "lng": -78.976683, "ratio": 28.8}, {"name": "Overhills Elementary", "district": "Harnett County Schools", "city": "Spring Lake", "level": 1, "low_grade": -1, "high_grade": 5, "enrollment": 930, "teachers": 65, "lunch_pct": 52.9, "charter": false, "lat": 35.2469, "lng": -78.9657, "ratio": 14.3}], "middle": [{"name": "Spring Lake Middle", "district": "Cumberland County Schools", "city": "Spring Lake", "level": 2, "low_grade": 6, "high_grade": 8, "enrollment": 512, "teachers": 33, "lunch_pct": 99.4, "charter": false, "lat": 35.1685, "lng": -78.9657, "ratio": 15.5}, {"name": "Overhills Middle", "district": "Harnett County Schools", "city": "Spring Lake", "level": 2, "low_grade": 6, "high_grade": 8, "enrollment": 799, "teachers": 50, "lunch_pct": 60.6, "charter": false, "lat": 35.2484, "lng": -78.968, "ratio": 16.0}], "high": [{"name": "Overhills High", "district": "Harnett County Schools", "city": "Spring Lake", "level": 3, "low_grade": 9, "high_grade": 12, "enrollment": 1971, "teachers": 103, "lunch_pct": 46.7, "charter": false, "lat": 35.2455, "lng": -78.9698, "ratio": 19.1}]}, "eastover": {"elem": [{"name": "Eastover-Central Elementary", "district": "Cumberland County Schools", "city": "Eastover", "level": 1, "low_grade": -1, "high_grade": 5, "enrollment": 397, "teachers": 30, "lunch_pct": 43.3, "charter": false, "lat": 35.1228, "lng": -78.7618, "ratio": 13.2}, {"name": "Armstrong Elementary", "district": "Cumberland County Schools", "city": "Eastover", "level": 1, "low_grade": -1, "high_grade": 5, "enrollment": 478, "teachers": 33, "lunch_pct": 99.4, "charter": false, "lat": 35.0915, "lng": -78.7904, "ratio": 14.5}], "middle": [], "high": []}, "wade": {"elem": [{"name": "District No 7 Elementary", "district": "Cumberland County Schools", "city": "Wade", "level": 1, "low_grade": -1, "high_grade": 5, "enrollment": 195, "teachers": 16, "lunch_pct": 98.5, "charter": false, "lat": 35.1497, "lng": -78.7055, "ratio": 12.2}], "middle": [], "high": []}, "hope mills": {"elem": [{"name": "Ed V Baldwin Elementary", "district": "Cumberland County Schools", "city": "Hope Mills", "level": 1, "low_grade": -1, "high_grade": 5, "enrollment": 592, "teachers": 37, "lunch_pct": 99.5, "charter": false, "lat": 34.9788, "lng": -78.9346, "ratio": 16.0}, {"name": "Rockfish Elementary", "district": "Cumberland County Schools", "city": "Hope Mills", "level": 1, "low_grade": -1, "high_grade": 5, "enrollment": 696, "teachers": 46, "lunch_pct": 98.3, "charter": false, "lat": 34.9715, "lng": -78.957, "ratio": 15.1}, {"name": "C Wayne Collier Elementary", "district": "Cumberland County Schools", "city": "Hope Mills", "level": 1, "low_grade": -1, "high_grade": 5, "enrollment": 526, "teachers": 28, "lunch_pct": 99.4, "charter": false, "lat": 34.9743, "lng": -78.9828, "ratio": 18.8}, {"name": "Gallberry Farm Elementary", "district": "Cumberland County Schools", "city": "Hope Mills", "level": 1, "low_grade": -1, "high_grade": 5, "enrollment": 908, "teachers": 60, "lunch_pct": 99.7, "charter": false, "lat": 34.9204, "lng": -78.915, "ratio": 15.1}, {"name": "Gray's Creek Elementary", "district": "Cumberland County Schools", "city": "Hope Mills", "level": 1, "low_grade": -1, "high_grade": 5, "enrollment": 461, "teachers": 28, "lunch_pct": 98.3, "charter": false, "lat": 34.8903, "lng": -78.868, "ratio": 16.5}], "middle": [{"name": "Hope Mills Middle", "district": "Cumberland County Schools", "city": "Hope Mills", "level": 2, "low_grade": 6, "high_grade": 8, "enrollment": 514, "teachers": 33, "lunch_pct": 99.4, "charter": false, "lat": 34.9656, "lng": -78.9396, "ratio": 15.6}, {"name": "South View Middle", "district": "Cumberland County Schools", "city": "Hope Mills", "level": 2, "low_grade": 6, "high_grade": 8, "enrollment": 661, "teachers": 40, "lunch_pct": 98.8, "charter": false, "lat": 34.9807, "lng": -78.9298, "ratio": 16.5}, {"name": "Gray's Creek Middle", "district": "Cumberland County Schools", "city": "Hope Mills", "level": 2, "low_grade": 6, "high_grade": 8, "enrollment": 1126, "teachers": 60, "lunch_pct": 50.3, "charter": false, "lat": 34.8904, "lng": -78.90059, "ratio": 18.8}], "high": [{"name": "South View High", "district": "Cumberland County Schools", "city": "Hope Mills", "level": 3, "low_grade": 9, "high_grade": 12, "enrollment": 1502, "teachers": 91, "lunch_pct": 65.9, "charter": false, "lat": 34.979, "lng": -78.9275, "ratio": 16.5}, {"name": "Gray's Creek High", "district": "Cumberland County Schools", "city": "Hope Mills", "level": 3, "low_grade": 9, "high_grade": 12, "enrollment": 1395, "teachers": 74, "lunch_pct": 43.5, "charter": false, "lat": 34.9221, "lng": -78.9046, "ratio": 18.9}]}, "linden": {"elem": [{"name": "Raleigh Road Elementary", "district": "Cumberland County Schools", "city": "Linden", "level": 1, "low_grade": 0, "high_grade": 1, "enrollment": 216, "teachers": 13, "lunch_pct": 98.6, "charter": false, "lat": 35.2174, "lng": -78.8409, "ratio": 16.6}], "middle": [], "high": []}, "stedman": {"elem": [{"name": "Stedman Primary", "district": "Cumberland County Schools", "city": "Stedman", "level": 1, "low_grade": -1, "high_grade": 1, "enrollment": 175, "teachers": 12, "lunch_pct": 98.3, "charter": false, "lat": 35.0108, "lng": -78.6928, "ratio": 14.6}, {"name": "Stedman Elementary", "district": "Cumberland County Schools", "city": "Stedman", "level": 1, "low_grade": 0, "high_grade": 5, "enrollment": 271, "teachers": 25, "lunch_pct": 98.9, "charter": false, "lat": 35.0134, "lng": -78.6962, "ratio": 10.8}], "middle": [], "high": []}, "greenville": {"elem": [{"name": "Belvoir Elementary", "district": "Pitt County Schools", "city": "Greenville", "level": 1, "low_grade": -1, "high_grade": 5, "enrollment": 373, "teachers": 31, "lunch_pct": 99.2, "charter": false, "lat": 35.6676, "lng": -77.4175, "ratio": 12.0}, {"name": "Chicod", "district": "Pitt County Schools", "city": "Greenville", "level": 1, "low_grade": -1, "high_grade": 8, "enrollment": 958, "teachers": 59, "lunch_pct": 35.1, "charter": false, "lat": 35.463956, "lng": -77.271567, "ratio": 16.2}, {"name": "Falkland Elementary", "district": "Pitt County Schools", "city": "Greenville", "level": 1, "low_grade": -1, "high_grade": 5, "enrollment": 249, "teachers": 21, "lunch_pct": 98.8, "charter": false, "lat": 35.6697, "lng": -77.4874, "ratio": 11.9}, {"name": "Pactolus", "district": "Pitt County Schools", "city": "Greenville", "level": 1, "low_grade": -1, "high_grade": 8, "enrollment": 600, "teachers": 40, "lunch_pct": 99.5, "charter": false, "lat": 35.6225, "lng": -77.2234, "ratio": 15.0}, {"name": "Eastern Elementary", "district": "Pitt County Schools", "city": "Greenville", "level": 1, "low_grade": 0, "high_grade": 5, "enrollment": 768, "teachers": 44, "lunch_pct": 65.0, "charter": false, "lat": 35.5965, "lng": -77.3432, "ratio": 17.5}, {"name": "Elmhurst Elementary", "district": "Pitt County Schools", "city": "Greenville", "level": 1, "low_grade": 0, "high_grade": 5, "enrollment": 460, "teachers": 30, "lunch_pct": 58.5, "charter": false, "lat": 35.5958, "lng": -77.363, "ratio": 15.3}, {"name": "South Greenville Elementary", "district": "Pitt County Schools", "city": "Greenville", "level": 1, "low_grade": 0, "high_grade": 5, "enrollment": 281, "teachers": 22, "lunch_pct": 96.4, "charter": false, "lat": 35.598712, "lng": -77.38491, "ratio": 12.8}, {"name": "Wahl Coates Elementary", "district": "Pitt County Schools", "city": "Greenville", "level": 1, "low_grade": -1, "high_grade": 5, "enrollment": 423, "teachers": 32, "lunch_pct": 99.3, "charter": false, "lat": 35.6062, "lng": -77.3497, "ratio": 13.2}, {"name": "Wintergreen Intermediate", "district": "Pitt County Schools", "city": "Greenville", "level": 1, "low_grade": 3, "high_grade": 5, "enrollment": 809, "teachers": 48, "lunch_pct": 37.1, "charter": false, "lat": 35.5444, "lng": -77.3535, "ratio": 16.9}, {"name": "Wintergreen Primary", "district": "Pitt County Schools", "city": "Greenville", "level": 1, "low_grade": -1, "high_grade": 2, "enrollment": 722, "teachers": 48, "lunch_pct": 45.2, "charter": false, "lat": 35.5465, "lng": -77.3534, "ratio": 15.0}, {"name": "Northwest Elementary", "district": "Pitt County Schools", "city": "Greenville", "level": 1, "low_grade": -1, "high_grade": 5, "enrollment": 365, "teachers": 28, "lunch_pct": 99.2, "charter": false, "lat": 35.738, "lng": -77.4779, "ratio": 13.0}, {"name": "Lakeforest Elementary", "district": "Pitt County Schools", "city": "Greenville", "level": 1, "low_grade": -1, "high_grade": 5, "enrollment": 804, "teachers": 53, "lunch_pct": 98.5, "charter": false, "lat": 35.5924, "lng": -77.4213, "ratio": 15.2}, {"name": "ECU Community School", "district": "East Carolina Community School", "city": "Greenville", "level": 1, "low_grade": 0, "high_grade": 5, "enrollment": 123, "teachers": 13, "lunch_pct": 94.3, "charter": false, "lat": 35.598712, "lng": -77.38491, "ratio": 9.5}], "middle": [{"name": "C M Eppes Middle", "district": "Pitt County Schools", "city": "Greenville", "level": 2, "low_grade": 6, "high_grade": 8, "enrollment": 626, "teachers": 44, "lunch_pct": 99.4, "charter": false, "lat": 35.5997, "lng": -77.3607, "ratio": 14.2}, {"name": "Wellcome Middle", "district": "Pitt County Schools", "city": "Greenville", "level": 2, "low_grade": 6, "high_grade": 8, "enrollment": 413, "teachers": 33, "lunch_pct": 99.3, "charter": false, "lat": 35.6677, "lng": -77.3629, "ratio": 12.5}, {"name": "E B Aycock Middle", "district": "Pitt County Schools", "city": "Greenville", "level": 2, "low_grade": 6, "high_grade": 8, "enrollment": 661, "teachers": 46, "lunch_pct": 98.6, "charter": false, "lat": 35.5869, "lng": -77.3538, "ratio": 14.4}, {"name": "Hope Middle", "district": "Pitt County Schools", "city": "Greenville", "level": 2, "low_grade": 6, "high_grade": 8, "enrollment": 877, "teachers": 49, "lunch_pct": 35.3, "charter": false, "lat": 35.513107, "lng": -77.283046, "ratio": 17.9}], "high": [{"name": "D H Conley High", "district": "Pitt County Schools", "city": "Greenville", "level": 3, "low_grade": 9, "high_grade": 12, "enrollment": 1703, "teachers": 92, "lunch_pct": 34.1, "charter": false, "lat": 35.5306, "lng": -77.3248, "ratio": 18.5}, {"name": "Junius H Rose High", "district": "Pitt County Schools", "city": "Greenville", "level": 3, "low_grade": 9, "high_grade": 12, "enrollment": 1525, "teachers": 80, "lunch_pct": 49.8, "charter": false, "lat": 35.5939, "lng": -77.3842, "ratio": 19.1}, {"name": "Innovation Early College High", "district": "Pitt County Schools", "city": "Greenville", "level": 3, "low_grade": 9, "high_grade": 13, "enrollment": 211, "teachers": 11, "lunch_pct": 47.4, "charter": false, "lat": 35.604717, "lng": -77.362081, "ratio": 19.2}]}, "winterville": {"elem": [{"name": "W H Robinson Elementary", "district": "Pitt County Schools", "city": "Winterville", "level": 1, "low_grade": -1, "high_grade": 5, "enrollment": 616, "teachers": 40, "lunch_pct": 59.1, "charter": false, "lat": 35.5339, "lng": -77.3992, "ratio": 15.4}, {"name": "Creekside Elementary", "district": "Pitt County Schools", "city": "Winterville", "level": 1, "low_grade": -1, "high_grade": 5, "enrollment": 629, "teachers": 44, "lunch_pct": 74.4, "charter": false, "lat": 35.5364, "lng": -77.4226, "ratio": 14.3}, {"name": "Ridgewood Elementary", "district": "Pitt County Schools", "city": "Winterville", "level": 1, "low_grade": 0, "high_grade": 5, "enrollment": 722, "teachers": 51, "lunch_pct": 46.8, "charter": false, "lat": 35.56376, "lng": -77.428036, "ratio": 14.2}, {"name": "Winterville Charter Academy", "district": "Winterville Charter Academy", "city": "Winterville", "level": 1, "low_grade": 0, "high_grade": 8, "enrollment": 592, "teachers": 31, "lunch_pct": 61.3, "charter": true, "lat": 35.552913, "lng": -77.367632, "ratio": 19.1}], "middle": [{"name": "A G Cox Middle", "district": "Pitt County Schools", "city": "Winterville", "level": 2, "low_grade": 6, "high_grade": 8, "enrollment": 865, "teachers": 50, "lunch_pct": 52.1, "charter": false, "lat": 35.5245, "lng": -77.4011, "ratio": 17.3}], "high": [{"name": "South Central", "district": "Pitt County Schools", "city": "Winterville", "level": 3, "low_grade": 9, "high_grade": 12, "enrollment": 1675, "teachers": 91, "lunch_pct": 55.1, "charter": false, "lat": 35.5413, "lng": -77.4288, "ratio": 18.4}, {"name": "PCS Early College High School", "district": "Pitt County Schools", "city": "Winterville", "level": 3, "low_grade": 9, "high_grade": 13, "enrollment": 322, "teachers": 14, "lunch_pct": 99.1, "charter": false, "lat": 35.550543, "lng": -77.412433, "ratio": 23.0}]}, "ayden": {"elem": [{"name": "Ayden Elementary", "district": "Pitt County Schools", "city": "Ayden", "level": 1, "low_grade": -1, "high_grade": 5, "enrollment": 638, "teachers": 45, "lunch_pct": 99.5, "charter": false, "lat": 35.4755, "lng": -77.4322, "ratio": 14.2}], "middle": [{"name": "Ayden Middle", "district": "Pitt County Schools", "city": "Ayden", "level": 2, "low_grade": 6, "high_grade": 8, "enrollment": 388, "teachers": 27, "lunch_pct": 99.2, "charter": false, "lat": 35.4714, "lng": -77.4345, "ratio": 14.4}], "high": [{"name": "Ayden-Grifton High", "district": "Pitt County Schools", "city": "Ayden", "level": 3, "low_grade": 9, "high_grade": 12, "enrollment": 659, "teachers": 44, "lunch_pct": 99.4, "charter": false, "lat": 35.4303, "lng": -77.432, "ratio": 15.0}]}, "bethel": {"elem": [{"name": "Bethel Elementary", "district": "Pitt County Schools", "city": "Bethel", "level": 1, "low_grade": -1, "high_grade": 8, "enrollment": 274, "teachers": 23, "lunch_pct": 98.9, "charter": false, "lat": 35.80614, "lng": -77.370391, "ratio": 11.9}], "middle": [], "high": [{"name": "North Pitt High", "district": "Pitt County Schools", "city": "Bethel", "level": 3, "low_grade": 9, "high_grade": 12, "enrollment": 814, "teachers": 52, "lunch_pct": 99.6, "charter": false, "lat": 35.747486, "lng": -77.362847, "ratio": 15.7}]}, "farmville": {"elem": [{"name": "H B Sugg Elementary", "district": "Pitt County Schools", "city": "Farmville", "level": 1, "low_grade": -1, "high_grade": 2, "enrollment": 401, "teachers": 28, "lunch_pct": 99.3, "charter": false, "lat": 35.5945, "lng": -77.5751, "ratio": 14.3}, {"name": "Sam D Bundy Elementary", "district": "Pitt County Schools", "city": "Farmville", "level": 1, "low_grade": 3, "high_grade": 5, "enrollment": 378, "teachers": 24, "lunch_pct": 98.9, "charter": false, "lat": 35.5951, "lng": -77.577196, "ratio": 15.8}], "middle": [{"name": "Farmville Middle", "district": "Pitt County Schools", "city": "Farmville", "level": 2, "low_grade": 6, "high_grade": 8, "enrollment": 611, "teachers": 43, "lunch_pct": 99.5, "charter": false, "lat": 35.5935, "lng": -77.5726, "ratio": 14.2}], "high": [{"name": "Farmville Central High", "district": "Pitt County Schools", "city": "Farmville", "level": 3, "low_grade": 9, "high_grade": 12, "enrollment": 789, "teachers": 45, "lunch_pct": 99.4, "charter": false, "lat": 35.594114, "lng": -77.568775, "ratio": 17.5}]}, "grimesland": {"elem": [{"name": "G R Whitfield", "district": "Pitt County Schools", "city": "Grimesland", "level": 1, "low_grade": -1, "high_grade": 8, "enrollment": 533, "teachers": 35, "lunch_pct": 62.7, "charter": false, "lat": 35.5643, "lng": -77.1814, "ratio": 15.2}], "middle": [], "high": []}, "grifton": {"elem": [{"name": "Grifton", "district": "Pitt County Schools", "city": "Grifton", "level": 1, "low_grade": -1, "high_grade": 8, "enrollment": 391, "teachers": 30, "lunch_pct": 99.2, "charter": false, "lat": 35.372271, "lng": -77.431946, "ratio": 13.0}], "middle": [], "high": []}, "stokes": {"elem": [{"name": "Stokes", "district": "Pitt County Schools", "city": "Stokes", "level": 1, "low_grade": -1, "high_grade": 8, "enrollment": 238, "teachers": 17, "lunch_pct": 98.7, "charter": false, "lat": 35.7168, "lng": -77.268, "ratio": 14.0}], "middle": [], "high": []}, "asheville": {"elem": [{"name": "Francine Delany New School", "district": "Francine Delany New School", "city": "Asheville", "level": 1, "low_grade": 0, "high_grade": 8, "enrollment": 178, "teachers": 15, "lunch_pct": 0.0, "charter": true, "lat": 35.5736, "lng": -82.5942, "ratio": 11.9}, {"name": "Evergreen Community Charter", "district": "Evergreen Community Charter", "city": "Asheville", "level": 1, "low_grade": 0, "high_grade": 8, "enrollment": 441, "teachers": 30, "lunch_pct": 0.0, "charter": true, "lat": 35.6031, "lng": -82.4988, "ratio": 14.7}, {"name": "Hall Fletcher Elementary", "district": "Asheville City Schools", "city": "Asheville", "level": 1, "low_grade": -1, "high_grade": 5, "enrollment": 307, "teachers": 24, "lunch_pct": 58.0, "charter": false, "lat": 35.5746, "lng": -82.5741, "ratio": 12.8}, {"name": "Claxton Elementary", "district": "Asheville City Schools", "city": "Asheville", "level": 1, "low_grade": 0, "high_grade": 5, "enrollment": 396, "teachers": 27, "lunch_pct": 38.4, "charter": false, "lat": 35.6078, "lng": -82.5532, "ratio": 14.7}, {"name": "Ira B Jones Elementary", "district": "Asheville City Schools", "city": "Asheville", "level": 1, "low_grade": -1, "high_grade": 5, "enrollment": 396, "teachers": 29, "lunch_pct": 50.0, "charter": false, "lat": 35.6304, "lng": -82.5496, "ratio": 13.7}, {"name": "Lucy S. Herring Elementary", "district": "Asheville City Schools", "city": "Asheville", "level": 1, "low_grade": -1, "high_grade": 5, "enrollment": 301, "teachers": 25, "lunch_pct": 53.2, "charter": false, "lat": 35.577512, "lng": -82.601098, "ratio": 12.0}, {"name": "Isaac Dickson Elementary", "district": "Asheville City Schools", "city": "Asheville", "level": 1, "low_grade": -1, "high_grade": 5, "enrollment": 414, "teachers": 28, "lunch_pct": 38.9, "charter": false, "lat": 35.595464, "lng": -82.564832, "ratio": 14.8}, {"name": "Bell Elementary", "district": "Buncombe County Schools", "city": "Asheville", "level": 1, "low_grade": -1, "high_grade": 5, "enrollment": 218, "teachers": 18, "lunch_pct": 53.2, "charter": false, "lat": 35.589707, "lng": -82.492597, "ratio": 12.1}, {"name": "Emma Elementary", "district": "Buncombe County Schools", "city": "Asheville", "level": 1, "low_grade": 0, "high_grade": 4, "enrollment": 289, "teachers": 25, "lunch_pct": 98.3, "charter": false, "lat": 35.5982, "lng": -82.5919, "ratio": 11.6}, {"name": "Haw Creek Elementary", "district": "Buncombe County Schools", "city": "Asheville", "level": 1, "low_grade": -1, "high_grade": 5, "enrollment": 378, "teachers": 30, "lunch_pct": 41.5, "charter": false, "lat": 35.59482, "lng": -82.505391, "ratio": 12.6}, {"name": "Johnston Elementary", "district": "Buncombe County Schools", "city": "Asheville", "level": 1, "low_grade": -1, "high_grade": 4, "enrollment": 203, "teachers": 19, "lunch_pct": 98.5, "charter": false, "lat": 35.5866, "lng": -82.62, "ratio": 10.7}, {"name": "Oakley Elementary", "district": "Buncombe County Schools", "city": "Asheville", "level": 1, "low_grade": -1, "high_grade": 5, "enrollment": 433, "teachers": 32, "lunch_pct": 99.3, "charter": false, "lat": 35.5642, "lng": -82.5125, "ratio": 13.5}, {"name": "West Buncombe Elementary", "district": "Buncombe County Schools", "city": "Asheville", "level": 1, "low_grade": 0, "high_grade": 4, "enrollment": 588, "teachers": 41, "lunch_pct": 66.3, "charter": false, "lat": 35.6176, "lng": -82.6215, "ratio": 14.3}, {"name": "Woodfin Elementary", "district": "Buncombe County Schools", "city": "Asheville", "level": 1, "low_grade": 0, "high_grade": 5, "enrollment": 134, "teachers": 14, "lunch_pct": 97.8, "charter": false, "lat": 35.6324, "lng": -82.5852, "ratio": 9.6}, {"name": "Sand Hill-Venable Elem", "district": "Buncombe County Schools", "city": "Asheville", "level": 1, "low_grade": -1, "high_grade": 4, "enrollment": 534, "teachers": 40, "lunch_pct": 77.3, "charter": false, "lat": 35.5543, "lng": -82.64, "ratio": 13.3}, {"name": "Estes Elementary", "district": "Buncombe County Schools", "city": "Asheville", "level": 1, "low_grade": -1, "high_grade": 5, "enrollment": 732, "teachers": 53, "lunch_pct": 49.5, "charter": false, "lat": 35.4879, "lng": -82.5401, "ratio": 13.8}, {"name": "Asheville PEAK Academy", "district": "Asheville PEAK Academy", "city": "Asheville", "level": 1, "low_grade": 0, "high_grade": 3, "enrollment": 90, "teachers": 11, "lunch_pct": 0.0, "charter": true, "lat": 35.579615, "lng": -82.587406, "ratio": 8.2}], "middle": [{"name": "Asheville Middle", "district": "Asheville City Schools", "city": "Asheville", "level": 2, "low_grade": 6, "high_grade": 8, "enrollment": 589, "teachers": 49, "lunch_pct": 48.4, "charter": false, "lat": 35.586731, "lng": -82.560101, "ratio": 12.0}, {"name": "Montford North Star Academy", "district": "Asheville City Schools", "city": "Asheville", "level": 2, "low_grade": 6, "high_grade": 8, "enrollment": 224, "teachers": 18, "lunch_pct": 40.2, "charter": false, "lat": 35.597998, "lng": -82.561145, "ratio": 12.4}, {"name": "Reynolds Middle", "district": "Buncombe County Schools", "city": "Asheville", "level": 2, "low_grade": 6, "high_grade": 8, "enrollment": 479, "teachers": 37, "lunch_pct": 58.9, "charter": false, "lat": 35.548793, "lng": -82.477639, "ratio": 12.9}, {"name": "Erwin Middle", "district": "Buncombe County Schools", "city": "Asheville", "level": 2, "low_grade": 7, "high_grade": 8, "enrollment": 568, "teachers": 45, "lunch_pct": 73.6, "charter": false, "lat": 35.6182, "lng": -82.6296, "ratio": 12.6}, {"name": "Koontz Intermediate", "district": "Buncombe County Schools", "city": "Asheville", "level": 2, "low_grade": 5, "high_grade": 6, "enrollment": 650, "teachers": 43, "lunch_pct": 49.8, "charter": false, "lat": 35.484, "lng": -82.5398, "ratio": 15.1}, {"name": "Eblen Intermediate", "district": "Buncombe County Schools", "city": "Asheville", "level": 2, "low_grade": 5, "high_grade": 6, "enrollment": 555, "teachers": 39, "lunch_pct": 76.4, "charter": false, "lat": 35.618898, "lng": -82.619454, "ratio": 14.2}], "high": [{"name": "Asheville High", "district": "Asheville City Schools", "city": "Asheville", "level": 3, "low_grade": 9, "high_grade": 12, "enrollment": 1166, "teachers": 82, "lunch_pct": 33.4, "charter": false, "lat": 35.5729, "lng": -82.5531, "ratio": 14.2}, {"name": "School of Inquiry and Life Sciences", "district": "Asheville City Schools", "city": "Asheville", "level": 3, "low_grade": 9, "high_grade": 12, "enrollment": 344, "teachers": 14, "lunch_pct": 32.8, "charter": false, "lat": 35.5727, "lng": -82.5523, "ratio": 24.6}, {"name": "The Franklin School of Innovation", "district": "The Franklin School of Innovation", "city": "Asheville", "level": 3, "low_grade": 5, "high_grade": 12, "enrollment": 694, "teachers": 51, "lunch_pct": 0.0, "charter": true, "lat": 35.541856, "lng": -82.630649, "ratio": 13.6}, {"name": "Reynolds High", "district": "Buncombe County Schools", "city": "Asheville", "level": 3, "low_grade": 9, "high_grade": 12, "enrollment": 1133, "teachers": 69, "lunch_pct": 42.0, "charter": false, "lat": 35.5468, "lng": -82.4771, "ratio": 16.4}, {"name": "Erwin High", "district": "Buncombe County Schools", "city": "Asheville", "level": 3, "low_grade": 9, "high_grade": 12, "enrollment": 1096, "teachers": 76, "lunch_pct": 63.9, "charter": false, "lat": 35.6195, "lng": -82.6264, "ratio": 14.4}, {"name": "Roberson High", "district": "Buncombe County Schools", "city": "Asheville", "level": 3, "low_grade": 9, "high_grade": 12, "enrollment": 1491, "teachers": 95, "lunch_pct": 43.1, "charter": false, "lat": 35.4859, "lng": -82.5351, "ratio": 15.7}, {"name": "Early College", "district": "Buncombe County Schools", "city": "Asheville", "level": 3, "low_grade": 9, "high_grade": 13, "enrollment": 274, "teachers": 11, "lunch_pct": 58.8, "charter": false, "lat": 35.5707, "lng": -82.556, "ratio": 24.9}, {"name": "Middle College", "district": "Buncombe County Schools", "city": "Asheville", "level": 3, "low_grade": 11, "high_grade": 13, "enrollment": 49, "teachers": 3, "lunch_pct": 28.6, "charter": false, "lat": 35.5705, "lng": -82.556, "ratio": 16.3}, {"name": "Nesbitt Discovery Academy", "district": "Buncombe County Schools", "city": "Asheville", "level": 3, "low_grade": 9, "high_grade": 12, "enrollment": 374, "teachers": 18, "lunch_pct": 20.3, "charter": false, "lat": 35.6069, "lng": -82.583401, "ratio": 20.8}]}, "siler city": {"elem": [{"name": "Siler City Elementary", "district": "Chatham County Schools", "city": "Siler City", "level": 1, "low_grade": -1, "high_grade": 5, "enrollment": 636, "teachers": 45, "lunch_pct": 86.2, "charter": false, "lat": 35.7272, "lng": -79.4929, "ratio": 14.1}, {"name": "Silk Hope School", "district": "Chatham County Schools", "city": "Siler City", "level": 1, "low_grade": -1, "high_grade": 8, "enrollment": 276, "teachers": 22, "lunch_pct": 50.7, "charter": false, "lat": 35.7807, "lng": -79.3666, "ratio": 12.5}, {"name": "Virginia Cross Elementary", "district": "Chatham County Schools", "city": "Siler City", "level": 1, "low_grade": -1, "high_grade": 5, "enrollment": 455, "teachers": 38, "lunch_pct": 93.4, "charter": false, "lat": 35.7129, "lng": -79.4412, "ratio": 12.0}], "middle": [{"name": "Chatham Middle", "district": "Chatham County Schools", "city": "Siler City", "level": 2, "low_grade": 6, "high_grade": 8, "enrollment": 556, "teachers": 41, "lunch_pct": 89.2, "charter": false, "lat": 35.7074, "lng": -79.4468, "ratio": 13.6}], "high": [{"name": "Jordan Matthews High", "district": "Chatham County Schools", "city": "Siler City", "level": 3, "low_grade": 9, "high_grade": 12, "enrollment": 913, "teachers": 54, "lunch_pct": 75.6, "charter": false, "lat": 35.7233, "lng": -79.4514, "ratio": 16.9}, {"name": "SAGE Academy", "district": "Chatham County Schools", "city": "Siler City", "level": 3, "low_grade": 9, "high_grade": 12, "enrollment": 6, "teachers": 5, "lunch_pct": 0.0, "charter": false, "lat": 35.73, "lng": -79.4594, "ratio": 1.2}, {"name": "Chatham School of Science & Engineering", "district": "Chatham County Schools", "city": "Siler City", "level": 3, "low_grade": 9, "high_grade": 13, "enrollment": 97, "teachers": 0, "lunch_pct": 32.0, "charter": false, "lat": 35.729982, "lng": -79.459444, "ratio": 97.0}]}, "murphy": {"elem": [{"name": "Hiwassee Dam Elementary/Middle", "district": "Cherokee County Schools", "city": "Murphy", "level": 1, "low_grade": -1, "high_grade": 8, "enrollment": 120, "teachers": 10, "lunch_pct": 97.5, "charter": false, "lat": 35.103443, "lng": -84.223039, "ratio": 12.0}, {"name": "Martins Creek Elementary/Mid", "district": "Cherokee County Schools", "city": "Murphy", "level": 1, "low_grade": -1, "high_grade": 8, "enrollment": 184, "teachers": 14, "lunch_pct": 98.4, "charter": false, "lat": 35.0195, "lng": -84.0186, "ratio": 13.1}, {"name": "Murphy Elementary", "district": "Cherokee County Schools", "city": "Murphy", "level": 1, "low_grade": -1, "high_grade": 5, "enrollment": 536, "teachers": 42, "lunch_pct": 99.4, "charter": false, "lat": 35.0899, "lng": -84.0305, "ratio": 12.8}, {"name": "Peachtree Elementary", "district": "Cherokee County Schools", "city": "Murphy", "level": 1, "low_grade": -1, "high_grade": 5, "enrollment": 144, "teachers": 12, "lunch_pct": 97.9, "charter": false, "lat": 35.0913, "lng": -83.9456, "ratio": 12.0}, {"name": "Ranger Elementary/Middle", "district": "Cherokee County Schools", "city": "Murphy", "level": 1, "low_grade": -1, "high_grade": 8, "enrollment": 258, "teachers": 21, "lunch_pct": 98.8, "charter": false, "lat": 35.0157, "lng": -84.1827, "ratio": 12.3}], "middle": [{"name": "Murphy Middle", "district": "Cherokee County Schools", "city": "Murphy", "level": 2, "low_grade": 6, "high_grade": 8, "enrollment": 316, "teachers": 20, "lunch_pct": 63.6, "charter": false, "lat": 35.1005, "lng": -84.0149, "ratio": 15.8}], "high": [{"name": "Murphy High", "district": "Cherokee County Schools", "city": "Murphy", "level": 3, "low_grade": 9, "high_grade": 12, "enrollment": 489, "teachers": 34, "lunch_pct": 54.6, "charter": false, "lat": 35.1005, "lng": -84.0164, "ratio": 14.4}, {"name": "Hiwassee Dam High", "district": "Cherokee County Schools", "city": "Murphy", "level": 3, "low_grade": 9, "high_grade": 12, "enrollment": 158, "teachers": 13, "lunch_pct": 57.0, "charter": false, "lat": 35.1039, "lng": -84.2237, "ratio": 12.2}, {"name": "Tri-County Early College High", "district": "Cherokee County Schools", "city": "Murphy", "level": 3, "low_grade": 9, "high_grade": 13, "enrollment": 129, "teachers": 8, "lunch_pct": 62.0, "charter": false, "lat": 35.066548, "lng": -83.965842, "ratio": 16.1}]}, "durham": {"elem": [{"name": "Maureen Joy Charter School", "district": "Maureen Joy Charter", "city": "Durham", "level": 1, "low_grade": 0, "high_grade": 8, "enrollment": 616, "teachers": null, "lunch_pct": 68.3, "charter": true, "lat": 35.985225, "lng": -78.877477, "ratio": 616.0}, {"name": "Community School of Digital & Visual Art", "district": "Community School of Digital and Visual A", "city": "Durham", "level": 1, "low_grade": 0, "high_grade": 8, "enrollment": 217, "teachers": 17, "lunch_pct": 97.7, "charter": true, "lat": 35.981371, "lng": -78.955357, "ratio": 12.8}, {"name": "Kestrel Heights School", "district": "Kestrel Heights School", "city": "Durham", "level": 1, "low_grade": 0, "high_grade": 8, "enrollment": 424, "teachers": 29, "lunch_pct": 50.9, "charter": true, "lat": 35.898217, "lng": -78.889991, "ratio": 14.6}, {"name": "Research Triangle Charter", "district": "Research Triangle Charter", "city": "Durham", "level": 1, "low_grade": 0, "high_grade": 8, "enrollment": 693, "teachers": 33, "lunch_pct": 77.3, "charter": true, "lat": 35.9368, "lng": -78.8511, "ratio": 21.0}, {"name": "Central Park School For Child", "district": "Central Park School For Children", "city": "Durham", "level": 1, "low_grade": 0, "high_grade": 8, "enrollment": 594, "teachers": 42, "lunch_pct": 35.9, "charter": true, "lat": 36.0046, "lng": -78.901, "ratio": 14.1}, {"name": "Global Scholars Academy", "district": "Global Scholars Academy", "city": "Durham", "level": 1, "low_grade": 0, "high_grade": 8, "enrollment": 211, "teachers": 16, "lunch_pct": 98.6, "charter": true, "lat": 36.0007, "lng": -78.8931, "ratio": 13.2}, {"name": "The Institute Development Young Leaders", "district": "The Institute for the Development of You", "city": "Durham", "level": 1, "low_grade": 0, "high_grade": 8, "enrollment": 397, "teachers": 17, "lunch_pct": 0.0, "charter": true, "lat": 35.899795, "lng": -78.851167, "ratio": 23.4}, {"name": "Reaching All Minds Academy", "district": "Reaching All Minds Academy", "city": "Durham", "level": 1, "low_grade": 0, "high_grade": 8, "enrollment": 400, "teachers": 33, "lunch_pct": 0.0, "charter": true, "lat": 35.989134, "lng": -78.851666, "ratio": 12.1}, {"name": "Burton Elementary", "district": "Durham Public Schools", "city": "Durham", "level": 1, "low_grade": -1, "high_grade": 5, "enrollment": 293, "teachers": 28, "lunch_pct": 99.0, "charter": false, "lat": 35.9793, "lng": -78.8877, "ratio": 10.5}, {"name": "Club Boulevard Elementary", "district": "Durham Public Schools", "city": "Durham", "level": 1, "low_grade": 0, "high_grade": 5, "enrollment": 387, "teachers": 37, "lunch_pct": 41.3, "charter": false, "lat": 36.0193, "lng": -78.8967, "ratio": 10.5}, {"name": "Lakewood Elementary", "district": "Durham Public Schools", "city": "Durham", "level": 1, "low_grade": -1, "high_grade": 5, "enrollment": 385, "teachers": 35, "lunch_pct": 99.2, "charter": false, "lat": 35.9832, "lng": -78.9355, "ratio": 11.0}, {"name": "Fayetteville Street Elementary", "district": "Durham Public Schools", "city": "Durham", "level": 1, "low_grade": -1, "high_grade": 5, "enrollment": 230, "teachers": 18, "lunch_pct": 98.7, "charter": false, "lat": 35.9645, "lng": -78.9056, "ratio": 12.8}, {"name": "Bethesda Elementary", "district": "Durham Public Schools", "city": "Durham", "level": 1, "low_grade": -1, "high_grade": 5, "enrollment": 617, "teachers": 45, "lunch_pct": 99.5, "charter": false, "lat": 35.9402, "lng": -78.8378, "ratio": 13.7}, {"name": "Eno Valley Elementary", "district": "Durham Public Schools", "city": "Durham", "level": 1, "low_grade": -1, "high_grade": 5, "enrollment": 572, "teachers": 40, "lunch_pct": 99.5, "charter": false, "lat": 36.085, "lng": -78.9126, "ratio": 14.3}, {"name": "Glenn Elementary", "district": "Durham Public Schools", "city": "Durham", "level": 1, "low_grade": 0, "high_grade": 5, "enrollment": 563, "teachers": 47, "lunch_pct": 99.5, "charter": false, "lat": 36.0289, "lng": -78.8381, "ratio": 12.0}, {"name": "Hillandale Elementary", "district": "Durham Public Schools", "city": "Durham", "level": 1, "low_grade": -1, "high_grade": 5, "enrollment": 537, "teachers": 42, "lunch_pct": 66.9, "charter": false, "lat": 36.0526, "lng": -78.9331, "ratio": 12.8}, {"name": "Holt Elementary", "district": "Durham Public Schools", "city": "Durham", "level": 1, "low_grade": -1, "high_grade": 5, "enrollment": 636, "teachers": 54, "lunch_pct": 82.9, "charter": false, "lat": 36.0563, "lng": -78.906182, "ratio": 11.8}, {"name": "Forest View Elementary", "district": "Durham Public Schools", "city": "Durham", "level": 1, "low_grade": 0, "high_grade": 5, "enrollment": 640, "teachers": 51, "lunch_pct": 55.0, "charter": false, "lat": 35.989, "lng": -78.9921, "ratio": 12.5}, {"name": "George Watts Elementary", "district": "Durham Public Schools", "city": "Durham", "level": 1, "low_grade": -1, "high_grade": 5, "enrollment": 315, "teachers": 28, "lunch_pct": 29.8, "charter": false, "lat": 36.0082, "lng": -78.9107, "ratio": 11.2}, {"name": "Little River K-8 School", "district": "Durham Public Schools", "city": "Durham", "level": 1, "low_grade": -1, "high_grade": 8, "enrollment": 374, "teachers": 39, "lunch_pct": 48.1, "charter": false, "lat": 36.0988, "lng": -78.8631, "ratio": 9.6}, {"name": "Merrick-Moore Elementary", "district": "Durham Public Schools", "city": "Durham", "level": 1, "low_grade": -1, "high_grade": 5, "enrollment": 540, "teachers": 47, "lunch_pct": 99.4, "charter": false, "lat": 36.0056, "lng": -78.852, "ratio": 11.5}, {"name": "Oak Grove Elementary", "district": "Durham Public Schools", "city": "Durham", "level": 1, "low_grade": -1, "high_grade": 5, "enrollment": 472, "teachers": 40, "lunch_pct": 80.5, "charter": false, "lat": 35.9799, "lng": -78.8189, "ratio": 11.8}, {"name": "Parkwood Elementary", "district": "Durham Public Schools", "city": "Durham", "level": 1, "low_grade": -1, "high_grade": 5, "enrollment": 602, "teachers": 45, "lunch_pct": 69.9, "charter": false, "lat": 35.8914, "lng": -78.9064, "ratio": 13.4}, {"name": "Pearsontown Elementary", "district": "Durham Public Schools", "city": "Durham", "level": 1, "low_grade": -1, "high_grade": 5, "enrollment": 726, "teachers": 48, "lunch_pct": 27.0, "charter": false, "lat": 35.9323, "lng": -78.9086, "ratio": 15.1}, {"name": "Morehead Montessori", "district": "Durham Public Schools", "city": "Durham", "level": 1, "low_grade": -1, "high_grade": 5, "enrollment": 227, "teachers": 19, "lunch_pct": 35.7, "charter": false, "lat": 35.9888, "lng": -78.9137, "ratio": 11.9}, {"name": "E K Powe Elementary", "district": "Durham Public Schools", "city": "Durham", "level": 1, "low_grade": -1, "high_grade": 5, "enrollment": 383, "teachers": 32, "lunch_pct": 47.3, "charter": false, "lat": 36.013, "lng": -78.9224, "ratio": 12.0}, {"name": "R N Harris Elementary", "district": "Durham Public Schools", "city": "Durham", "level": 1, "low_grade": -1, "high_grade": 5, "enrollment": 291, "teachers": 27, "lunch_pct": 99.0, "charter": false, "lat": 35.9712, "lng": -78.8838, "ratio": 10.8}, {"name": "C C Spaulding Elementary", "district": "Durham Public Schools", "city": "Durham", "level": 1, "low_grade": -1, "high_grade": 5, "enrollment": 230, "teachers": 23, "lunch_pct": 98.7, "charter": false, "lat": 35.9782, "lng": -78.906, "ratio": 10.0}, {"name": "W G Pearson Elementary", "district": "Durham Public Schools", "city": "Durham", "level": 1, "low_grade": -1, "high_grade": 5, "enrollment": 333, "teachers": 27, "lunch_pct": 99.1, "charter": false, "lat": 35.958262, "lng": -78.907689, "ratio": 12.3}, {"name": "Y E Smith Elementary", "district": "Durham Public Schools", "city": "Durham", "level": 1, "low_grade": -1, "high_grade": 5, "enrollment": 286, "teachers": 27, "lunch_pct": 99.0, "charter": false, "lat": 35.9856, "lng": -78.873, "ratio": 10.6}, {"name": "Eastway Elementary", "district": "Durham Public Schools", "city": "Durham", "level": 1, "low_grade": -1, "high_grade": 5, "enrollment": 402, "teachers": 37, "lunch_pct": 99.3, "charter": false, "lat": 35.9911, "lng": -78.885, "ratio": 10.9}, {"name": "Easley Elementary", "district": "Durham Public Schools", "city": "Durham", "level": 1, "low_grade": 0, "high_grade": 5, "enrollment": 450, "teachers": 36, "lunch_pct": 35.8, "charter": false, "lat": 36.0757, "lng": -78.9268, "ratio": 12.5}, {"name": "Southwest Elementary", "district": "Durham Public Schools", "city": "Durham", "level": 1, "low_grade": -1, "high_grade": 5, "enrollment": 663, "teachers": 50, "lunch_pct": 53.5, "charter": false, "lat": 35.9289, "lng": -78.924, "ratio": 13.3}, {"name": "Hope Valley Elementary", "district": "Durham Public Schools", "city": "Durham", "level": 1, "low_grade": 0, "high_grade": 5, "enrollment": 627, "teachers": 50, "lunch_pct": 62.7, "charter": false, "lat": 35.9676, "lng": -78.9381, "ratio": 12.5}, {"name": "Creekside Elementary", "district": "Durham Public Schools", "city": "Durham", "level": 1, "low_grade": 0, "high_grade": 5, "enrollment": 543, "teachers": 44, "lunch_pct": 49.9, "charter": false, "lat": 35.928768, "lng": -78.994233, "ratio": 12.3}, {"name": "Spring Valley Elementary", "district": "Durham Public Schools", "city": "Durham", "level": 1, "low_grade": -1, "high_grade": 5, "enrollment": 534, "teachers": 40, "lunch_pct": 57.3, "charter": false, "lat": 35.95612, "lng": -78.81522, "ratio": 13.3}, {"name": "Sandy Ridge Elementary", "district": "Durham Public Schools", "city": "Durham", "level": 1, "low_grade": -1, "high_grade": 5, "enrollment": 484, "teachers": 39, "lunch_pct": 68.2, "charter": false, "lat": 36.0577, "lng": -78.8715, "ratio": 12.4}, {"name": "Lyons Farm Elementary", "district": "Durham Public Schools", "city": "Durham", "level": 1, "low_grade": -1, "high_grade": 5, "enrollment": 448, "teachers": 35, "lunch_pct": 28.6, "charter": false, "lat": 35.874184, "lng": -78.923139, "ratio": 12.8}], "middle": [{"name": "KIPP Durham College Preparatory", "district": "KIPP Durham College Preparatory", "city": "Durham", "level": 2, "low_grade": 0, "high_grade": 8, "enrollment": 311, "teachers": 21, "lunch_pct": 96.8, "charter": true, "lat": 35.994847, "lng": -78.881146, "ratio": 14.8}, {"name": "Brogden Middle", "district": "Durham Public Schools", "city": "Durham", "level": 2, "low_grade": 6, "high_grade": 8, "enrollment": 742, "teachers": 51, "lunch_pct": 99.6, "charter": false, "lat": 36.0247, "lng": -78.9093, "ratio": 14.5}, {"name": "James E Shepard Middle", "district": "Durham Public Schools", "city": "Durham", "level": 2, "low_grade": 6, "high_grade": 8, "enrollment": 381, "teachers": 31, "lunch_pct": 75.6, "charter": false, "lat": 35.9653, "lng": -78.8999, "ratio": 12.3}, {"name": "George L Carrington Middle", "district": "Durham Public Schools", "city": "Durham", "level": 2, "low_grade": 6, "high_grade": 8, "enrollment": 755, "teachers": 59, "lunch_pct": 73.2, "charter": false, "lat": 36.0873, "lng": -78.9177, "ratio": 12.8}, {"name": "Lowe's Grove Middle", "district": "Durham Public Schools", "city": "Durham", "level": 2, "low_grade": 6, "high_grade": 8, "enrollment": 700, "teachers": 46, "lunch_pct": 74.9, "charter": false, "lat": 35.9047, "lng": -78.8908, "ratio": 15.2}, {"name": "Neal Middle", "district": "Durham Public Schools", "city": "Durham", "level": 2, "low_grade": 6, "high_grade": 8, "enrollment": 789, "teachers": 56, "lunch_pct": 99.6, "charter": false, "lat": 35.9777, "lng": -78.7819, "ratio": 14.1}, {"name": "Sherwood Githens Middle", "district": "Durham Public Schools", "city": "Durham", "level": 2, "low_grade": 6, "high_grade": 8, "enrollment": 763, "teachers": 51, "lunch_pct": 57.1, "charter": false, "lat": 35.9446, "lng": -78.9808, "ratio": 15.0}, {"name": "Rogers-Herr Middle", "district": "Durham Public Schools", "city": "Durham", "level": 2, "low_grade": 6, "high_grade": 8, "enrollment": 643, "teachers": 42, "lunch_pct": 46.2, "charter": false, "lat": 35.9731, "lng": -78.9353, "ratio": 15.3}, {"name": "Lakewood Montessori Middle", "district": "Durham Public Schools", "city": "Durham", "level": 2, "low_grade": 6, "high_grade": 8, "enrollment": 303, "teachers": 20, "lunch_pct": 29.4, "charter": false, "lat": 35.9848, "lng": -78.9288, "ratio": 15.2}, {"name": "Lucas Middle", "district": "Durham Public Schools", "city": "Durham", "level": 2, "low_grade": 6, "high_grade": 8, "enrollment": 371, "teachers": 36, "lunch_pct": 69.8, "charter": false, "lat": 36.1094, "lng": -78.8862, "ratio": 10.3}], "high": [{"name": "Research Triangle High School", "district": "Research Triangle High School", "city": "Durham", "level": 3, "low_grade": 9, "high_grade": 12, "enrollment": 582, "teachers": 38, "lunch_pct": 0.0, "charter": true, "lat": 35.895066, "lng": -78.874387, "ratio": 15.3}, {"name": "Hillside High", "district": "Durham Public Schools", "city": "Durham", "level": 3, "low_grade": 9, "high_grade": 12, "enrollment": 1526, "teachers": 94, "lunch_pct": 99.8, "charter": false, "lat": 35.9533, "lng": -78.9036, "ratio": 16.2}, {"name": "C E Jordan High", "district": "Durham Public Schools", "city": "Durham", "level": 3, "low_grade": 9, "high_grade": 12, "enrollment": 2040, "teachers": 113, "lunch_pct": 42.2, "charter": false, "lat": 35.9227, "lng": -78.9622, "ratio": 18.1}, {"name": "The School for Creative Studies", "district": "Durham Public Schools", "city": "Durham", "level": 3, "low_grade": 6, "high_grade": 12, "enrollment": 540, "teachers": 41, "lunch_pct": 54.8, "charter": false, "lat": 36.072, "lng": -78.8229, "ratio": 13.2}, {"name": "Northern High", "district": "Durham Public Schools", "city": "Durham", "level": 3, "low_grade": 9, "high_grade": 12, "enrollment": 1308, "teachers": 86, "lunch_pct": 64.1, "charter": false, "lat": 36.0941, "lng": -78.9126, "ratio": 15.2}, {"name": "Southern School of Energy and Sustainabi", "district": "Durham Public Schools", "city": "Durham", "level": 3, "low_grade": 9, "high_grade": 12, "enrollment": 1283, "teachers": 78, "lunch_pct": 99.8, "charter": false, "lat": 35.9999, "lng": -78.8291, "ratio": 16.4}, {"name": "Durham School of the Arts", "district": "Durham Public Schools", "city": "Durham", "level": 3, "low_grade": 6, "high_grade": 12, "enrollment": 1705, "teachers": 113, "lunch_pct": 34.0, "charter": false, "lat": 36.0033, "lng": -78.9066, "ratio": 15.1}, {"name": "Riverside High", "district": "Durham Public Schools", "city": "Durham", "level": 3, "low_grade": 9, "high_grade": 12, "enrollment": 1812, "teachers": 99, "lunch_pct": 51.0, "charter": false, "lat": 36.06601, "lng": -78.94834, "ratio": 18.3}, {"name": "Lakeview School", "district": "Durham Public Schools", "city": "Durham", "level": 3, "low_grade": 6, "high_grade": 12, "enrollment": 56, "teachers": 18, "lunch_pct": 94.6, "charter": false, "lat": 36.0378, "lng": -78.8785, "ratio": 3.1}, {"name": "J D Clement Early College HS", "district": "Durham Public Schools", "city": "Durham", "level": 3, "low_grade": 9, "high_grade": 12, "enrollment": 395, "teachers": 15, "lunch_pct": 44.8, "charter": false, "lat": 35.9747, "lng": -78.9009, "ratio": 26.3}, {"name": "Middle College HS @ DTCC", "district": "Durham Public Schools", "city": "Durham", "level": 3, "low_grade": 11, "high_grade": 12, "enrollment": 106, "teachers": 6, "lunch_pct": 19.8, "charter": false, "lat": 35.9752, "lng": -78.881, "ratio": 17.7}, {"name": "Durham School of Technology", "district": "Durham Public Schools", "city": "Durham", "level": 3, "low_grade": 9, "high_grade": 12, "enrollment": 251, "teachers": 16, "lunch_pct": 98.8, "charter": false, "lat": 35.9526, "lng": -78.9036, "ratio": 15.7}, {"name": "Durham's Performance Learning Center", "district": "Durham Public Schools", "city": "Durham", "level": 3, "low_grade": 9, "high_grade": 12, "enrollment": 155, "teachers": 18, "lunch_pct": 98.1, "charter": false, "lat": 35.989464, "lng": -78.878848, "ratio": 8.6}, {"name": "City of Medicine Academy", "district": "Durham Public Schools", "city": "Durham", "level": 3, "low_grade": 9, "high_grade": 12, "enrollment": 349, "teachers": 22, "lunch_pct": 59.3, "charter": false, "lat": 36.0473, "lng": -78.9006, "ratio": 15.9}]}, "winston-salem": {"elem": [{"name": "Forsyth Academy", "district": "Forsyth Academy", "city": "Winston-Salem", "level": 1, "low_grade": 0, "high_grade": 8, "enrollment": 759, "teachers": 32, "lunch_pct": 85.0, "charter": true, "lat": 36.1694, "lng": -80.2991, "ratio": 23.7}, {"name": "The Arts Based School", "district": "Arts Based School", "city": "Winston-Salem", "level": 1, "low_grade": 0, "high_grade": 8, "enrollment": 579, "teachers": 41, "lunch_pct": 0.0, "charter": true, "lat": 36.103848, "lng": -80.243742, "ratio": 14.1}, {"name": "Wallburg Elementary", "district": "Davidson County Schools", "city": "Winston-Salem", "level": 1, "low_grade": -1, "high_grade": 5, "enrollment": 742, "teachers": 43, "lunch_pct": 42.3, "charter": false, "lat": 36.0087, "lng": -80.1412, "ratio": 17.3}, {"name": "Friedberg Elementary", "district": "Davidson County Schools", "city": "Winston-Salem", "level": 1, "low_grade": -1, "high_grade": 5, "enrollment": 439, "teachers": 27, "lunch_pct": 38.0, "charter": false, "lat": 35.9924, "lng": -80.2766, "ratio": 16.3}, {"name": "Friendship Elementary", "district": "Davidson County Schools", "city": "Winston-Salem", "level": 1, "low_grade": -1, "high_grade": 5, "enrollment": 481, "teachers": 31, "lunch_pct": 38.7, "charter": false, "lat": 35.9597, "lng": -80.1401, "ratio": 15.5}, {"name": "Jefferson Elementary", "district": "Winston Salem / Forsyth County Schools", "city": "Winston-Salem", "level": 1, "low_grade": -1, "high_grade": 5, "enrollment": 554, "teachers": 40, "lunch_pct": 42.4, "charter": false, "lat": 36.1259, "lng": -80.3478, "ratio": 13.8}, {"name": "North Hills Elementary", "district": "Winston Salem / Forsyth County Schools", "city": "Winston-Salem", "level": 1, "low_grade": -1, "high_grade": 5, "enrollment": 494, "teachers": 35, "lunch_pct": 99.4, "charter": false, "lat": 36.1494, "lng": -80.2526, "ratio": 14.1}, {"name": "Meadowlark Elementary", "district": "Winston Salem / Forsyth County Schools", "city": "Winston-Salem", "level": 1, "low_grade": -1, "high_grade": 5, "enrollment": 831, "teachers": 55, "lunch_pct": 35.5, "charter": false, "lat": 36.1006, "lng": -80.3621, "ratio": 15.1}, {"name": "Ashley Academy", "district": "Winston Salem / Forsyth County Schools", "city": "Winston-Salem", "level": 1, "low_grade": -1, "high_grade": 5, "enrollment": 373, "teachers": 25, "lunch_pct": 99.2, "charter": false, "lat": 36.1177, "lng": -80.2217, "ratio": 14.9}, {"name": "Cook Literacy Model School", "district": "Winston Salem / Forsyth County Schools", "city": "Winston-Salem", "level": 1, "low_grade": -1, "high_grade": 5, "enrollment": 280, "teachers": 22, "lunch_pct": 98.9, "charter": false, "lat": 36.1081, "lng": -80.2568, "ratio": 12.7}, {"name": "Petree Elementary", "district": "Winston Salem / Forsyth County Schools", "city": "Winston-Salem", "level": 1, "low_grade": -1, "high_grade": 5, "enrollment": 442, "teachers": 36, "lunch_pct": 99.3, "charter": false, "lat": 36.1132, "lng": -80.1914, "ratio": 12.3}, {"name": "Ward Elementary", "district": "Winston Salem / Forsyth County Schools", "city": "Winston-Salem", "level": 1, "low_grade": -1, "high_grade": 5, "enrollment": 532, "teachers": 35, "lunch_pct": 99.4, "charter": false, "lat": 36.025901, "lng": -80.336543, "ratio": 15.2}, {"name": "Gibson Elementary", "district": "Winston Salem / Forsyth County Schools", "city": "Winston-Salem", "level": 1, "low_grade": -1, "high_grade": 5, "enrollment": 632, "teachers": 46, "lunch_pct": 99.5, "charter": false, "lat": 36.187, "lng": -80.3111, "ratio": 13.7}, {"name": "The Special Children's School", "district": "Winston Salem / Forsyth County Schools", "city": "Winston-Salem", "level": 1, "low_grade": -1, "high_grade": 5, "enrollment": 50, "teachers": 12, "lunch_pct": 94.0, "charter": false, "lat": 36.1542, "lng": -80.3336, "ratio": 4.2}, {"name": "Kimmel Farm Elementary", "district": "Winston Salem / Forsyth County Schools", "city": "Winston-Salem", "level": 1, "low_grade": -1, "high_grade": 5, "enrollment": 814, "teachers": 49, "lunch_pct": 99.6, "charter": false, "lat": 36.008, "lng": -80.303, "ratio": 16.6}, {"name": "Smith Farm Elementary", "district": "Winston Salem / Forsyth County Schools", "city": "Winston-Salem", "level": 1, "low_grade": -1, "high_grade": 5, "enrollment": 527, "teachers": 40, "lunch_pct": 99.4, "charter": false, "lat": 36.081695, "lng": -80.140876, "ratio": 13.2}], "middle": [{"name": "Oak Grove Middle", "district": "Davidson County Schools", "city": "Winston-Salem", "level": 2, "low_grade": 6, "high_grade": 8, "enrollment": 727, "teachers": 43, "lunch_pct": 36.9, "charter": false, "lat": 35.9411, "lng": -80.1658, "ratio": 16.9}, {"name": "Clemmons Middle School", "district": "Winston Salem / Forsyth County Schools", "city": "Winston-Salem", "level": 2, "low_grade": 6, "high_grade": 8, "enrollment": 1168, "teachers": 60, "lunch_pct": 55.9, "charter": false, "lat": 36.0273, "lng": -80.3363, "ratio": 19.5}, {"name": "Thomas Jefferson Middle", "district": "Winston Salem / Forsyth County Schools", "city": "Winston-Salem", "level": 2, "low_grade": 6, "high_grade": 8, "enrollment": 800, "teachers": 45, "lunch_pct": 44.8, "charter": false, "lat": 36.1164, "lng": -80.3206, "ratio": 17.8}, {"name": "Meadowlark Middle", "district": "Winston Salem / Forsyth County Schools", "city": "Winston-Salem", "level": 2, "low_grade": 6, "high_grade": 8, "enrollment": 825, "teachers": 50, "lunch_pct": 34.2, "charter": false, "lat": 36.0998, "lng": -80.3645, "ratio": 16.5}, {"name": "Flat Rock Middle", "district": "Winston Salem / Forsyth County Schools", "city": "Winston-Salem", "level": 2, "low_grade": 6, "high_grade": 8, "enrollment": 829, "teachers": 52, "lunch_pct": 99.6, "charter": false, "lat": 36.010075, "lng": -80.303116, "ratio": 15.9}], "high": [{"name": "Oak Grove High", "district": "Davidson County Schools", "city": "Winston-Salem", "level": 3, "low_grade": 9, "high_grade": 12, "enrollment": 958, "teachers": 51, "lunch_pct": 30.4, "charter": false, "lat": 35.944133, "lng": -80.163944, "ratio": 18.8}, {"name": "Middle College of Forsyth Cnty", "district": "Winston Salem / Forsyth County Schools", "city": "Winston-Salem", "level": 3, "low_grade": 11, "high_grade": 12, "enrollment": 106, "teachers": 3, "lunch_pct": 36.8, "charter": false, "lat": 36.0688, "lng": -80.272, "ratio": 35.3}, {"name": "Winston-Salem Preparatory Acad", "district": "Winston Salem / Forsyth County Schools", "city": "Winston-Salem", "level": 3, "low_grade": 6, "high_grade": 12, "enrollment": 361, "teachers": 31, "lunch_pct": 99.2, "charter": false, "lat": 36.1102, "lng": -80.2219, "ratio": 11.6}, {"name": "Main Street Academy", "district": "Winston Salem / Forsyth County Schools", "city": "Winston-Salem", "level": 3, "low_grade": 6, "high_grade": 12, "enrollment": 37, "teachers": 17, "lunch_pct": 81.1, "charter": false, "lat": 36.062544, "lng": -80.239364, "ratio": 2.2}, {"name": "Atkins Academic & Tech High", "district": "Winston Salem / Forsyth County Schools", "city": "Winston-Salem", "level": 3, "low_grade": 9, "high_grade": 12, "enrollment": 1192, "teachers": 68, "lunch_pct": 36.2, "charter": false, "lat": 36.1102, "lng": -80.1954, "ratio": 17.5}]}, "cashiers": {"elem": [{"name": "Blue Ridge School", "district": "Jackson County Public Schools", "city": "Cashiers", "level": 1, "low_grade": -1, "high_grade": 6, "enrollment": 165, "teachers": 11, "lunch_pct": 79.4, "charter": false, "lat": 35.1284, "lng": -83.1202, "ratio": 15.0}], "middle": [], "high": [{"name": "Blue Ridge Early College", "district": "Jackson County Public Schools", "city": "Cashiers", "level": 3, "low_grade": 7, "high_grade": 13, "enrollment": 132, "teachers": 12, "lunch_pct": 74.2, "charter": false, "lat": 35.1287, "lng": -83.1203, "ratio": 11.0}]}, "graham": {"elem": [{"name": "Alexander Wilson Elementary", "district": "Alamance-Burlington Schools", "city": "Graham", "level": 1, "low_grade": -1, "high_grade": 5, "enrollment": 620, "teachers": 40, "lunch_pct": 51.3, "charter": false, "lat": 36.0297, "lng": -79.3467, "ratio": 15.5}, {"name": "B. Everett Jordan Elementary", "district": "Alamance-Burlington Schools", "city": "Graham", "level": 1, "low_grade": 0, "high_grade": 5, "enrollment": 353, "teachers": 25, "lunch_pct": 64.6, "charter": false, "lat": 35.9398, "lng": -79.3268, "ratio": 14.1}, {"name": "North Graham Elementary", "district": "Alamance-Burlington Schools", "city": "Graham", "level": 1, "low_grade": -1, "high_grade": 5, "enrollment": 374, "teachers": 30, "lunch_pct": 99.2, "charter": false, "lat": 36.0763, "lng": -79.3777, "ratio": 12.5}, {"name": "South Graham Elementary", "district": "Alamance-Burlington Schools", "city": "Graham", "level": 1, "low_grade": -1, "high_grade": 5, "enrollment": 480, "teachers": 36, "lunch_pct": 72.1, "charter": false, "lat": 36.0523, "lng": -79.3934, "ratio": 13.3}], "middle": [{"name": "Graham Middle", "district": "Alamance-Burlington Schools", "city": "Graham", "level": 2, "low_grade": 6, "high_grade": 8, "enrollment": 587, "teachers": 43, "lunch_pct": 99.5, "charter": false, "lat": 36.0664, "lng": -79.3956, "ratio": 13.7}, {"name": "Southern Alamance Middle", "district": "Alamance-Burlington Schools", "city": "Graham", "level": 2, "low_grade": 6, "high_grade": 8, "enrollment": 685, "teachers": 36, "lunch_pct": 49.3, "charter": false, "lat": 36.0043, "lng": -79.4089, "ratio": 19.0}], "high": [{"name": "Graham High", "district": "Alamance-Burlington Schools", "city": "Graham", "level": 3, "low_grade": 9, "high_grade": 12, "enrollment": 913, "teachers": 56, "lunch_pct": 71.7, "charter": false, "lat": 36.0755, "lng": -79.382, "ratio": 16.3}, {"name": "Southern Alamance High", "district": "Alamance-Burlington Schools", "city": "Graham", "level": 3, "low_grade": 9, "high_grade": 12, "enrollment": 1360, "teachers": 74, "lunch_pct": 43.0, "charter": false, "lat": 36.002, "lng": -79.406382, "ratio": 18.4}, {"name": "Ray Street Academy", "district": "Alamance-Burlington Schools", "city": "Graham", "level": 3, "low_grade": 6, "high_grade": 12, "enrollment": 43, "teachers": 17, "lunch_pct": 93.0, "charter": false, "lat": 36.061617, "lng": -79.394989, "ratio": 2.5}, {"name": "ABSS Early College at ACC", "district": "Alamance-Burlington Schools", "city": "Graham", "level": 3, "low_grade": 9, "high_grade": 13, "enrollment": 221, "teachers": 8, "lunch_pct": 35.7, "charter": false, "lat": 36.0665, "lng": -79.3577, "ratio": 27.6}]}, "elon": {"elem": [{"name": "Altamahaw-Ossipee Elementary", "district": "Alamance-Burlington Schools", "city": "Elon", "level": 1, "low_grade": 0, "high_grade": 5, "enrollment": 580, "teachers": 39, "lunch_pct": 53.1, "charter": false, "lat": 36.1796, "lng": -79.5105, "ratio": 14.9}, {"name": "Elon Elementary", "district": "Alamance-Burlington Schools", "city": "Elon", "level": 1, "low_grade": 0, "high_grade": 5, "enrollment": 666, "teachers": 46, "lunch_pct": 55.6, "charter": false, "lat": 36.118112, "lng": -79.497269, "ratio": 14.5}], "middle": [{"name": "Western Alamance Middle", "district": "Alamance-Burlington Schools", "city": "Elon", "level": 2, "low_grade": 6, "high_grade": 8, "enrollment": 822, "teachers": 47, "lunch_pct": 48.8, "charter": false, "lat": 36.1622, "lng": -79.5029, "ratio": 17.5}], "high": [{"name": "Western Alamance High", "district": "Alamance-Burlington Schools", "city": "Elon", "level": 3, "low_grade": 9, "high_grade": 12, "enrollment": 1036, "teachers": 63, "lunch_pct": 39.4, "charter": false, "lat": 36.153, "lng": -79.4986, "ratio": 16.4}]}, "mebane": {"elem": [{"name": "E M Yoder Elementary", "district": "Alamance-Burlington Schools", "city": "Mebane", "level": 1, "low_grade": -1, "high_grade": 5, "enrollment": 358, "teachers": 29, "lunch_pct": 43.3, "charter": false, "lat": 36.1005, "lng": -79.2744, "ratio": 12.3}, {"name": "South Mebane Elementary", "district": "Alamance-Burlington Schools", "city": "Mebane", "level": 1, "low_grade": 0, "high_grade": 5, "enrollment": 549, "teachers": 37, "lunch_pct": 47.9, "charter": false, "lat": 36.089, "lng": -79.2753, "ratio": 14.8}, {"name": "Audrey W. Garrett Elementary", "district": "Alamance-Burlington Schools", "city": "Mebane", "level": 1, "low_grade": -1, "high_grade": 5, "enrollment": 606, "teachers": 42, "lunch_pct": 60.9, "charter": false, "lat": 36.0616, "lng": -79.2974, "ratio": 14.4}, {"name": "South Elementary", "district": "Caswell County Schools", "city": "Mebane", "level": 1, "low_grade": -1, "high_grade": 5, "enrollment": 252, "teachers": 16, "lunch_pct": 96.4, "charter": false, "lat": 36.3291, "lng": -79.239, "ratio": 15.8}], "middle": [{"name": "Woodlawn Middle", "district": "Alamance-Burlington Schools", "city": "Mebane", "level": 2, "low_grade": 6, "high_grade": 8, "enrollment": 575, "teachers": 33, "lunch_pct": 53.0, "charter": false, "lat": 36.1152, "lng": -79.3041, "ratio": 17.4}, {"name": "Hawfields Middle", "district": "Alamance-Burlington Schools", "city": "Mebane", "level": 2, "low_grade": 6, "high_grade": 8, "enrollment": 706, "teachers": 40, "lunch_pct": 55.5, "charter": false, "lat": 36.0615, "lng": -79.2972, "ratio": 17.6}], "high": [{"name": "Eastern Alamance High", "district": "Alamance-Burlington Schools", "city": "Mebane", "level": 3, "low_grade": 9, "high_grade": 12, "enrollment": 1256, "teachers": 63, "lunch_pct": 47.7, "charter": false, "lat": 36.1136, "lng": -79.3022, "ratio": 19.9}]}, "burlington": {"elem": [{"name": "Edwin M Holt Elementary", "district": "Alamance-Burlington Schools", "city": "Burlington", "level": 1, "low_grade": 0, "high_grade": 5, "enrollment": 514, "teachers": 36, "lunch_pct": 42.6, "charter": false, "lat": 36.0213, "lng": -79.4889, "ratio": 14.3}, {"name": "Pleasant Grove Elementary", "district": "Alamance-Burlington Schools", "city": "Burlington", "level": 1, "low_grade": -1, "high_grade": 5, "enrollment": 283, "teachers": 21, "lunch_pct": 98.9, "charter": false, "lat": 36.2173, "lng": -79.3067, "ratio": 13.5}, {"name": "Eastlawn Elementary", "district": "Alamance-Burlington Schools", "city": "Burlington", "level": 1, "low_grade": -1, "high_grade": 5, "enrollment": 585, "teachers": 36, "lunch_pct": 99.5, "charter": false, "lat": 36.1018, "lng": -79.4071, "ratio": 16.2}, {"name": "Grove Park Elementary", "district": "Alamance-Burlington Schools", "city": "Burlington", "level": 1, "low_grade": -1, "high_grade": 5, "enrollment": 390, "teachers": 30, "lunch_pct": 99.2, "charter": false, "lat": 36.0801, "lng": -79.4608, "ratio": 13.0}, {"name": "Harvey R Newlin Elementary", "district": "Alamance-Burlington Schools", "city": "Burlington", "level": 1, "low_grade": -1, "high_grade": 5, "enrollment": 516, "teachers": 36, "lunch_pct": 99.2, "charter": false, "lat": 36.0734, "lng": -79.4206, "ratio": 14.3}, {"name": "Hillcrest Elementary", "district": "Alamance-Burlington Schools", "city": "Burlington", "level": 1, "low_grade": -1, "high_grade": 5, "enrollment": 582, "teachers": 41, "lunch_pct": 99.5, "charter": false, "lat": 36.103, "lng": -79.4646, "ratio": 14.2}, {"name": "Marvin B Smith Elementary", "district": "Alamance-Burlington Schools", "city": "Burlington", "level": 1, "low_grade": -1, "high_grade": 5, "enrollment": 481, "teachers": 34, "lunch_pct": 52.0, "charter": false, "lat": 36.0772, "lng": -79.4788, "ratio": 14.1}, {"name": "R Homer Andrews Elementary", "district": "Alamance-Burlington Schools", "city": "Burlington", "level": 1, "low_grade": -1, "high_grade": 5, "enrollment": 522, "teachers": 38, "lunch_pct": 99.4, "charter": false, "lat": 36.0946, "lng": -79.3834, "ratio": 13.7}, {"name": "Highland Elementary", "district": "Alamance-Burlington Schools", "city": "Burlington", "level": 1, "low_grade": 0, "high_grade": 5, "enrollment": 648, "teachers": 43, "lunch_pct": 46.6, "charter": false, "lat": 36.058446, "lng": -79.5179, "ratio": 15.1}], "middle": [{"name": "Broadview Middle", "district": "Alamance-Burlington Schools", "city": "Burlington", "level": 2, "low_grade": 6, "high_grade": 8, "enrollment": 797, "teachers": 30, "lunch_pct": 99.2, "charter": false, "lat": 36.0875, "lng": -79.397, "ratio": 26.6}, {"name": "Turrentine Middle", "district": "Alamance-Burlington Schools", "city": "Burlington", "level": 2, "low_grade": 6, "high_grade": 8, "enrollment": 929, "teachers": 49, "lunch_pct": 67.8, "charter": false, "lat": 36.091286, "lng": -79.463051, "ratio": 19.0}], "high": [{"name": "Hugh M Cummings High", "district": "Alamance-Burlington Schools", "city": "Burlington", "level": 3, "low_grade": 9, "high_grade": 12, "enrollment": 981, "teachers": 58, "lunch_pct": 80.1, "charter": false, "lat": 36.0887, "lng": -79.3964, "ratio": 16.9}, {"name": "Walter M Williams High", "district": "Alamance-Burlington Schools", "city": "Burlington", "level": 3, "low_grade": 9, "high_grade": 12, "enrollment": 1343, "teachers": 72, "lunch_pct": 57.9, "charter": false, "lat": 36.0887, "lng": -79.453525, "ratio": 18.7}, {"name": "Career and Technical Education Center", "district": "Alamance-Burlington Schools", "city": "Burlington", "level": 3, "low_grade": 9, "high_grade": 12, "enrollment": 0, "teachers": 13, "lunch_pct": 0.0, "charter": false, "lat": 36.09268, "lng": -79.384291, "ratio": 0.1}]}, "haw river": {"elem": [{"name": "Haw River Elementary", "district": "Alamance-Burlington Schools", "city": "Haw River", "level": 1, "low_grade": -1, "high_grade": 5, "enrollment": 494, "teachers": 31, "lunch_pct": 99.4, "charter": false, "lat": 36.0932, "lng": -79.3579, "ratio": 15.9}, {"name": "Alamance Community School", "district": "Alamance Community School", "city": "Haw River", "level": 1, "low_grade": 0, "high_grade": 5, "enrollment": 532, "teachers": 30, "lunch_pct": 0.0, "charter": true, "lat": 36.074206, "lng": -79.35021, "ratio": 17.7}], "middle": [], "high": []}, "snow camp": {"elem": [{"name": "Sylvan Elementary", "district": "Alamance-Burlington Schools", "city": "Snow Camp", "level": 1, "low_grade": -1, "high_grade": 5, "enrollment": 291, "teachers": 22, "lunch_pct": 62.9, "charter": false, "lat": 35.88, "lng": -79.4366, "ratio": 13.2}], "middle": [], "high": []}, "kinston": {"elem": [{"name": "Children's Village Academy", "district": "Children's Village Academy", "city": "Kinston", "level": 1, "low_grade": 0, "high_grade": 8, "enrollment": 155, "teachers": 7, "lunch_pct": 98.1, "charter": true, "lat": 35.266714, "lng": -77.567252, "ratio": 22.1}, {"name": "Northwest Elementary", "district": "Lenoir County Public Schools", "city": "Kinston", "level": 1, "low_grade": 0, "high_grade": 5, "enrollment": 478, "teachers": 28, "lunch_pct": 99.4, "charter": false, "lat": 35.2784, "lng": -77.6033, "ratio": 17.1}, {"name": "Southeast Elementary", "district": "Lenoir County Public Schools", "city": "Kinston", "level": 1, "low_grade": -1, "high_grade": 5, "enrollment": 190, "teachers": 22, "lunch_pct": 97.4, "charter": false, "lat": 35.2578, "lng": -77.5709, "ratio": 8.6}, {"name": "Banks Elementary", "district": "Lenoir County Public Schools", "city": "Kinston", "level": 1, "low_grade": -1, "high_grade": 5, "enrollment": 462, "teachers": 33, "lunch_pct": 99.4, "charter": false, "lat": 35.2816, "lng": -77.6795, "ratio": 14.0}, {"name": "Contentnea-Savannah School", "district": "Lenoir County Public Schools", "city": "Kinston", "level": 1, "low_grade": -1, "high_grade": 8, "enrollment": 859, "teachers": 57, "lunch_pct": 99.7, "charter": false, "lat": 35.319754, "lng": -77.521177, "ratio": 15.1}, {"name": "Moss Hill Elementary", "district": "Lenoir County Public Schools", "city": "Kinston", "level": 1, "low_grade": 0, "high_grade": 5, "enrollment": 389, "teachers": 29, "lunch_pct": 99.2, "charter": false, "lat": 35.1952, "lng": -77.7532, "ratio": 13.4}, {"name": "Southwood Elementary", "district": "Lenoir County Public Schools", "city": "Kinston", "level": 1, "low_grade": 0, "high_grade": 5, "enrollment": 241, "teachers": 20, "lunch_pct": 98.8, "charter": false, "lat": 35.208, "lng": -77.5646, "ratio": 12.1}, {"name": "Northeast Elementary", "district": "Lenoir County Public Schools", "city": "Kinston", "level": 1, "low_grade": -1, "high_grade": 5, "enrollment": 442, "teachers": 31, "lunch_pct": 98.0, "charter": false, "lat": 35.280855, "lng": -77.561049, "ratio": 14.3}], "middle": [{"name": "Rochelle Middle", "district": "Lenoir County Public Schools", "city": "Kinston", "level": 2, "low_grade": 6, "high_grade": 8, "enrollment": 466, "teachers": 28, "lunch_pct": 97.6, "charter": false, "lat": 35.2627, "lng": -77.5613, "ratio": 16.6}, {"name": "Woodington Middle", "district": "Lenoir County Public Schools", "city": "Kinston", "level": 2, "low_grade": 6, "high_grade": 8, "enrollment": 577, "teachers": 38, "lunch_pct": 99.5, "charter": false, "lat": 35.1592, "lng": -77.634, "ratio": 15.2}], "high": [{"name": "Kinston High", "district": "Lenoir County Public Schools", "city": "Kinston", "level": 3, "low_grade": 9, "high_grade": 12, "enrollment": 713, "teachers": 41, "lunch_pct": 99.6, "charter": false, "lat": 35.2957, "lng": -77.5747, "ratio": 17.4}, {"name": "Lenoir County Early College High", "district": "Lenoir County Public Schools", "city": "Kinston", "level": 3, "low_grade": 9, "high_grade": 13, "enrollment": 213, "teachers": 8, "lunch_pct": 98.6, "charter": false, "lat": 35.235522, "lng": -77.572005, "ratio": 26.6}]}, "aberdeen": {"elem": [{"name": "The Academy of Moore County", "district": "The Academy of Moore County", "city": "Aberdeen", "level": 1, "low_grade": 0, "high_grade": 5, "enrollment": 473, "teachers": 26, "lunch_pct": 0.0, "charter": true, "lat": 35.094992, "lng": -79.429098, "ratio": 18.2}, {"name": "Aberdeen Elementary", "district": "Moore County Schools", "city": "Aberdeen", "level": 1, "low_grade": -1, "high_grade": 5, "enrollment": 629, "teachers": 44, "lunch_pct": 73.3, "charter": false, "lat": 35.139855, "lng": -79.458397, "ratio": 14.3}], "middle": [{"name": "Southern Middle", "district": "Moore County Schools", "city": "Aberdeen", "level": 2, "low_grade": 6, "high_grade": 8, "enrollment": 576, "teachers": 38, "lunch_pct": 53.3, "charter": false, "lat": 35.1546, "lng": -79.4263, "ratio": 15.2}], "high": []}, "rocky mount": {"elem": [{"name": "G W Bulluck Elementary", "district": "Edgecombe County Public Schools", "city": "Rocky Mount", "level": 1, "low_grade": -1, "high_grade": 5, "enrollment": 609, "teachers": 37, "lunch_pct": 99.5, "charter": false, "lat": 35.8832, "lng": -77.7203, "ratio": 16.5}, {"name": "Baskerville Elementary", "district": "Nash County Public Schools", "city": "Rocky Mount", "level": 1, "low_grade": 0, "high_grade": 5, "enrollment": 312, "teachers": 15, "lunch_pct": 97.8, "charter": false, "lat": 35.950493, "lng": -77.771568, "ratio": 20.8}, {"name": "D S Johnson Elementary", "district": "Nash County Public Schools", "city": "Rocky Mount", "level": 1, "low_grade": 3, "high_grade": 5, "enrollment": 362, "teachers": 21, "lunch_pct": 95.3, "charter": false, "lat": 35.9366, "lng": -77.7761, "ratio": 17.2}, {"name": "Englewood Elementary", "district": "Nash County Public Schools", "city": "Rocky Mount", "level": 1, "low_grade": 3, "high_grade": 5, "enrollment": 559, "teachers": 33, "lunch_pct": 74.1, "charter": false, "lat": 35.961779, "lng": -77.840828, "ratio": 16.9}, {"name": "Benvenue Elementary", "district": "Nash County Public Schools", "city": "Rocky Mount", "level": 1, "low_grade": 0, "high_grade": 5, "enrollment": 580, "teachers": 33, "lunch_pct": 87.6, "charter": false, "lat": 35.9764, "lng": -77.8385, "ratio": 17.6}, {"name": "Williford Elementary", "district": "Nash County Public Schools", "city": "Rocky Mount", "level": 1, "low_grade": -1, "high_grade": 2, "enrollment": 201, "teachers": 16, "lunch_pct": 98.5, "charter": false, "lat": 35.9281, "lng": -77.8183, "ratio": 12.6}, {"name": "Winstead Avenue Elementary", "district": "Nash County Public Schools", "city": "Rocky Mount", "level": 1, "low_grade": 0, "high_grade": 2, "enrollment": 538, "teachers": 35, "lunch_pct": 80.3, "charter": false, "lat": 35.9513, "lng": -77.8468, "ratio": 15.4}, {"name": "Fairview Elementary", "district": "Nash County Public Schools", "city": "Rocky Mount", "level": 1, "low_grade": 0, "high_grade": 2, "enrollment": 281, "teachers": 18, "lunch_pct": 98.9, "charter": false, "lat": 35.9386, "lng": -77.7761, "ratio": 15.6}], "middle": [{"name": "West Edgecombe Middle", "district": "Edgecombe County Public Schools", "city": "Rocky Mount", "level": 2, "low_grade": 6, "high_grade": 8, "enrollment": 314, "teachers": 20, "lunch_pct": 99.0, "charter": false, "lat": 35.9041, "lng": -77.737, "ratio": 15.7}, {"name": "G R Edwards Middle", "district": "Nash County Public Schools", "city": "Rocky Mount", "level": 2, "low_grade": 6, "high_grade": 8, "enrollment": 410, "teachers": 22, "lunch_pct": 88.0, "charter": false, "lat": 35.9356, "lng": -77.8226, "ratio": 18.6}, {"name": "J W Parker Middle", "district": "Nash County Public Schools", "city": "Rocky Mount", "level": 2, "low_grade": 6, "high_grade": 8, "enrollment": 255, "teachers": 16, "lunch_pct": 92.2, "charter": false, "lat": 35.9518, "lng": -77.7746, "ratio": 15.9}, {"name": "Rocky Mount Middle", "district": "Nash County Public Schools", "city": "Rocky Mount", "level": 2, "low_grade": 6, "high_grade": 8, "enrollment": 407, "teachers": 21, "lunch_pct": 96.6, "charter": false, "lat": 35.9418, "lng": -77.8076, "ratio": 19.4}], "high": [{"name": "Rocky Mount High", "district": "Nash County Public Schools", "city": "Rocky Mount", "level": 3, "low_grade": 9, "high_grade": 12, "enrollment": 1072, "teachers": 61, "lunch_pct": 75.5, "charter": false, "lat": 35.939076, "lng": -77.834874, "ratio": 17.6}, {"name": "Tar River Academy", "district": "Nash County Public Schools", "city": "Rocky Mount", "level": 3, "low_grade": 9, "high_grade": 12, "enrollment": 89, "teachers": 10, "lunch_pct": 93.3, "charter": false, "lat": 35.941795, "lng": -77.808177, "ratio": 8.9}, {"name": "Northern Nash High", "district": "Nash County Public Schools", "city": "Rocky Mount", "level": 3, "low_grade": 9, "high_grade": 12, "enrollment": 1059, "teachers": 59, "lunch_pct": 58.0, "charter": false, "lat": 35.9987, "lng": -77.8915, "ratio": 17.9}, {"name": "Nash Central High", "district": "Nash County Public Schools", "city": "Rocky Mount", "level": 3, "low_grade": 9, "high_grade": 12, "enrollment": 921, "teachers": 52, "lunch_pct": 63.6, "charter": false, "lat": 35.9558, "lng": -77.8981, "ratio": 17.7}, {"name": "NRM Early College High School", "district": "Nash County Public Schools", "city": "Rocky Mount", "level": 3, "low_grade": 9, "high_grade": 13, "enrollment": 388, "teachers": 15, "lunch_pct": 48.5, "charter": false, "lat": 35.977871, "lng": -77.898825, "ratio": 25.9}, {"name": "CITI High School", "district": "Nash County Public Schools", "city": "Rocky Mount", "level": 3, "low_grade": 9, "high_grade": 13, "enrollment": 115, "teachers": 6, "lunch_pct": 75.7, "charter": false, "lat": 35.941218, "lng": -77.807617, "ratio": 19.2}]}, "hillsborough": {"elem": [{"name": "The Expedition School", "district": "The Expedition School", "city": "Hillsborough", "level": 1, "low_grade": 0, "high_grade": 8, "enrollment": 361, "teachers": 28, "lunch_pct": 0.0, "charter": true, "lat": 36.068864, "lng": -79.112648, "ratio": 12.9}, {"name": "River Park Elementary", "district": "Orange County Schools", "city": "Hillsborough", "level": 1, "low_grade": -1, "high_grade": 5, "enrollment": 559, "teachers": 40, "lunch_pct": 35.8, "charter": false, "lat": 36.0772, "lng": -79.0936, "ratio": 14.0}, {"name": "Central Elementary", "district": "Orange County Schools", "city": "Hillsborough", "level": 1, "low_grade": -1, "high_grade": 5, "enrollment": 296, "teachers": 26, "lunch_pct": 75.0, "charter": false, "lat": 36.08, "lng": -79.1146, "ratio": 11.4}, {"name": "Grady Brown Elementary", "district": "Orange County Schools", "city": "Hillsborough", "level": 1, "low_grade": -1, "high_grade": 5, "enrollment": 406, "teachers": 36, "lunch_pct": 60.3, "charter": false, "lat": 36.0517, "lng": -79.1266, "ratio": 11.3}, {"name": "Hillsborough Elementary", "district": "Orange County Schools", "city": "Hillsborough", "level": 1, "low_grade": -1, "high_grade": 5, "enrollment": 425, "teachers": 32, "lunch_pct": 17.4, "charter": false, "lat": 36.0804, "lng": -79.1105, "ratio": 13.3}, {"name": "Pathways Elementary", "district": "Orange County Schools", "city": "Hillsborough", "level": 1, "low_grade": -1, "high_grade": 5, "enrollment": 351, "teachers": 26, "lunch_pct": 53.3, "charter": false, "lat": 36.1107, "lng": -79.1038, "ratio": 13.5}], "middle": [{"name": "A L Stanback Middle", "district": "Orange County Schools", "city": "Hillsborough", "level": 2, "low_grade": 6, "high_grade": 8, "enrollment": 646, "teachers": 45, "lunch_pct": 58.8, "charter": false, "lat": 36.0271, "lng": -79.0779, "ratio": 14.4}, {"name": "Orange Middle", "district": "Orange County Schools", "city": "Hillsborough", "level": 2, "low_grade": 6, "high_grade": 8, "enrollment": 525, "teachers": 37, "lunch_pct": 40.0, "charter": false, "lat": 36.0896, "lng": -79.095, "ratio": 14.2}], "high": [{"name": "Orange High", "district": "Orange County Schools", "city": "Hillsborough", "level": 3, "low_grade": 9, "high_grade": 12, "enrollment": 1341, "teachers": 81, "lunch_pct": 40.8, "charter": false, "lat": 36.0929, "lng": -79.0947, "ratio": 16.6}, {"name": "Cedar Ridge High", "district": "Orange County Schools", "city": "Hillsborough", "level": 3, "low_grade": 9, "high_grade": 12, "enrollment": 1104, "teachers": 62, "lunch_pct": 42.4, "charter": false, "lat": 36.0541, "lng": -79.1262, "ratio": 17.8}, {"name": "Partnership Academy", "district": "Orange County Schools", "city": "Hillsborough", "level": 3, "low_grade": 9, "high_grade": 12, "enrollment": 37, "teachers": 6, "lunch_pct": 70.3, "charter": false, "lat": 36.028149, "lng": -79.078854, "ratio": 6.2}]}, "arapahoe": {"elem": [], "middle": [], "high": []}, "pembroke": {"elem": [{"name": "Old Main STREAM Academy", "district": "Old Main Stream", "city": "Pembroke", "level": 1, "low_grade": 0, "high_grade": 5, "enrollment": 280, "teachers": 16, "lunch_pct": 36.4, "charter": true, "lat": 34.687026, "lng": -79.1984, "ratio": 17.5}, {"name": "Pembroke Elementary", "district": "Public Schools of Robeson County", "city": "Pembroke", "level": 1, "low_grade": -1, "high_grade": 5, "enrollment": 692, "teachers": 43, "lunch_pct": 99.6, "charter": false, "lat": 34.674724, "lng": -79.193633, "ratio": 16.1}, {"name": "Union Chapel Elementary", "district": "Public Schools of Robeson County", "city": "Pembroke", "level": 1, "low_grade": -1, "high_grade": 6, "enrollment": 448, "teachers": 28, "lunch_pct": 99.3, "charter": false, "lat": 34.7124, "lng": -79.1342, "ratio": 16.0}], "middle": [{"name": "CIS Academy", "district": "CIS Academy", "city": "Pembroke", "level": 2, "low_grade": 6, "high_grade": 8, "enrollment": 113, "teachers": 8, "lunch_pct": 62.8, "charter": true, "lat": 34.686503, "lng": -79.203426, "ratio": 14.1}, {"name": "Pembroke Middle", "district": "Public Schools of Robeson County", "city": "Pembroke", "level": 2, "low_grade": 6, "high_grade": 8, "enrollment": 698, "teachers": 40, "lunch_pct": 99.4, "charter": false, "lat": 34.6748, "lng": -79.211, "ratio": 17.4}], "high": [{"name": "Purnell Swett High", "district": "Public Schools of Robeson County", "city": "Pembroke", "level": 3, "low_grade": 9, "high_grade": 12, "enrollment": 1608, "teachers": 92, "lunch_pct": 99.6, "charter": false, "lat": 34.6961, "lng": -79.2467, "ratio": 17.5}]}, "raleigh": {"elem": [{"name": "The Exploris School", "district": "The Exploris School", "city": "Raleigh", "level": 1, "low_grade": 0, "high_grade": 8, "enrollment": 447, "teachers": 36, "lunch_pct": 0.0, "charter": true, "lat": 35.78024, "lng": -78.64529, "ratio": 12.4}, {"name": "Quest Academy", "district": "Quest Academy", "city": "Raleigh", "level": 1, "low_grade": 0, "high_grade": 8, "enrollment": 142, "teachers": 11, "lunch_pct": 0.0, "charter": true, "lat": 35.90234, "lng": -78.677915, "ratio": 12.9}, {"name": "PreEminent Charter", "district": "PreEminent Charter School", "city": "Raleigh", "level": 1, "low_grade": 0, "high_grade": 8, "enrollment": 702, "teachers": 32, "lunch_pct": 85.9, "charter": true, "lat": 35.7465, "lng": -78.5827, "ratio": 21.9}, {"name": "RISE Southeast Raleigh Charter", "district": "RISE Southeast Raleigh Charter School", "city": "Raleigh", "level": 1, "low_grade": 0, "high_grade": 8, "enrollment": 479, "teachers": 44, "lunch_pct": 99.4, "charter": true, "lat": 35.737692, "lng": -78.619941, "ratio": 10.9}, {"name": "Raleigh Oak Charter", "district": "Raleigh Oak Charter School", "city": "Raleigh", "level": 1, "low_grade": 0, "high_grade": 8, "enrollment": 303, "teachers": 21, "lunch_pct": 0.0, "charter": true, "lat": 35.897714, "lng": -78.653671, "ratio": 14.4}, {"name": "Doral Academy of North Carolina", "district": "Doral Academy North Carolina", "city": "Raleigh", "level": 1, "low_grade": 0, "high_grade": 4, "enrollment": 333, "teachers": 24, "lunch_pct": 32.1, "charter": true, "lat": 35.827508, "lng": -78.532549, "ratio": 13.9}, {"name": "Durant Road Elementary", "district": "Wake County Schools", "city": "Raleigh", "level": 1, "low_grade": -1, "high_grade": 5, "enrollment": 641, "teachers": 48, "lunch_pct": 59.0, "charter": false, "lat": 35.9003, "lng": -78.5804, "ratio": 13.4}, {"name": "Leesville Road Elementary", "district": "Wake County Schools", "city": "Raleigh", "level": 1, "low_grade": 0, "high_grade": 5, "enrollment": 603, "teachers": 42, "lunch_pct": 30.3, "charter": false, "lat": 35.8876, "lng": -78.7187, "ratio": 14.4}, {"name": "Pleasant Union Elementary", "district": "Wake County Schools", "city": "Raleigh", "level": 1, "low_grade": -1, "high_grade": 5, "enrollment": 542, "teachers": 39, "lunch_pct": 21.8, "charter": false, "lat": 35.9503, "lng": -78.6733, "ratio": 13.9}, {"name": "Oak Grove Elementary", "district": "Wake County Schools", "city": "Raleigh", "level": 1, "low_grade": -1, "high_grade": 5, "enrollment": 587, "teachers": 43, "lunch_pct": 34.8, "charter": false, "lat": 35.7136, "lng": -78.7836, "ratio": 13.7}, {"name": "Brentwood Elementary", "district": "Wake County Schools", "city": "Raleigh", "level": 1, "low_grade": -1, "high_grade": 5, "enrollment": 389, "teachers": 37, "lunch_pct": 71.7, "charter": false, "lat": 35.83, "lng": -78.5967, "ratio": 10.5}, {"name": "Brooks Elementary", "district": "Wake County Schools", "city": "Raleigh", "level": 1, "low_grade": -1, "high_grade": 5, "enrollment": 439, "teachers": 37, "lunch_pct": 49.4, "charter": false, "lat": 35.844956, "lng": -78.65451, "ratio": 11.9}, {"name": "Bugg Elementary", "district": "Wake County Schools", "city": "Raleigh", "level": 1, "low_grade": -1, "high_grade": 5, "enrollment": 232, "teachers": 28, "lunch_pct": 97.4, "charter": false, "lat": 35.7659, "lng": -78.5866, "ratio": 8.3}, {"name": "Combs Elementary", "district": "Wake County Schools", "city": "Raleigh", "level": 1, "low_grade": -1, "high_grade": 5, "enrollment": 622, "teachers": 47, "lunch_pct": 40.7, "charter": false, "lat": 35.7745, "lng": -78.7015, "ratio": 13.2}, {"name": "Conn Elementary", "district": "Wake County Schools", "city": "Raleigh", "level": 1, "low_grade": -1, "high_grade": 5, "enrollment": 512, "teachers": 41, "lunch_pct": 43.0, "charter": false, "lat": 35.795992, "lng": -78.622817, "ratio": 12.5}, {"name": "Douglas Elementary", "district": "Wake County Schools", "city": "Raleigh", "level": 1, "low_grade": -1, "high_grade": 5, "enrollment": 519, "teachers": 41, "lunch_pct": 38.7, "charter": false, "lat": 35.8404, "lng": -78.6292, "ratio": 12.7}, {"name": "Fuller Elementary", "district": "Wake County Schools", "city": "Raleigh", "level": 1, "low_grade": -1, "high_grade": 5, "enrollment": 379, "teachers": 36, "lunch_pct": 34.0, "charter": false, "lat": 35.754659, "lng": -78.624452, "ratio": 10.5},