{"henderson": {"elem": [{"name": "Silver Sands Montessori", "district": "STATE-SPONSORED CHARTER SCHOOLS", "city": "Henderson", "level": 1, "low_grade": 0, "high_grade": 8, "enrollment": 243, "teachers": 7, "lunch_pct": 35.4, "charter": true, "lat": 36.077061, "lng": -115.066379, "ratio": 34.7}, {"name": "Pinecrest Academy of Nevada Horizon", "district": "STATE-SPONSORED CHARTER SCHOOLS", "city": "Henderson", "level": 1, "low_grade": 0, "high_grade": 5, "enrollment": 871, "teachers": 33, "lunch_pct": 33.1, "charter": true, "lat": 36.017217, "lng": -114.954502, "ratio": 26.4}, {"name": "Pinecrest Academy of Nevada Inspirada", "district": "STATE-SPONSORED CHARTER SCHOOLS", "city": "Henderson", "level": 1, "low_grade": 0, "high_grade": 8, "enrollment": 1197, "teachers": 48, "lunch_pct": 13.8, "charter": true, "lat": 35.930604, "lng": -115.113362, "ratio": 24.9}, {"name": "Somerset Academy Stephanie", "district": "STATE-SPONSORED CHARTER SCHOOLS", "city": "Henderson", "level": 1, "low_grade": 0, "high_grade": 8, "enrollment": 958, "teachers": 41, "lunch_pct": 36.4, "charter": true, "lat": 36.032438, "lng": -115.0442, "ratio": 23.4}, {"name": "Legacy Traditional School Cadence", "district": "STATE-SPONSORED CHARTER SCHOOLS", "city": "Henderson", "level": 1, "low_grade": 0, "high_grade": 8, "enrollment": 1186, "teachers": 28, "lunch_pct": 48.0, "charter": true, "lat": 36.060772, "lng": -114.967017, "ratio": 42.4}, {"name": "Signature Preparatory", "district": "STATE-SPONSORED CHARTER SCHOOLS", "city": "Henderson", "level": 1, "low_grade": 0, "high_grade": 8, "enrollment": 978, "teachers": 26, "lunch_pct": 55.9, "charter": true, "lat": 36.034001, "lng": -114.974611, "ratio": 37.6}, {"name": "Coral Academy Cadence", "district": "STATE-SPONSORED CHARTER SCHOOLS", "city": "Henderson", "level": 1, "low_grade": -1, "high_grade": 8, "enrollment": 1346, "teachers": 45, "lunch_pct": 40.3, "charter": true, "lat": 36.062845, "lng": -114.992952, "ratio": 29.9}, {"name": "Sewell  C T ES", "district": "CLARK COUNTY SCHOOL DISTRICT", "city": "Henderson", "level": 1, "low_grade": -1, "high_grade": 5, "enrollment": 526, "teachers": 33, "lunch_pct": 100.0, "charter": false, "lat": 36.049385, "lng": -114.969831, "ratio": 15.9}, {"name": "McCaw  Gordon ES", "district": "CLARK COUNTY SCHOOL DISTRICT", "city": "Henderson", "level": 1, "low_grade": -1, "high_grade": 5, "enrollment": 747, "teachers": 42, "lunch_pct": 100.0, "charter": false, "lat": 36.027366, "lng": -114.98018, "ratio": 17.8}, {"name": "Bartlett  Selma F ES", "district": "CLARK COUNTY SCHOOL DISTRICT", "city": "Henderson", "level": 1, "low_grade": -1, "high_grade": 5, "enrollment": 558, "teachers": 36, "lunch_pct": 99.8, "charter": false, "lat": 36.027664, "lng": -115.071009, "ratio": 15.5}, {"name": "Thorpe  Jim ES", "district": "CLARK COUNTY SCHOOL DISTRICT", "city": "Henderson", "level": 1, "low_grade": -1, "high_grade": 5, "enrollment": 426, "teachers": 27, "lunch_pct": 100.0, "charter": false, "lat": 36.079173, "lng": -115.055895, "ratio": 15.8}, {"name": "Taylor  Robert L ES", "district": "CLARK COUNTY SCHOOL DISTRICT", "city": "Henderson", "level": 1, "low_grade": -1, "high_grade": 5, "enrollment": 490, "teachers": 28, "lunch_pct": 100.0, "charter": false, "lat": 36.036558, "lng": -114.970946, "ratio": 17.5}, {"name": "Newton  Ulis ES", "district": "CLARK COUNTY SCHOOL DISTRICT", "city": "Henderson", "level": 1, "low_grade": -1, "high_grade": 5, "enrollment": 564, "teachers": 36, "lunch_pct": 100.0, "charter": false, "lat": 36.015137, "lng": -114.975257, "ratio": 15.7}, {"name": "Galloway  Fay ES", "district": "CLARK COUNTY SCHOOL DISTRICT", "city": "Henderson", "level": 1, "low_grade": -1, "high_grade": 5, "enrollment": 528, "teachers": 33, "lunch_pct": 100.0, "charter": false, "lat": 36.007799, "lng": -114.980098, "ratio": 16.0}, {"name": "Mack  Nate ES", "district": "CLARK COUNTY SCHOOL DISTRICT", "city": "Henderson", "level": 1, "low_grade": -1, "high_grade": 5, "enrollment": 502, "teachers": 31, "lunch_pct": 100.0, "charter": false, "lat": 36.059399, "lng": -115.091999, "ratio": 16.2}, {"name": "Hinman  Edna F ES", "district": "CLARK COUNTY SCHOOL DISTRICT", "city": "Henderson", "level": 1, "low_grade": -1, "high_grade": 5, "enrollment": 372, "teachers": 26, "lunch_pct": 100.0, "charter": false, "lat": 36.063205, "lng": -114.999972, "ratio": 14.3}, {"name": "McDoniel  Estes M ES", "district": "CLARK COUNTY SCHOOL DISTRICT", "city": "Henderson", "level": 1, "low_grade": -1, "high_grade": 5, "enrollment": 393, "teachers": 27, "lunch_pct": 99.7, "charter": false, "lat": 36.058567, "lng": -115.067009, "ratio": 14.6}, {"name": "Dooley  John ES", "district": "CLARK COUNTY SCHOOL DISTRICT", "city": "Henderson", "level": 1, "low_grade": -1, "high_grade": 5, "enrollment": 337, "teachers": 24, "lunch_pct": 100.0, "charter": false, "lat": 36.007999, "lng": -114.935653, "ratio": 14.0}, {"name": "Gibson  James ES", "district": "CLARK COUNTY SCHOOL DISTRICT", "city": "Henderson", "level": 1, "low_grade": -1, "high_grade": 5, "enrollment": 458, "teachers": 29, "lunch_pct": 100.0, "charter": false, "lat": 36.047128, "lng": -115.074163, "ratio": 15.8}, {"name": "Cox  David M ES", "district": "CLARK COUNTY SCHOOL DISTRICT", "city": "Henderson", "level": 1, "low_grade": -1, "high_grade": 5, "enrollment": 512, "teachers": 31, "lunch_pct": 100.0, "charter": false, "lat": 36.048986, "lng": -115.104502, "ratio": 16.5}, {"name": "Treem  Harriet ES", "district": "CLARK COUNTY SCHOOL DISTRICT", "city": "Henderson", "level": 1, "low_grade": -1, "high_grade": 5, "enrollment": 501, "teachers": 33, "lunch_pct": 100.0, "charter": false, "lat": 36.079068, "lng": -115.057476, "ratio": 15.2}, {"name": "Roberts  Aggie ES", "district": "CLARK COUNTY SCHOOL DISTRICT", "city": "Henderson", "level": 1, "low_grade": -1, "high_grade": 5, "enrollment": 497, "teachers": 29, "lunch_pct": 100.0, "charter": false, "lat": 36.045101, "lng": -115.105195, "ratio": 17.1}, {"name": "Vanderburg  John ES", "district": "CLARK COUNTY SCHOOL DISTRICT", "city": "Henderson", "level": 1, "low_grade": -1, "high_grade": 5, "enrollment": 547, "teachers": 35, "lunch_pct": 100.0, "charter": false, "lat": 36.023724, "lng": -115.076365, "ratio": 15.6}, {"name": "Morrow  Sue H ES", "district": "CLARK COUNTY SCHOOL DISTRICT", "city": "Henderson", "level": 1, "low_grade": -1, "high_grade": 5, "enrollment": 453, "teachers": 29, "lunch_pct": 100.0, "charter": false, "lat": 36.020385, "lng": -114.942754, "ratio": 15.6}, {"name": "Lamping  Frank ES", "district": "CLARK COUNTY SCHOOL DISTRICT", "city": "Henderson", "level": 1, "low_grade": -1, "high_grade": 5, "enrollment": 602, "teachers": 35, "lunch_pct": 100.0, "charter": false, "lat": 35.986485, "lng": -115.097403, "ratio": 17.2}, {"name": "Kesterson  Lorna J ES", "district": "CLARK COUNTY SCHOOL DISTRICT", "city": "Henderson", "level": 1, "low_grade": -1, "high_grade": 5, "enrollment": 532, "teachers": 36, "lunch_pct": 100.0, "charter": false, "lat": 36.044993, "lng": -115.036599, "ratio": 14.8}, {"name": "Wolff  Elise L ES", "district": "CLARK COUNTY SCHOOL DISTRICT", "city": "Henderson", "level": 1, "low_grade": -1, "high_grade": 5, "enrollment": 741, "teachers": 42, "lunch_pct": 100.0, "charter": false, "lat": 35.990759, "lng": -115.122, "ratio": 17.6}, {"name": "Twitchell  Neil C ES", "district": "CLARK COUNTY SCHOOL DISTRICT", "city": "Henderson", "level": 1, "low_grade": -1, "high_grade": 5, "enrollment": 515, "teachers": 31, "lunch_pct": 100.0, "charter": false, "lat": 36.02346, "lng": -115.078256, "ratio": 16.6}, {"name": "Walker  J Marlan Int'l School ES", "district": "CLARK COUNTY SCHOOL DISTRICT", "city": "Henderson", "level": 1, "low_grade": -1, "high_grade": 5, "enrollment": 586, "teachers": 32, "lunch_pct": 100.0, "charter": false, "lat": 35.995625, "lng": -114.95955, "ratio": 18.3}, {"name": "Taylor  Glen C ES", "district": "CLARK COUNTY SCHOOL DISTRICT", "city": "Henderson", "level": 1, "low_grade": -1, "high_grade": 5, "enrollment": 690, "teachers": 39, "lunch_pct": 100.0, "charter": false, "lat": 36.010382, "lng": -115.104678, "ratio": 17.7}, {"name": "Smalley  James E & A Rae ES", "district": "CLARK COUNTY SCHOOL DISTRICT", "city": "Henderson", "level": 1, "low_grade": -1, "high_grade": 5, "enrollment": 672, "teachers": 36, "lunch_pct": 100.0, "charter": false, "lat": 35.991939, "lng": -114.97524, "ratio": 18.7}, {"name": "Wallin  Shirley & Bill ES", "district": "CLARK COUNTY SCHOOL DISTRICT", "city": "Henderson", "level": 1, "low_grade": -1, "high_grade": 5, "enrollment": 503, "teachers": 29, "lunch_pct": 100.0, "charter": false, "lat": 35.931663, "lng": -115.088387, "ratio": 17.3}, {"name": "Stevens  Josh ES", "district": "CLARK COUNTY SCHOOL DISTRICT", "city": "Henderson", "level": 1, "low_grade": -1, "high_grade": 5, "enrollment": 798, "teachers": 45, "lunch_pct": 100.0, "charter": false, "lat": 36.084577, "lng": -114.961259, "ratio": 17.7}, {"name": "Ellis  Robert & Sandy ES", "district": "CLARK COUNTY SCHOOL DISTRICT", "city": "Henderson", "level": 1, "low_grade": -1, "high_grade": 5, "enrollment": 1022, "teachers": 46, "lunch_pct": 100.0, "charter": false, "lat": 35.948956, "lng": -115.127726, "ratio": 22.2}, {"name": "Brown  Hannah Marie ES", "district": "CLARK COUNTY SCHOOL DISTRICT", "city": "Henderson", "level": 1, "low_grade": -1, "high_grade": 5, "enrollment": 629, "teachers": 35, "lunch_pct": 100.0, "charter": false, "lat": 36.028516, "lng": -115.04206, "ratio": 18.0}], "middle": [{"name": "Coral Academy Windmill", "district": "STATE-SPONSORED CHARTER SCHOOLS", "city": "Henderson", "level": 2, "low_grade": 5, "high_grade": 7, "enrollment": 404, "teachers": 16, "lunch_pct": 24.8, "charter": true, "lat": 36.042391, "lng": -115.080982, "ratio": 25.2}, {"name": "Pinecrest Academy Virtual", "district": "STATE-SPONSORED CHARTER SCHOOLS", "city": "Henderson", "level": 2, "low_grade": 6, "high_grade": 10, "enrollment": 78, "teachers": null, "lunch_pct": 24.4, "charter": true, "lat": 36.045494, "lng": -114.980201, "ratio": 78.0}, {"name": "White  Thurman Academy of the Arts MS", "district": "CLARK COUNTY SCHOOL DISTRICT", "city": "Henderson", "level": 2, "low_grade": 6, "high_grade": 8, "enrollment": 1585, "teachers": 67, "lunch_pct": 99.9, "charter": false, "lat": 36.079269, "lng": -115.060202, "ratio": 23.7}, {"name": "Brown  B Mahlon JHS", "district": "CLARK COUNTY SCHOOL DISTRICT", "city": "Henderson", "level": 2, "low_grade": 6, "high_grade": 8, "enrollment": 804, "teachers": 46, "lunch_pct": 100.0, "charter": false, "lat": 36.051723, "lng": -114.955207, "ratio": 17.5}, {"name": "Greenspun  Barbara & Hank JHS", "district": "CLARK COUNTY SCHOOL DISTRICT", "city": "Henderson", "level": 2, "low_grade": 6, "high_grade": 8, "enrollment": 1326, "teachers": 54, "lunch_pct": 99.9, "charter": false, "lat": 36.035372, "lng": -115.065448, "ratio": 24.6}, {"name": "Miller  Bob MS", "district": "CLARK COUNTY SCHOOL DISTRICT", "city": "Henderson", "level": 2, "low_grade": 6, "high_grade": 8, "enrollment": 1532, "teachers": 57, "lunch_pct": 100.0, "charter": false, "lat": 36.013116, "lng": -115.093381, "ratio": 26.9}, {"name": "Mannion  Jack & Terry MS", "district": "CLARK COUNTY SCHOOL DISTRICT", "city": "Henderson", "level": 2, "low_grade": 6, "high_grade": 8, "enrollment": 1368, "teachers": 58, "lunch_pct": 100.0, "charter": false, "lat": 35.989893, "lng": -114.980039, "ratio": 23.6}, {"name": "Webb  Del E MS", "district": "CLARK COUNTY SCHOOL DISTRICT", "city": "Henderson", "level": 2, "low_grade": 6, "high_grade": 8, "enrollment": 1582, "teachers": 60, "lunch_pct": 99.9, "charter": false, "lat": 35.980876, "lng": -115.084848, "ratio": 26.4}, {"name": "Burkholder  Lyal MS", "district": "CLARK COUNTY SCHOOL DISTRICT", "city": "Henderson", "level": 2, "low_grade": 6, "high_grade": 8, "enrollment": 479, "teachers": 29, "lunch_pct": 99.6, "charter": false, "lat": 36.029358, "lng": -114.992483, "ratio": 16.5}], "high": [{"name": "Nevada State High School Henderson", "district": "STATE-SPONSORED CHARTER SCHOOLS", "city": "Henderson", "level": 3, "low_grade": 11, "high_grade": 12, "enrollment": 246, "teachers": null, "lunch_pct": 25.2, "charter": true, "lat": 36.0439, "lng": -115.047161, "ratio": 246.0}, {"name": "Coral Academy Sandy Ridge", "district": "STATE-SPONSORED CHARTER SCHOOLS", "city": "Henderson", "level": 3, "low_grade": 8, "high_grade": 12, "enrollment": 902, "teachers": 31, "lunch_pct": 25.1, "charter": true, "lat": 35.99174, "lng": -115.093301, "ratio": 29.1}, {"name": "Nevada State High School Downtown Henderson", "district": "STATE-SPONSORED CHARTER SCHOOLS", "city": "Henderson", "level": 3, "low_grade": 11, "high_grade": 12, "enrollment": 120, "teachers": 1, "lunch_pct": 15.8, "charter": true, "lat": 36.029618, "lng": -114.979474, "ratio": 120.0}, {"name": "Basic Academy of Int'l Studies HS", "district": "CLARK COUNTY SCHOOL DISTRICT", "city": "Henderson", "level": 3, "low_grade": 9, "high_grade": 12, "enrollment": 2605, "teachers": 108, "lunch_pct": 99.8, "charter": false, "lat": 36.033947, "lng": -114.962065, "ratio": 24.1}, {"name": "Green Valley HS", "district": "CLARK COUNTY SCHOOL DISTRICT", "city": "Henderson", "level": 3, "low_grade": 9, "high_grade": 12, "enrollment": 2617, "teachers": 114, "lunch_pct": 99.9, "charter": false, "lat": 36.057642, "lng": -115.053364, "ratio": 23.0}, {"name": "College of So NV HS South", "district": "CLARK COUNTY SCHOOL DISTRICT", "city": "Henderson", "level": 3, "low_grade": 11, "high_grade": 12, "enrollment": 119, "teachers": 5, "lunch_pct": 2.5, "charter": false, "lat": 36.007563, "lng": -114.965858, "ratio": 23.8}, {"name": "Foothill HS", "district": "CLARK COUNTY SCHOOL DISTRICT", "city": "Henderson", "level": 3, "low_grade": 9, "high_grade": 12, "enrollment": 2383, "teachers": 105, "lunch_pct": 100.0, "charter": false, "lat": 36.004826, "lng": -114.965936, "ratio": 22.7}, {"name": "Coronado HS", "district": "CLARK COUNTY SCHOOL DISTRICT", "city": "Henderson", "level": 3, "low_grade": 9, "high_grade": 12, "enrollment": 3365, "teachers": 124, "lunch_pct": 100.0, "charter": false, "lat": 35.993971, "lng": -115.111466, "ratio": 27.1}, {"name": "Liberty HS", "district": "CLARK COUNTY SCHOOL DISTRICT", "city": "Henderson", "level": 3, "low_grade": 9, "high_grade": 12, "enrollment": 3240, "teachers": 134, "lunch_pct": 100.0, "charter": false, "lat": 35.988943, "lng": -115.153463, "ratio": 24.2}]}, "reno": {"elem": [{"name": "Honors Academy of Literature", "district": "STATE-SPONSORED CHARTER SCHOOLS", "city": "Reno", "level": 1, "low_grade": 0, "high_grade": 8, "enrollment": 215, "teachers": 10, "lunch_pct": 8.8, "charter": true, "lat": 39.52547, "lng": -119.817361, "ratio": 21.5}, {"name": "Doral Academy of Northern Nevada", "district": "STATE-SPONSORED CHARTER SCHOOLS", "city": "Reno", "level": 1, "low_grade": 0, "high_grade": 8, "enrollment": 956, "teachers": 34, "lunch_pct": 6.3, "charter": true, "lat": 39.390735, "lng": -119.779402, "ratio": 28.1}, {"name": "Mater Academy of Northern Nevada", "district": "STATE-SPONSORED CHARTER SCHOOLS", "city": "Reno", "level": 1, "low_grade": 0, "high_grade": 8, "enrollment": 489, "teachers": 23, "lunch_pct": 99.8, "charter": true, "lat": 39.538002, "lng": -119.780977, "ratio": 21.3}, {"name": "ANDERSON ELEMENTARY", "district": "WASHOE COUNTY SCHOOL DISTRICT", "city": "RENO", "level": 1, "low_grade": 0, "high_grade": 6, "enrollment": 350, "teachers": 21, "lunch_pct": 100.0, "charter": false, "lat": 39.494325, "lng": -119.809636, "ratio": 16.7}, {"name": "BROWN ELEMENTARY", "district": "WASHOE COUNTY SCHOOL DISTRICT", "city": "RENO", "level": 1, "low_grade": -1, "high_grade": 5, "enrollment": 676, "teachers": 36, "lunch_pct": 20.4, "charter": false, "lat": 39.403207, "lng": -119.725838, "ratio": 18.8}, {"name": "ECHO LODER ELEMENTARY SCHOOL", "district": "WASHOE COUNTY SCHOOL DISTRICT", "city": "RENO", "level": 1, "low_grade": 0, "high_grade": 5, "enrollment": 387, "teachers": 25, "lunch_pct": 100.0, "charter": false, "lat": 39.503274, "lng": -119.792771, "ratio": 15.5}, {"name": "ELMCREST ELEMENTARY", "district": "WASHOE COUNTY SCHOOL DISTRICT", "city": "RENO", "level": 1, "low_grade": 0, "high_grade": 5, "enrollment": 319, "teachers": 22, "lunch_pct": 100.0, "charter": false, "lat": 39.532775, "lng": -119.842146, "ratio": 14.5}, {"name": "GLENN DUNCAN S.T.E.M. ACADEMY", "district": "WASHOE COUNTY SCHOOL DISTRICT", "city": "RENO", "level": 1, "low_grade": -1, "high_grade": 5, "enrollment": 352, "teachers": 21, "lunch_pct": 100.0, "charter": false, "lat": 39.541345, "lng": -119.794595, "ratio": 16.8}, {"name": "GRACE WARNER ELEMENTARY", "district": "WASHOE COUNTY SCHOOL DISTRICT", "city": "RENO", "level": 1, "low_grade": -1, "high_grade": 5, "enrollment": 400, "teachers": 21, "lunch_pct": 100.0, "charter": false, "lat": 39.528876, "lng": -119.855508, "ratio": 19.0}, {"name": "HUFFAKER ELEMENTARY", "district": "WASHOE COUNTY SCHOOL DISTRICT", "city": "RENO", "level": 1, "low_grade": -1, "high_grade": 5, "enrollment": 320, "teachers": 19, "lunch_pct": 30.0, "charter": false, "lat": 39.470177, "lng": -119.804625, "ratio": 16.8}, {"name": "HUNTER LAKE ELEMENTARY", "district": "WASHOE COUNTY SCHOOL DISTRICT", "city": "RENO", "level": 1, "low_grade": 0, "high_grade": 6, "enrollment": 306, "teachers": 18, "lunch_pct": 38.9, "charter": false, "lat": 39.51128, "lng": -119.836506, "ratio": 17.0}, {"name": "JESSIE BECK ELEMENTARY", "district": "WASHOE COUNTY SCHOOL DISTRICT", "city": "RENO", "level": 1, "low_grade": -1, "high_grade": 6, "enrollment": 473, "teachers": 25, "lunch_pct": 24.5, "charter": false, "lat": 39.504817, "lng": -119.82602, "ratio": 18.9}, {"name": "LEMMON VALLEY ELEMENTARY", "district": "WASHOE COUNTY SCHOOL DISTRICT", "city": "RENO", "level": 1, "low_grade": -1, "high_grade": 5, "enrollment": 714, "teachers": 34, "lunch_pct": 100.0, "charter": false, "lat": 39.645936, "lng": -119.838422, "ratio": 21.0}, {"name": "LIBBY BOOTH ELEMENTARY", "district": "WASHOE COUNTY SCHOOL DISTRICT", "city": "RENO", "level": 1, "low_grade": -1, "high_grade": 5, "enrollment": 374, "teachers": 22, "lunch_pct": 100.0, "charter": false, "lat": 39.520746, "lng": -119.794448, "ratio": 17.0}, {"name": "MAMIE TOWLES ELEMENTARY", "district": "WASHOE COUNTY SCHOOL DISTRICT", "city": "RENO", "level": 1, "low_grade": -1, "high_grade": 5, "enrollment": 322, "teachers": 20, "lunch_pct": 37.0, "charter": false, "lat": 39.53763, "lng": -119.850555, "ratio": 16.1}, {"name": "PEAVINE ELEMENTARY", "district": "WASHOE COUNTY SCHOOL DISTRICT", "city": "RENO", "level": 1, "low_grade": -1, "high_grade": 5, "enrollment": 325, "teachers": 19, "lunch_pct": 100.0, "charter": false, "lat": 39.54067, "lng": -119.833499, "ratio": 17.1}, {"name": "PLEASANT VALLEY ELEMENTARY", "district": "WASHOE COUNTY SCHOOL DISTRICT", "city": "RENO", "level": 1, "low_grade": -1, "high_grade": 5, "enrollment": 358, "teachers": 18, "lunch_pct": 18.4, "charter": false, "lat": 39.351474, "lng": -119.781069, "ratio": 19.9}, {"name": "RITA CANNAN ELEMENTARY", "district": "WASHOE COUNTY SCHOOL DISTRICT", "city": "RENO", "level": 1, "low_grade": -1, "high_grade": 5, "enrollment": 381, "teachers": 18, "lunch_pct": 100.0, "charter": false, "lat": 39.55009, "lng": -119.784812, "ratio": 21.2}, {"name": "ROGER CORBETT ELEMENTARY", "district": "WASHOE COUNTY SCHOOL DISTRICT", "city": "RENO", "level": 1, "low_grade": -1, "high_grade": 5, "enrollment": 359, "teachers": 23, "lunch_pct": 100.0, "charter": false, "lat": 39.509917, "lng": -119.784787, "ratio": 15.6}, {"name": "ROY GOMM ELEMENTARY", "district": "WASHOE COUNTY SCHOOL DISTRICT", "city": "RENO", "level": 1, "low_grade": 0, "high_grade": 6, "enrollment": 399, "teachers": 23, "lunch_pct": 11.3, "charter": false, "lat": 39.506771, "lng": -119.860559, "ratio": 17.3}, {"name": "SMITHRIDGE S.T.E.M. ACADEMY", "district": "WASHOE COUNTY SCHOOL DISTRICT", "city": "RENO", "level": 1, "low_grade": -1, "high_grade": 5, "enrollment": 506, "teachers": 35, "lunch_pct": 100.0, "charter": false, "lat": 39.479903, "lng": -119.782564, "ratio": 14.5}, {"name": "STEAD ELEMENTARY", "district": "WASHOE COUNTY SCHOOL DISTRICT", "city": "RENO", "level": 1, "low_grade": 0, "high_grade": 5, "enrollment": 702, "teachers": 37, "lunch_pct": 100.0, "charter": false, "lat": 39.624001, "lng": -119.881033, "ratio": 19.0}, {"name": "VETERANS MEMORIAL S.T.E.M. ACADEMY", "district": "WASHOE COUNTY SCHOOL DISTRICT", "city": "RENO", "level": 1, "low_grade": -1, "high_grade": 5, "enrollment": 284, "teachers": 17, "lunch_pct": 100.0, "charter": false, "lat": 39.513371, "lng": -119.799598, "ratio": 16.7}, {"name": "EDWIN S. DODSON ELEMENTARY", "district": "WASHOE COUNTY SCHOOL DISTRICT", "city": "RENO", "level": 1, "low_grade": -1, "high_grade": 5, "enrollment": 235, "teachers": 17, "lunch_pct": 100.0, "charter": false, "lat": 39.489918, "lng": -119.750935, "ratio": 13.8}, {"name": "ELIZABETH LENZ ELEMENTARY", "district": "WASHOE COUNTY SCHOOL DISTRICT", "city": "RENO", "level": 1, "low_grade": -1, "high_grade": 5, "enrollment": 467, "teachers": 26, "lunch_pct": 13.5, "charter": false, "lat": 39.427158, "lng": -119.7755, "ratio": 18.0}, {"name": "MOUNT ROSE K-8 ACADEMY OF LANGUAGES", "district": "WASHOE COUNTY SCHOOL DISTRICT", "city": "RENO", "level": 1, "low_grade": -1, "high_grade": 8, "enrollment": 411, "teachers": 20, "lunch_pct": 26.8, "charter": false, "lat": 39.515273, "lng": -119.81579, "ratio": 20.6}, {"name": "NANCY GOMES ELEMENTARY", "district": "WASHOE COUNTY SCHOOL DISTRICT", "city": "RENO", "level": 1, "low_grade": -1, "high_grade": 5, "enrollment": 275, "teachers": 15, "lunch_pct": 100.0, "charter": false, "lat": 39.680316, "lng": -119.96829, "ratio": 18.3}, {"name": "HIDDEN VALLEY ELEMENTARY", "district": "WASHOE COUNTY SCHOOL DISTRICT", "city": "RENO", "level": 1, "low_grade": -1, "high_grade": 5, "enrollment": 228, "teachers": 16, "lunch_pct": 100.0, "charter": false, "lat": 39.499951, "lng": -119.716795, "ratio": 14.2}, {"name": "SILVER LAKE ELEMENTARY", "district": "WASHOE COUNTY SCHOOL DISTRICT", "city": "RENO", "level": 1, "low_grade": 0, "high_grade": 5, "enrollment": 424, "teachers": 23, "lunch_pct": 40.6, "charter": false, "lat": 39.633011, "lng": -119.901889, "ratio": 18.4}, {"name": "GEORGE WESTERGARD ELEMENTARY", "district": "WASHOE COUNTY SCHOOL DISTRICT", "city": "RENO", "level": 1, "low_grade": -1, "high_grade": 5, "enrollment": 482, "teachers": 27, "lunch_pct": 22.0, "charter": false, "lat": 39.526916, "lng": -119.892689, "ratio": 17.9}, {"name": "ALICE SMITH ELEMENTARY", "district": "WASHOE COUNTY SCHOOL DISTRICT", "city": "RENO", "level": 1, "low_grade": -1, "high_grade": 6, "enrollment": 501, "teachers": 33, "lunch_pct": 100.0, "charter": false, "lat": 39.606793, "lng": -119.837161, "ratio": 15.2}, {"name": "CAUGHLIN RANCH ELEMENTARY", "district": "WASHOE COUNTY SCHOOL DISTRICT", "city": "RENO", "level": 1, "low_grade": -1, "high_grade": 6, "enrollment": 480, "teachers": 25, "lunch_pct": 6.7, "charter": false, "lat": 39.482716, "lng": -119.857484, "ratio": 19.2}, {"name": "DESERT HEIGHTS ELEMENTARY", "district": "WASHOE COUNTY SCHOOL DISTRICT", "city": "RENO", "level": 1, "low_grade": -1, "high_grade": 6, "enrollment": 463, "teachers": 24, "lunch_pct": 100.0, "charter": false, "lat": 39.65359, "lng": -119.882579, "ratio": 19.3}, {"name": "SARAH WINNEMUCCA ELEMENTARY", "district": "WASHOE COUNTY SCHOOL DISTRICT", "city": "RENO", "level": 1, "low_grade": 0, "high_grade": 5, "enrollment": 487, "teachers": 27, "lunch_pct": 43.9, "charter": false, "lat": 39.523417, "lng": -119.878932, "ratio": 18.0}, {"name": "DONNER SPRINGS ELEMENTARY", "district": "WASHOE COUNTY SCHOOL DISTRICT", "city": "RENO", "level": 1, "low_grade": -1, "high_grade": 5, "enrollment": 448, "teachers": 27, "lunch_pct": 100.0, "charter": false, "lat": 39.476171, "lng": -119.744315, "ratio": 16.6}, {"name": "BERNICE MATHEWS ELEMENTARY", "district": "WASHOE COUNTY SCHOOL DISTRICT", "city": "RENO", "level": 1, "low_grade": -1, "high_grade": 5, "enrollment": 441, "teachers": 29, "lunch_pct": 100.0, "charter": false, "lat": 39.541757, "lng": -119.779146, "ratio": 15.2}, {"name": "TED HUNSBERGER ELEMENTARY", "district": "WASHOE COUNTY SCHOOL DISTRICT", "city": "RENO", "level": 1, "low_grade": 0, "high_grade": 5, "enrollment": 533, "teachers": 24, "lunch_pct": 5.3, "charter": false, "lat": 39.406497, "lng": -119.80073, "ratio": 22.2}, {"name": "Bailey Charter School", "district": "WASHOE COUNTY SCHOOL DISTRICT", "city": "RENO", "level": 1, "low_grade": 0, "high_grade": 6, "enrollment": 177, "teachers": null, "lunch_pct": 100.0, "charter": true, "lat": 39.494547, "lng": -119.795007, "ratio": 177.0}, {"name": "ROLLAN MELTON ELEMENTARY", "district": "WASHOE COUNTY SCHOOL DISTRICT", "city": "RENO", "level": 1, "low_grade": -1, "high_grade": 5, "enrollment": 543, "teachers": 29, "lunch_pct": 17.7, "charter": false, "lat": 39.545713, "lng": -119.893455, "ratio": 18.7}, {"name": "DOUBLE DIAMOND ELEMENTARY", "district": "WASHOE COUNTY SCHOOL DISTRICT", "city": "RENO", "level": 1, "low_grade": -1, "high_grade": 5, "enrollment": 523, "teachers": 30, "lunch_pct": 36.7, "charter": false, "lat": 39.441212, "lng": -119.747529, "ratio": 17.4}, {"name": "Mariposa Language and Learning Academy", "district": "WASHOE COUNTY SCHOOL DISTRICT", "city": "RENO", "level": 1, "low_grade": -1, "high_grade": 5, "enrollment": 179, "teachers": null, "lunch_pct": 100.0, "charter": true, "lat": 39.488838, "lng": -119.778428, "ratio": 179.0}, {"name": "High Desert Montessori", "district": "WASHOE COUNTY SCHOOL DISTRICT", "city": "RENO", "level": 1, "low_grade": -1, "high_grade": 8, "enrollment": 468, "teachers": null, "lunch_pct": 27.4, "charter": true, "lat": 39.548975, "lng": -119.781474, "ratio": 468.0}, {"name": "Coral Academy Elementary", "district": "WASHOE COUNTY SCHOOL DISTRICT", "city": "RENO", "level": 1, "low_grade": 0, "high_grade": 4, "enrollment": 465, "teachers": null, "lunch_pct": 26.2, "charter": true, "lat": 39.543896, "lng": -119.80829, "ratio": 465.0}, {"name": "DOROTHY LEMELSON S.T.E.M. ACADEMY ES", "district": "WASHOE COUNTY SCHOOL DISTRICT", "city": "RENO", "level": 1, "low_grade": -1, "high_grade": 5, "enrollment": 284, "teachers": 21, "lunch_pct": 100.0, "charter": false, "lat": 39.546094, "lng": -119.80898, "ratio": 13.5}, {"name": "NICK POULAKIDAS ELEMENTARY SCHOOL", "district": "WASHOE COUNTY SCHOOL DISTRICT", "city": "RENO", "level": 1, "low_grade": -1, "high_grade": 5, "enrollment": 868, "teachers": 45, "lunch_pct": 15.2, "charter": false, "lat": 39.447463, "lng": -119.722488, "ratio": 19.3}, {"name": "MICHAEL INSKEEP ELEMENTARY SCHOOL", "district": "WASHOE COUNTY SCHOOL DISTRICT", "city": "RENO", "level": 1, "low_grade": -1, "high_grade": 5, "enrollment": 490, "teachers": 24, "lunch_pct": 29.4, "charter": false, "lat": 39.695147, "lng": -119.972602, "ratio": 20.4}, {"name": "Coral Academy Elementary-South", "district": "WASHOE COUNTY SCHOOL DISTRICT", "city": "Reno", "level": 1, "low_grade": 0, "high_grade": 5, "enrollment": 414, "teachers": 0, "lunch_pct": 24.4, "charter": true, "lat": 39.469221, "lng": -119.781437, "ratio": 414.0}], "middle": [{"name": "ARCHIE CLAYTON PRE-A.P. ACADEMY", "district": "WASHOE COUNTY SCHOOL DISTRICT", "city": "RENO", "level": 2, "low_grade": 6, "high_grade": 8, "enrollment": 723, "teachers": 32, "lunch_pct": 99.9, "charter": false, "lat": 39.536596, "lng": -119.84712, "ratio": 22.6}, {"name": "DARREL SWOPE MIDDLE SCHOOL", "district": "WASHOE COUNTY SCHOOL DISTRICT", "city": "RENO", "level": 2, "low_grade": 6, "high_grade": 8, "enrollment": 946, "teachers": 35, "lunch_pct": 25.5, "charter": false, "lat": 39.51007, "lng": -119.847053, "ratio": 27.0}, {"name": "E. OTIS VAUGHN MIDDLE SCHOOL", "district": "WASHOE COUNTY SCHOOL DISTRICT", "city": "RENO", "level": 2, "low_grade": 6, "high_grade": 8, "enrollment": 668, "teachers": 33, "lunch_pct": 100.0, "charter": false, "lat": 39.514125, "lng": -119.792125, "ratio": 20.2}, {"name": "EDWARD L. PINE MIDDLE SCHOOL", "district": "WASHOE COUNTY SCHOOL DISTRICT", "city": "RENO", "level": 2, "low_grade": 6, "high_grade": 8, "enrollment": 835, "teachers": 45, "lunch_pct": 100.0, "charter": false, "lat": 39.479921, "lng": -119.780691, "ratio": 18.6}, {"name": "FRED W. TRANER MIDDLE SCHOOL", "district": "WASHOE COUNTY SCHOOL DISTRICT", "city": "RENO", "level": 2, "low_grade": 6, "high_grade": 8, "enrollment": 531, "teachers": 28, "lunch_pct": 100.0, "charter": false, "lat": 39.541394, "lng": -119.792507, "ratio": 19.0}, {"name": "WILLIAM OBRIEN MIDDLE SCHOOL", "district": "WASHOE COUNTY SCHOOL DISTRICT", "city": "RENO", "level": 2, "low_grade": 6, "high_grade": 8, "enrollment": 1065, "teachers": 49, "lunch_pct": 100.0, "charter": false, "lat": 39.622622, "lng": -119.879244, "ratio": 21.7}, {"name": "BILLINGHURST MIDDLE SCHOOL", "district": "WASHOE COUNTY SCHOOL DISTRICT", "city": "RENO", "level": 2, "low_grade": 6, "high_grade": 8, "enrollment": 912, "teachers": 43, "lunch_pct": 21.8, "charter": false, "lat": 39.521776, "lng": -119.894305, "ratio": 21.2}, {"name": "COLD SPRINGS MIDDLE SCHOOL", "district": "WASHOE COUNTY SCHOOL DISTRICT", "city": "RENO", "level": 2, "low_grade": 6, "high_grade": 8, "enrollment": 648, "teachers": 32, "lunch_pct": 34.7, "charter": false, "lat": 39.692494, "lng": -119.962765, "ratio": 20.2}, {"name": "KENDYL DEPOALI MIDDLE SCHOOL", "district": "WASHOE COUNTY SCHOOL DISTRICT", "city": "RENO", "level": 2, "low_grade": 6, "high_grade": 8, "enrollment": 834, "teachers": 37, "lunch_pct": 21.6, "charter": false, "lat": 39.44853, "lng": -119.73473, "ratio": 22.5}, {"name": "Coral Academy Middle School", "district": "WASHOE COUNTY SCHOOL DISTRICT", "city": "RENO", "level": 2, "low_grade": 5, "high_grade": 8, "enrollment": 543, "teachers": null, "lunch_pct": 23.2, "charter": true, "lat": 39.538214, "lng": -119.79657, "ratio": 543.0}, {"name": "MARCE HERZ MIDDLE SCHOOL", "district": "WASHOE COUNTY SCHOOL DISTRICT", "city": "RENO", "level": 2, "low_grade": 6, "high_grade": 8, "enrollment": 823, "teachers": 37, "lunch_pct": 13.2, "charter": false, "lat": 39.406396, "lng": -119.793847, "ratio": 22.2}], "high": [{"name": "Nevada Connections Academy", "district": "STATE-SPONSORED CHARTER SCHOOLS", "city": "Reno", "level": 3, "low_grade": 9, "high_grade": 12, "enrollment": 1000, "teachers": 32, "lunch_pct": 48.1, "charter": true, "lat": 39.442153, "lng": -119.764137, "ratio": 31.2}, {"name": "Nevada State High School II Meadowwood", "district": "STATE-SPONSORED CHARTER SCHOOLS", "city": "Reno", "level": 3, "low_grade": 11, "high_grade": 12, "enrollment": 34, "teachers": null, "lunch_pct": 14.7, "charter": true, "lat": 39.456247, "lng": -119.777671, "ratio": 34.0}, {"name": "Davidson Academy", "district": "DAVIDSON ACADEMY  SCHOOL DISTRICT", "city": "Reno", "level": 3, "low_grade": 5, "high_grade": 12, "enrollment": 163, "teachers": 11, "lunch_pct": 1.8, "charter": false, "lat": 39.538754, "lng": -119.816216, "ratio": 14.8}, {"name": "EARL WOOSTER HIGH SCHOOL", "district": "WASHOE COUNTY SCHOOL DISTRICT", "city": "RENO", "level": 3, "low_grade": 9, "high_grade": 12, "enrollment": 1509, "teachers": 72, "lunch_pct": 99.9, "charter": false, "lat": 39.506534, "lng": -119.782192, "ratio": 21.0}, {"name": "RENO HIGH SCHOOL", "district": "WASHOE COUNTY SCHOOL DISTRICT", "city": "RENO", "level": 3, "low_grade": 9, "high_grade": 12, "enrollment": 1796, "teachers": 72, "lunch_pct": 23.7, "charter": false, "lat": 39.517456, "lng": -119.827985, "ratio": 24.9}, {"name": "GALENA HIGH SCHOOL", "district": "WASHOE COUNTY SCHOOL DISTRICT", "city": "RENO", "level": 3, "low_grade": 9, "high_grade": 12, "enrollment": 1254, "teachers": 47, "lunch_pct": 14.0, "charter": false, "lat": 39.387879, "lng": -119.777268, "ratio": 26.7}, {"name": "ROBERT MCQUEEN HIGH SCHOOL", "district": "WASHOE COUNTY SCHOOL DISTRICT", "city": "RENO", "level": 3, "low_grade": 9, "high_grade": 12, "enrollment": 1643, "teachers": 66, "lunch_pct": 23.8, "charter": false, "lat": 39.534583, "lng": -119.883773, "ratio": 24.9}, {"name": "TMCC MAGNET SCHOOL", "district": "WASHOE COUNTY SCHOOL DISTRICT", "city": "RENO", "level": 3, "low_grade": 10, "high_grade": 12, "enrollment": 236, "teachers": 6, "lunch_pct": 9.3, "charter": false, "lat": 39.572311, "lng": -119.798208, "ratio": 39.3}, {"name": "Coral Academy High School", "district": "WASHOE COUNTY SCHOOL DISTRICT", "city": "RENO", "level": 3, "low_grade": 9, "high_grade": 12, "enrollment": 343, "teachers": null, "lunch_pct": 20.1, "charter": true, "lat": 39.46892, "lng": -119.783701, "ratio": 343.0}, {"name": "NORTH VALLEYS HIGH SCHOOL", "district": "WASHOE COUNTY SCHOOL DISTRICT", "city": "RENO", "level": 3, "low_grade": 9, "high_grade": 12, "enrollment": 2432, "teachers": 99, "lunch_pct": 37.1, "charter": false, "lat": 39.60643, "lng": -119.823764, "ratio": 24.6}, {"name": "Academy For Career Education", "district": "WASHOE COUNTY SCHOOL DISTRICT", "city": "RENO", "level": 3, "low_grade": 9, "high_grade": 12, "enrollment": 236, "teachers": null, "lunch_pct": 29.7, "charter": true, "lat": 39.512539, "lng": -119.775077, "ratio": 236.0}, {"name": "DAMONTE RANCH HIGH SCHOOL", "district": "WASHOE COUNTY SCHOOL DISTRICT", "city": "RENO", "level": 3, "low_grade": 9, "high_grade": 12, "enrollment": 1910, "teachers": 81, "lunch_pct": 29.6, "charter": false, "lat": 39.424127, "lng": -119.713055, "ratio": 23.6}, {"name": "enCompass Academy", "district": "WASHOE COUNTY SCHOOL DISTRICT", "city": "RENO", "level": 3, "low_grade": 9, "high_grade": 12, "enrollment": 113, "teachers": null, "lunch_pct": 100.0, "charter": true, "lat": 39.51569, "lng": -119.833011, "ratio": 113.0}, {"name": "ACADEMY OF ARTS CAREERS & TECH", "district": "WASHOE COUNTY SCHOOL DISTRICT", "city": "RENO", "level": 3, "low_grade": 9, "high_grade": 12, "enrollment": 530, "teachers": 28, "lunch_pct": 18.9, "charter": false, "lat": 39.506095, "lng": -119.755057, "ratio": 18.9}, {"name": "WASHOE INSPIRE ACADEMY", "district": "WASHOE COUNTY SCHOOL DISTRICT", "city": "RENO", "level": 3, "low_grade": 6, "high_grade": 12, "enrollment": 148, "teachers": null, "lunch_pct": 100.0, "charter": false, "lat": 39.511808, "lng": -119.750282, "ratio": 148.0}, {"name": "INNOVATIONS HIGH SCHOOL", "district": "WASHOE COUNTY SCHOOL DISTRICT", "city": "Reno", "level": 3, "low_grade": 9, "high_grade": 12, "enrollment": 127, "teachers": 13, "lunch_pct": 98.4, "charter": false, "lat": 39.525333, "lng": -119.823231, "ratio": 9.8}]}, "las vegas": {"elem": [{"name": "Quest Academy Northwest", "district": "STATE-SPONSORED CHARTER SCHOOLS", "city": "Las Vegas", "level": 1, "low_grade": 0, "high_grade": 8, "enrollment": 452, "teachers": 17, "lunch_pct": 100.0, "charter": true, "lat": 36.233164, "lng": -115.228562, "ratio": 26.6}, {"name": "Discovery Charter School HillPointe", "district": "STATE-SPONSORED CHARTER SCHOOLS", "city": "Las Vegas", "level": 1, "low_grade": 0, "high_grade": 8, "enrollment": 404, "teachers": 16, "lunch_pct": 19.8, "charter": true, "lat": 36.198028, "lng": -115.2905, "ratio": 25.2}, {"name": "Imagine School Mountain View", "district": "STATE-SPONSORED CHARTER SCHOOLS", "city": "Las Vegas", "level": 1, "low_grade": 0, "high_grade": 6, "enrollment": 679, "teachers": 7, "lunch_pct": 48.2, "charter": true, "lat": 36.281351, "lng": -115.279251, "ratio": 97.0}, {"name": "Mater Mountain Vista", "district": "STATE-SPONSORED CHARTER SCHOOLS", "city": "Las Vegas", "level": 1, "low_grade": -1, "high_grade": 8, "enrollment": 1074, "teachers": 21, "lunch_pct": 100.0, "charter": true, "lat": 36.127177, "lng": -115.074673, "ratio": 51.1}, {"name": "Futuro Academy Elementary", "district": "STATE-SPONSORED CHARTER SCHOOLS", "city": "Las Vegas", "level": 1, "low_grade": 0, "high_grade": 5, "enrollment": 462, "teachers": 6, "lunch_pct": 100.0, "charter": true, "lat": 36.181172, "lng": -115.080786, "ratio": 77.0}, {"name": "Democracy Prep at Agassi Elementary", "district": "STATE-SPONSORED CHARTER SCHOOLS", "city": "Las Vegas", "level": 1, "low_grade": 0, "high_grade": 5, "enrollment": 521, "teachers": 6, "lunch_pct": 100.0, "charter": true, "lat": 36.195055, "lng": -115.15699, "ratio": 86.8}, {"name": "Discovery Charter School Sandhill", "district": "STATE-SPONSORED CHARTER SCHOOLS", "city": "Las Vegas", "level": 1, "low_grade": 0, "high_grade": 5, "enrollment": 89, "teachers": 5, "lunch_pct": 48.3, "charter": true, "lat": 36.11737, "lng": -115.092874, "ratio": 17.8}, {"name": "Doral Academy Cactus", "district": "STATE-SPONSORED CHARTER SCHOOLS", "city": "Las Vegas", "level": 1, "low_grade": 0, "high_grade": 8, "enrollment": 1001, "teachers": 39, "lunch_pct": 18.5, "charter": true, "lat": 35.99719, "lng": -115.289767, "ratio": 25.7}, {"name": "Coral Academy Tamarus", "district": "STATE-SPONSORED CHARTER SCHOOLS", "city": "Las Vegas", "level": 1, "low_grade": 0, "high_grade": 4, "enrollment": 408, "teachers": 19, "lunch_pct": 30.9, "charter": true, "lat": 36.041335, "lng": -115.132377, "ratio": 21.5}, {"name": "Doral Academy West Pebble", "district": "STATE-SPONSORED CHARTER SCHOOLS", "city": "Las Vegas", "level": 1, "low_grade": 0, "high_grade": 8, "enrollment": 995, "teachers": 34, "lunch_pct": 24.3, "charter": true, "lat": 36.026231, "lng": -115.232692, "ratio": 29.3}, {"name": "Doral Academy Fire Mesa", "district": "STATE-SPONSORED CHARTER SCHOOLS", "city": "Las Vegas", "level": 1, "low_grade": 0, "high_grade": 8, "enrollment": 981, "teachers": 40, "lunch_pct": 36.4, "charter": true, "lat": 36.207017, "lng": -115.257083, "ratio": 24.5}, {"name": "Pinecrest Academy of Nevada St Rose", "district": "STATE-SPONSORED CHARTER SCHOOLS", "city": "Las Vegas", "level": 1, "low_grade": 0, "high_grade": 8, "enrollment": 1023, "teachers": 32, "lunch_pct": 31.1, "charter": true, "lat": 35.998693, "lng": -115.133708, "ratio": 32.0}, {"name": "Somerset Academy Lone Mountain", "district": "STATE-SPONSORED CHARTER SCHOOLS", "city": "Las Vegas", "level": 1, "low_grade": 0, "high_grade": 8, "enrollment": 1012, "teachers": 34, "lunch_pct": 28.5, "charter": true, "lat": 36.242974, "lng": -115.243418, "ratio": 29.8}, {"name": "Mater Bonanza", "district": "STATE-SPONSORED CHARTER SCHOOLS", "city": "Las Vegas", "level": 1, "low_grade": -1, "high_grade": 8, "enrollment": 1081, "teachers": 29, "lunch_pct": 100.0, "charter": true, "lat": 36.174514, "lng": -115.07031, "ratio": 37.3}, {"name": "Doral Academy Saddle", "district": "STATE-SPONSORED CHARTER SCHOOLS", "city": "Las Vegas", "level": 1, "low_grade": 0, "high_grade": 8, "enrollment": 993, "teachers": 37, "lunch_pct": 27.5, "charter": true, "lat": 36.116161, "lng": -115.301971, "ratio": 26.8}, {"name": "Coral Academy Nellis AFB", "district": "STATE-SPONSORED CHARTER SCHOOLS", "city": "Las Vegas", "level": 1, "low_grade": -1, "high_grade": 8, "enrollment": 905, "teachers": 33, "lunch_pct": 28.2, "charter": true, "lat": 36.246567, "lng": -115.062151, "ratio": 27.4}, {"name": "Coral Academy Centennial Hills", "district": "STATE-SPONSORED CHARTER SCHOOLS", "city": "Las Vegas", "level": 1, "low_grade": 0, "high_grade": 8, "enrollment": 691, "teachers": 27, "lunch_pct": 30.1, "charter": true, "lat": 36.283552, "lng": -115.268696, "ratio": 25.6}, {"name": "Somerset Academy Skye Canyon", "district": "STATE-SPONSORED CHARTER SCHOOLS", "city": "Las Vegas", "level": 1, "low_grade": 0, "high_grade": 8, "enrollment": 1008, "teachers": 39, "lunch_pct": 15.7, "charter": true, "lat": 36.308205, "lng": -115.329929, "ratio": 25.8}, {"name": "NV Rise Academy Charter School", "district": "STATE-SPONSORED CHARTER SCHOOLS", "city": "Las Vegas", "level": 1, "low_grade": 0, "high_grade": 5, "enrollment": 466, "teachers": null, "lunch_pct": 100.0, "charter": true, "lat": 36.125455, "lng": -115.115995, "ratio": 466.0}, {"name": "Coral Academy Eastgate", "district": "STATE-SPONSORED CHARTER SCHOOLS", "city": "Las Vegas", "level": 1, "low_grade": 0, "high_grade": 7, "enrollment": 581, "teachers": 17, "lunch_pct": 38.0, "charter": true, "lat": 36.045407, "lng": -115.021139, "ratio": 34.2}, {"name": "Legacy Traditional School Southwest Las Vegas", "district": "STATE-SPONSORED CHARTER SCHOOLS", "city": "Las Vegas", "level": 1, "low_grade": 0, "high_grade": 8, "enrollment": 1499, "teachers": 35, "lunch_pct": 40.2, "charter": true, "lat": 36.033218, "lng": -115.24601, "ratio": 42.8}, {"name": "Amplus Rainbow", "district": "STATE-SPONSORED CHARTER SCHOOLS", "city": "Las Vegas", "level": 1, "low_grade": 0, "high_grade": 5, "enrollment": 626, "teachers": 10, "lunch_pct": 41.7, "charter": true, "lat": 36.076739, "lng": -115.245139, "ratio": 62.6}, {"name": "TEACH Las Vegas", "district": "STATE-SPONSORED CHARTER SCHOOLS", "city": "Las Vegas", "level": 1, "low_grade": 0, "high_grade": 8, "enrollment": 332, "teachers": 3, "lunch_pct": 61.4, "charter": true, "lat": 36.244534, "lng": -115.236556, "ratio": 110.7}, {"name": "Sage Collegiate Public Charter School", "district": "STATE-SPONSORED CHARTER SCHOOLS", "city": "Las Vegas", "level": 1, "low_grade": 0, "high_grade": 5, "enrollment": 205, "teachers": 3, "lunch_pct": 66.8, "charter": true, "lat": 36.159651, "lng": -115.196333, "ratio": 68.3}, {"name": "pilotED Cactus Park", "district": "STATE-SPONSORED CHARTER SCHOOLS", "city": "Las Vegas", "level": 1, "low_grade": 0, "high_grade": 4, "enrollment": 114, "teachers": 1, "lunch_pct": 100.0, "charter": true, "lat": 36.215955, "lng": -115.097562, "ratio": 114.0}, {"name": "Strong Start Academy", "district": "STATE-SPONSORED CHARTER SCHOOLS", "city": "Las Vegas", "level": 1, "low_grade": 0, "high_grade": 2, "enrollment": 80, "teachers": 10, "lunch_pct": 82.5, "charter": true, "lat": 36.164439, "lng": -115.138323, "ratio": 8.0}, {"name": "Battle Born Academy", "district": "STATE-SPONSORED CHARTER SCHOOLS", "city": "Las Vegas", "level": 1, "low_grade": 0, "high_grade": 6, "enrollment": 144, "teachers": null, "lunch_pct": 83.3, "charter": true, "lat": 36.173033, "lng": -115.085582, "ratio": 144.0}, {"name": "Ronzone  Bertha ES", "district": "CLARK COUNTY SCHOOL DISTRICT", "city": "Las Vegas", "level": 1, "low_grade": -1, "high_grade": 5, "enrollment": 711, "teachers": 39, "lunch_pct": 100.0, "charter": false, "lat": 36.196762, "lng": -115.218776, "ratio": 18.2}, {"name": "Tomiyasu  Bill Y ES", "district": "CLARK COUNTY SCHOOL DISTRICT", "city": "Las Vegas", "level": 1, "low_grade": -1, "high_grade": 5, "enrollment": 446, "teachers": 29, "lunch_pct": 100.0, "charter": false, "lat": 36.090415, "lng": -115.08766, "ratio": 15.4}, {"name": "Ronnow  C C ES", "district": "CLARK COUNTY SCHOOL DISTRICT", "city": "Las Vegas", "level": 1, "low_grade": -1, "high_grade": 5, "enrollment": 540, "teachers": 35, "lunch_pct": 100.0, "charter": false, "lat": 36.183311, "lng": -115.100651, "ratio": 15.4}, {"name": "Decker  C H ES", "district": "CLARK COUNTY SCHOOL DISTRICT", "city": "Las Vegas", "level": 1, "low_grade": -1, "high_grade": 5, "enrollment": 612, "teachers": 31, "lunch_pct": 100.0, "charter": false, "lat": 36.11894, "lng": -115.237758, "ratio": 19.7}, {"name": "Crestwood ES", "district": "CLARK COUNTY SCHOOL DISTRICT", "city": "Las Vegas", "level": 1, "low_grade": -1, "high_grade": 5, "enrollment": 615, "teachers": 37, "lunch_pct": 100.0, "charter": false, "lat": 36.154717, "lng": -115.127228, "ratio": 16.6}, {"name": "Wengert  Cyril ES", "district": "CLARK COUNTY SCHOOL DISTRICT", "city": "Las Vegas", "level": 1, "low_grade": -1, "high_grade": 5, "enrollment": 544, "teachers": 31, "lunch_pct": 100.0, "charter": false, "lat": 36.149241, "lng": -115.058628, "ratio": 17.5}, {"name": "French  Doris ES", "district": "CLARK COUNTY SCHOOL DISTRICT", "city": "Las Vegas", "level": 1, "low_grade": -1, "high_grade": 5, "enrollment": 473, "teachers": 24, "lunch_pct": 100.0, "charter": false, "lat": 36.092768, "lng": -115.104556, "ratio": 19.7}, {"name": "Hancock  Doris ES", "district": "CLARK COUNTY SCHOOL DISTRICT", "city": "Las Vegas", "level": 1, "low_grade": -1, "high_grade": 5, "enrollment": 497, "teachers": 36, "lunch_pct": 100.0, "charter": false, "lat": 36.152834, "lng": -115.2158, "ratio": 13.8}, {"name": "Griffith  E W ES", "district": "CLARK COUNTY SCHOOL DISTRICT", "city": "Las Vegas", "level": 1, "low_grade": -1, "high_grade": 5, "enrollment": 588, "teachers": 40, "lunch_pct": 100.0, "charter": false, "lat": 36.16907, "lng": -115.199909, "ratio": 14.7}, {"name": "Edwards  Elbert ES", "district": "CLARK COUNTY SCHOOL DISTRICT", "city": "Las Vegas", "level": 1, "low_grade": -1, "high_grade": 5, "enrollment": 541, "teachers": 37, "lunch_pct": 100.0, "charter": false, "lat": 36.171089, "lng": -115.074969, "ratio": 14.6}, {"name": "Ward  Gene ES", "district": "CLARK COUNTY SCHOOL DISTRICT", "city": "Las Vegas", "level": 1, "low_grade": -1, "high_grade": 5, "enrollment": 612, "teachers": 41, "lunch_pct": 100.0, "charter": false, "lat": 36.092832, "lng": -115.1315, "ratio": 14.9}, {"name": "Harris  George E ES", "district": "CLARK COUNTY SCHOOL DISTRICT", "city": "Las Vegas", "level": 1, "low_grade": -1, "high_grade": 5, "enrollment": 683, "teachers": 35, "lunch_pct": 100.0, "charter": false, "lat": 36.122764, "lng": -115.090955, "ratio": 19.5}, {"name": "Hewetson  Halle ES", "district": "CLARK COUNTY SCHOOL DISTRICT", "city": "Las Vegas", "level": 1, "low_grade": -1, "high_grade": 5, "enrollment": 713, "teachers": 38, "lunch_pct": 100.0, "charter": false, "lat": 36.176534, "lng": -115.12259, "ratio": 18.8}, {"name": "Harmon  Harley ES", "district": "CLARK COUNTY SCHOOL DISTRICT", "city": "Las Vegas", "level": 1, "low_grade": -1, "high_grade": 5, "enrollment": 582, "teachers": 39, "lunch_pct": 100.0, "charter": false, "lat": 36.092235, "lng": -115.067986, "ratio": 14.9}, {"name": "Dondero  Harvey N ES", "district": "CLARK COUNTY SCHOOL DISTRICT", "city": "Las Vegas", "level": 1, "low_grade": -1, "high_grade": 5, "enrollment": 763, "teachers": 41, "lunch_pct": 100.0, "charter": false, "lat": 36.108008, "lng": -115.228627, "ratio": 18.6}, {"name": "Smith  Helen M ES", "district": "CLARK COUNTY SCHOOL DISTRICT", "city": "Las Vegas", "level": 1, "low_grade": -1, "high_grade": 5, "enrollment": 492, "teachers": 31, "lunch_pct": 100.0, "charter": false, "lat": 36.169167, "lng": -115.253516, "ratio": 15.9}, {"name": "Wasden  Howard ES", "district": "CLARK COUNTY SCHOOL DISTRICT", "city": "Las Vegas", "level": 1, "low_grade": -1, "high_grade": 5, "enrollment": 455, "teachers": 28, "lunch_pct": 100.0, "charter": false, "lat": 36.162184, "lng": -115.180133, "ratio": 16.2}, {"name": "Earl  Ira J ES", "district": "CLARK COUNTY SCHOOL DISTRICT", "city": "Las Vegas", "level": 1, "low_grade": -1, "high_grade": 5, "enrollment": 623, "teachers": 34, "lunch_pct": 100.0, "charter": false, "lat": 36.185614, "lng": -115.072342, "ratio": 18.3}, {"name": "Manch  J E ES", "district": "CLARK COUNTY SCHOOL DISTRICT", "city": "Las Vegas", "level": 1, "low_grade": -1, "high_grade": 5, "enrollment": 839, "teachers": 44, "lunch_pct": 100.0, "charter": false, "lat": 36.23901, "lng": -115.067421, "ratio": 19.1}, {"name": "Ullom  J M ES", "district": "CLARK COUNTY SCHOOL DISTRICT", "city": "Las Vegas", "level": 1, "low_grade": -1, "high_grade": 5, "enrollment": 625, "teachers": 41, "lunch_pct": 100.0, "charter": false, "lat": 36.104054, "lng": -115.06696, "ratio": 15.2}, {"name": "McWilliams  J T ES", "district": "CLARK COUNTY SCHOOL DISTRICT", "city": "Las Vegas", "level": 1, "low_grade": -1, "high_grade": 5, "enrollment": 684, "teachers": 35, "lunch_pct": 100.0, "charter": false, "lat": 36.185156, "lng": -115.21107, "ratio": 19.5}, {"name": "Bendorf  Patricia A ES", "district": "CLARK COUNTY SCHOOL DISTRICT", "city": "Las Vegas", "level": 1, "low_grade": -1, "high_grade": 5, "enrollment": 581, "teachers": 32, "lunch_pct": 100.0, "charter": false, "lat": 36.125304, "lng": -115.289343, "ratio": 18.2}, {"name": "Park  John S ES", "district": "CLARK COUNTY SCHOOL DISTRICT", "city": "Las Vegas", "level": 1, "low_grade": -1, "high_grade": 5, "enrollment": 572, "teachers": 37, "lunch_pct": 100.0, "charter": false, "lat": 36.15475, "lng": -115.141619, "ratio": 15.5}, {"name": "Booker  Kermit R Sr ES", "district": "CLARK COUNTY SCHOOL DISTRICT", "city": "Las Vegas", "level": 1, "low_grade": -1, "high_grade": 5, "enrollment": 354, "teachers": 29, "lunch_pct": 100.0, "charter": false, "lat": 36.200251, "lng": -115.162347, "ratio": 12.2}, {"name": "Toland  Helen Anderson Intl Academy", "district": "CLARK COUNTY SCHOOL DISTRICT", "city": "Las Vegas", "level": 1, "low_grade": -1, "high_grade": 5, "enrollment": 282, "teachers": 18, "lunch_pct": 100.0, "charter": false, "lat": 36.19302, "lng": -115.146586, "ratio": 15.7}, {"name": "Dearing  Laura ES", "district": "CLARK COUNTY SCHOOL DISTRICT", "city": "Las Vegas", "level": 1, "low_grade": -1, "high_grade": 5, "enrollment": 837, "teachers": 33, "lunch_pct": 100.0, "charter": false, "lat": 36.134586, "lng": -115.078867, "ratio": 25.4}, {"name": "Rowe  Lewis E ES", "district": "CLARK COUNTY SCHOOL DISTRICT", "city": "Las Vegas", "level": 1, "low_grade": -1, "high_grade": 5, "enrollment": 588, "teachers": 40, "lunch_pct": 100.0, "charter": false, "lat": 36.110369, "lng": -115.125082, "ratio": 14.7}, {"name": "Hoggard  Mabel ES", "district": "CLARK COUNTY SCHOOL DISTRICT", "city": "Las Vegas", "level": 1, "low_grade": -1, "high_grade": 5, "enrollment": 519, "teachers": 27, "lunch_pct": 100.0, "charter": false, "lat": 36.18229, "lng": -115.16936, "ratio": 19.2}, {"name": "Williams  Wendell ES", "district": "CLARK COUNTY SCHOOL DISTRICT", "city": "Las Vegas", "level": 1, "low_grade": -1, "high_grade": 5, "enrollment": 339, "teachers": 19, "lunch_pct": 100.0, "charter": false, "lat": 36.182363, "lng": -115.155325, "ratio": 17.8}, {"name": "Kelly  Matt ES", "district": "CLARK COUNTY SCHOOL DISTRICT", "city": "Las Vegas", "level": 1, "low_grade": -1, "high_grade": 5, "enrollment": 367, "teachers": 19, "lunch_pct": 100.0, "charter": false, "lat": 36.192842, "lng": -115.155575, "ratio": 19.3}, {"name": "Mountain View ES", "district": "CLARK COUNTY SCHOOL DISTRICT", "city": "Las Vegas", "level": 1, "low_grade": -1, "high_grade": 5, "enrollment": 515, "teachers": 21, "lunch_pct": 100.0, "charter": false, "lat": 36.193247, "lng": -115.054653, "ratio": 24.5}, {"name": "Tate  Myrtle ES", "district": "CLARK COUNTY SCHOOL DISTRICT", "city": "Las Vegas", "level": 1, "low_grade": -1, "high_grade": 5, "enrollment": 737, "teachers": 40, "lunch_pct": 100.0, "charter": false, "lat": 36.20394, "lng": -115.083375, "ratio": 18.4}, {"name": "Adcock  O K ES", "district": "CLARK COUNTY SCHOOL DISTRICT", "city": "Las Vegas", "level": 1, "low_grade": -1, "high_grade": 5, "enrollment": 441, "teachers": 29, "lunch_pct": 100.0, "charter": false, "lat": 36.172734, "lng": -115.234685, "ratio": 15.2}, {"name": "Paradise Prof Dev ES", "district": "CLARK COUNTY SCHOOL DISTRICT", "city": "Las Vegas", "level": 1, "low_grade": -1, "high_grade": 5, "enrollment": 476, "teachers": 32, "lunch_pct": 100.0, "charter": false, "lat": 36.111786, "lng": -115.145072, "ratio": 14.9}, {"name": "Diskin  P A ES", "district": "CLARK COUNTY SCHOOL DISTRICT", "city": "Las Vegas", "level": 1, "low_grade": -1, "high_grade": 5, "enrollment": 566, "teachers": 34, "lunch_pct": 99.8, "charter": false, "lat": 36.112242, "lng": -115.247873, "ratio": 16.6}, {"name": "Culley  Paul E ES", "district": "CLARK COUNTY SCHOOL DISTRICT", "city": "Las Vegas", "level": 1, "low_grade": -1, "high_grade": 5, "enrollment": 607, "teachers": 33, "lunch_pct": 100.0, "charter": false, "lat": 36.183679, "lng": -115.221643, "ratio": 18.4}, {"name": "Red Rock ES", "district": "CLARK COUNTY SCHOOL DISTRICT", "city": "Las Vegas", "level": 1, "low_grade": -1, "high_grade": 5, "enrollment": 527, "teachers": 35, "lunch_pct": 100.0, "charter": false, "lat": 36.167275, "lng": -115.2169, "ratio": 15.1}, {"name": "Bell  Rex ES", "district": "CLARK COUNTY SCHOOL DISTRICT", "city": "Las Vegas", "level": 1, "low_grade": -1, "high_grade": 5, "enrollment": 591, "teachers": 42, "lunch_pct": 100.0, "charter": false, "lat": 36.140524, "lng": -115.18145, "ratio": 14.1}, {"name": "Lake  Robert E ES", "district": "CLARK COUNTY SCHOOL DISTRICT", "city": "Las Vegas", "level": 1, "low_grade": -1, "high_grade": 5, "enrollment": 642, "teachers": 34, "lunch_pct": 99.8, "charter": false, "lat": 36.138928, "lng": -115.128728, "ratio": 18.9}, {"name": "Warren  Rose ES", "district": "CLARK COUNTY SCHOOL DISTRICT", "city": "Las Vegas", "level": 1, "low_grade": -1, "high_grade": 5, "enrollment": 561, "teachers": 31, "lunch_pct": 100.0, "charter": false, "lat": 36.164332, "lng": -115.234067, "ratio": 18.1}, {"name": "Thomas  Ruby S ES", "district": "CLARK COUNTY SCHOOL DISTRICT", "city": "Las Vegas", "level": 1, "low_grade": -1, "high_grade": 5, "enrollment": 644, "teachers": 41, "lunch_pct": 100.0, "charter": false, "lat": 36.125371, "lng": -115.130809, "ratio": 15.7}, {"name": "Sunrise Acres ES", "district": "CLARK COUNTY SCHOOL DISTRICT", "city": "Las Vegas", "level": 1, "low_grade": -1, "high_grade": 5, "enrollment": 553, "teachers": 27, "lunch_pct": 100.0, "charter": false, "lat": 36.164552, "lng": -115.112708, "ratio": 20.5}, {"name": "Twin Lakes ES", "district": "CLARK COUNTY SCHOOL DISTRICT", "city": "Las Vegas", "level": 1, "low_grade": -1, "high_grade": 5, "enrollment": 549, "teachers": 28, "lunch_pct": 100.0, "charter": false, "lat": 36.184107, "lng": -115.185941, "ratio": 19.6}, {"name": "Pittman  Vail ES", "district": "CLARK COUNTY SCHOOL DISTRICT", "city": "Las Vegas", "level": 1, "low_grade": -1, "high_grade": 5, "enrollment": 533, "teachers": 31, "lunch_pct": 99.8, "charter": false, "lat": 36.179198, "lng": -115.231002, "ratio": 17.2}, {"name": "Vegas Verdes ES", "district": "CLARK COUNTY SCHOOL DISTRICT", "city": "Las Vegas", "level": 1, "low_grade": -1, "high_grade": 5, "enrollment": 727, "teachers": 43, "lunch_pct": 100.0, "charter": false, "lat": 36.150267, "lng": -115.195493, "ratio": 16.9}, {"name": "Bracken  Walter ES", "district": "CLARK COUNTY SCHOOL DISTRICT", "city": "Las Vegas", "level": 1, "low_grade": -1, "high_grade": 5, "enrollment": 552, "teachers": 18, "lunch_pct": 100.0, "charter": false, "lat": 36.184121, "lng": -115.112255, "ratio": 30.7}, {"name": "Long  Walter V ES", "district": "CLARK COUNTY SCHOOL DISTRICT", "city": "Las Vegas", "level": 1, "low_grade": -1, "high_grade": 5, "enrollment": 799, "teachers": 45, "lunch_pct": 100.0, "charter": false, "lat": 36.150548, "lng": -115.088606, "ratio": 17.8}, {"name": "Whitney ES", "district": "CLARK COUNTY SCHOOL DISTRICT", "city": "Las Vegas", "level": 1, "low_grade": -1, "high_grade": 5, "enrollment": 396, "teachers": 31, "lunch_pct": 100.0, "charter": false, "lat": 36.099822, "lng": -115.044836, "ratio": 12.8}, {"name": "Beckley  Will ES", "district": "CLARK COUNTY SCHOOL DISTRICT", "city": "Las Vegas", "level": 1, "low_grade": -1, "high_grade": 5, "enrollment": 784, "teachers": 38, "lunch_pct": 100.0, "charter": false, "lat": 36.131106, "lng": -115.100157, "ratio": 20.6}, {"name": "Ferron  William E ES", "district": "CLARK COUNTY SCHOOL DISTRICT", "city": "Las Vegas", "level": 1, "low_grade": -1, "high_grade": 5, "enrollment": 588, "teachers": 35, "lunch_pct": 100.0, "charter": false, "lat": 36.112804, "lng": -115.071551, "ratio": 16.8}, {"name": "McMillan  James B ES", "district": "CLARK COUNTY SCHOOL DISTRICT", "city": "Las Vegas", "level": 1, "low_grade": -1, "high_grade": 5, "enrollment": 526, "teachers": 34, "lunch_pct": 100.0, "charter": false, "lat": 36.193528, "lng": -115.248151, "ratio": 15.5}, {"name": "Eisenberg  Dorothy ES", "district": "CLARK COUNTY SCHOOL DISTRICT", "city": "Las Vegas", "level": 1, "low_grade": -1, "high_grade": 5, "enrollment": 505, "teachers": 33, "lunch_pct": 100.0, "charter": false, "lat": 36.224721, "lng": -115.264225, "ratio": 15.3}, {"name": "Kahre  Marc ES", "district": "CLARK COUNTY SCHOOL DISTRICT", "city": "Las Vegas", "level": 1, "low_grade": -1, "high_grade": 5, "enrollment": 385, "teachers": 27, "lunch_pct": 100.0, "charter": false, "lat": 36.225044, "lng": -115.266473, "ratio": 14.3}, {"name": "Katz  Edythe & Lloyd ES", "district": "CLARK COUNTY SCHOOL DISTRICT", "city": "Las Vegas", "level": 1, "low_grade": -1, "high_grade": 5, "enrollment": 572, "teachers": 27, "lunch_pct": 100.0, "charter": false, "lat": 36.191366, "lng": -115.247946, "ratio": 21.2}, {"name": "Lummis  William ES", "district": "CLARK COUNTY SCHOOL DISTRICT", "city": "Las Vegas", "level": 1, "low_grade": -1, "high_grade": 5, "enrollment": 450, "teachers": 27, "lunch_pct": 100.0, "charter": false, "lat": 36.19962, "lng": -115.29044, "ratio": 16.7}, {"name": "Wiener  Jr   Louis ES", "district": "CLARK COUNTY SCHOOL DISTRICT", "city": "Las Vegas", "level": 1, "low_grade": -1, "high_grade": 5, "enrollment": 472, "teachers": 28, "lunch_pct": 100.0, "charter": false, "lat": 36.053973, "lng": -115.153166, "ratio": 16.9}, {"name": "Lowman  Mary & Zel ES", "district": "CLARK COUNTY SCHOOL DISTRICT", "city": "Las Vegas", "level": 1, "low_grade": -1, "high_grade": 5, "enrollment": 696, "teachers": 34, "lunch_pct": 100.0, "charter": false, "lat": 36.237504, "lng": -115.067592, "ratio": 20.5}, {"name": "Piggott Academy ES", "district": "CLARK COUNTY SCHOOL DISTRICT", "city": "Las Vegas", "level": 1, "low_grade": -1, "high_grade": 5, "enrollment": 715, "teachers": 39, "lunch_pct": 100.0, "charter": false, "lat": 36.153337, "lng": -115.304825, "ratio": 18.3}, {"name": "Gragson  Oran K ES", "district": "CLARK COUNTY SCHOOL DISTRICT", "city": "Las Vegas", "level": 1, "low_grade": -1, "high_grade": 5, "enrollment": 567, "teachers": 34, "lunch_pct": 100.0, "charter": false, "lat": 36.171652, "lng": -115.09197, "ratio": 16.7}, {"name": "Gray  R Guild ES", "district": "CLARK COUNTY SCHOOL DISTRICT", "city": "Las Vegas", "level": 1, "low_grade": -1, "high_grade": 5, "enrollment": 394, "teachers": 24, "lunch_pct": 100.0, "charter": false, "lat": 36.137997, "lng": -115.235042, "ratio": 16.4}, {"name": "Tobler  R E ES", "district": "CLARK COUNTY SCHOOL DISTRICT", "city": "Las Vegas", "level": 1, "low_grade": -1, "high_grade": 5, "enrollment": 504, "teachers": 30, "lunch_pct": 100.0, "charter": false, "lat": 36.222193, "lng": -115.234803, "ratio": 16.8}, {"name": "Cox  Clyde C ES", "district": "CLARK COUNTY SCHOOL DISTRICT", "city": "Las Vegas", "level": 1, "low_grade": -1, "high_grade": 5, "enrollment": 668, "teachers": 35, "lunch_pct": 100.0, "charter": false, "lat": 36.230054, "lng": -115.094822, "ratio": 19.1}, {"name": "Stanford ES", "district": "CLARK COUNTY SCHOOL DISTRICT", "city": "Las Vegas", "level": 1, "low_grade": -1, "high_grade": 5, "enrollment": 494, "teachers": 28, "lunch_pct": 100.0, "charter": false, "lat": 36.17853, "lng": -115.056863, "ratio": 17.6}, {"name": "Reed  Doris M ES", "district": "CLARK COUNTY SCHOOL DISTRICT", "city": "Las Vegas", "level": 1, "low_grade": -1, "high_grade": 5, "enrollment": 655, "teachers": 38, "lunch_pct": 100.0, "charter": false, "lat": 36.205344, "lng": -115.218687, "ratio": 17.2}, {"name": "Earl  Marion B ES", "district": "CLARK COUNTY SCHOOL DISTRICT", "city": "Las Vegas", "level": 1, "low_grade": -1, "high_grade": 5, "enrollment": 505, "teachers": 32, "lunch_pct": 100.0, "charter": false, "lat": 36.096774, "lng": -115.237785, "ratio": 15.8}, {"name": "King Jr   Martin Luther ES", "district": "CLARK COUNTY SCHOOL DISTRICT", "city": "Las Vegas", "level": 1, "low_grade": -1, "high_grade": 5, "enrollment": 355, "teachers": 24, "lunch_pct": 100.0, "charter": false, "lat": 36.201168, "lng": -115.056944, "ratio": 14.8}, {"name": "Deskin  Ruthe ES", "district": "CLARK COUNTY SCHOOL DISTRICT", "city": "Las Vegas", "level": 1, "low_grade": -1, "high_grade": 5, "enrollment": 475, "teachers": 26, "lunch_pct": 100.0, "charter": false, "lat": 36.243562, "lng": -115.25513, "ratio": 18.3}, {"name": "Kim  Frank ES", "district": "CLARK COUNTY SCHOOL DISTRICT", "city": "Las Vegas", "level": 1, "low_grade": -1, "high_grade": 5, "enrollment": 412, "teachers": 29, "lunch_pct": 100.0, "charter": false, "lat": 36.105926, "lng": -115.255501, "ratio": 14.2}, {"name": "Beatty  John R ES", "district": "CLARK COUNTY SCHOOL DISTRICT", "city": "Las Vegas", "level": 1, "low_grade": -1, "high_grade": 5, "enrollment": 493, "teachers": 31, "lunch_pct": 100.0, "charter": false, "lat": 36.031724, "lng": -115.151741, "ratio": 15.9}, {"name": "Christensen  M J ES", "district": "CLARK COUNTY SCHOOL DISTRICT", "city": "Las Vegas", "level": 1, "low_grade": -1, "high_grade": 5, "enrollment": 541, "teachers": 34, "lunch_pct": 100.0, "charter": false, "lat": 36.136978, "lng": -115.293948, "ratio": 15.9}, {"name": "Parson  Claude & Stella ES", "district": "CLARK COUNTY SCHOOL DISTRICT", "city": "Las Vegas", "level": 1, "low_grade": -1, "high_grade": 5, "enrollment": 309, "teachers": 16, "lunch_pct": 100.0, "charter": false, "lat": 36.234135, "lng": -115.211279, "ratio": 19.3}, {"name": "Mendoza  John F ES", "district": "CLARK COUNTY SCHOOL DISTRICT", "city": "Las Vegas", "level": 1, "low_grade": -1, "high_grade": 5, "enrollment": 666, "teachers": 36, "lunch_pct": 100.0, "charter": false, "lat": 36.149674, "lng": -115.046293, "ratio": 18.5}, {"name": "Lynch  Ann ES", "district": "CLARK COUNTY SCHOOL DISTRICT", "city": "Las Vegas", "level": 1, "low_grade": -1, "high_grade": 5, "enrollment": 485, "teachers": 28, "lunch_pct": 100.0, "charter": false, "lat": 36.193257, "lng": -115.06765, "ratio": 17.3}, {"name": "Woolley  Gwendolyn ES", "district": "CLARK COUNTY SCHOOL DISTRICT", "city": "Las Vegas", "level": 1, "low_grade": -1, "high_grade": 5, "enrollment": 683, "teachers": 36, "lunch_pct": 100.0, "charter": false, "lat": 36.231704, "lng": -115.09505, "ratio": 19.0}, {"name": "Lunt  Robert ES", "district": "CLARK COUNTY SCHOOL DISTRICT", "city": "Las Vegas", "level": 1, "low_grade": -1, "high_grade": 5, "enrollment": 470, "teachers": 29, "lunch_pct": 100.0, "charter": false, "lat": 36.178184, "lng": -115.113166, "ratio": 16.2}, {"name": "Fong  Wing and Lilly ES", "district": "CLARK COUNTY SCHOOL DISTRICT", "city": "Las Vegas", "level": 1, "low_grade": -1, "high_grade": 5, "enrollment": 654, "teachers": 38, "lunch_pct": 100.0, "charter": false, "lat": 36.200881, "lng": -115.23678, "ratio": 17.2}, {"name": "Wynn  Elaine ES", "district": "CLARK COUNTY SCHOOL DISTRICT", "city": "Las Vegas", "level": 1, "low_grade": -1, "high_grade": 5, "enrollment": 743, "teachers": 41, "lunch_pct": 100.0, "charter": false, "lat": 36.13621, "lng": -115.218646, "ratio": 18.1}, {"name": "Hill  Charlotte ES", "district": "CLARK COUNTY SCHOOL DISTRICT", "city": "Las Vegas", "level": 1, "low_grade": -1, "high_grade": 5, "enrollment": 499, "teachers": 28, "lunch_pct": 100.0, "charter": false, "lat": 36.054081, "lng": -115.151274, "ratio": 17.8}, {"name": "Jacobson  Walter ES", "district": "CLARK COUNTY SCHOOL DISTRICT", "city": "Las Vegas", "level": 1, "low_grade": -1, "high_grade": 5, "enrollment": 505, "teachers": 30, "lunch_pct": 100.0, "charter": false, "lat": 36.163504, "lng": -115.274706, "ratio": 16.8}, {"name": "Derfelt  Herbert A ES", "district": "CLARK COUNTY SCHOOL DISTRICT", "city": "Las Vegas", "level": 1, "low_grade": -1, "high_grade": 5, "enrollment": 578, "teachers": 41, "lunch_pct": 100.0, "charter": false, "lat": 36.150414, "lng": -115.276518, "ratio": 14.1}, {"name": "Cunningham  Cynthia ES", "district": "CLARK COUNTY SCHOOL DISTRICT", "city": "Las Vegas", "level": 1, "low_grade": -1, "high_grade": 5, "enrollment": 692, "teachers": 36, "lunch_pct": 100.0, "charter": false, "lat": 36.113721, "lng": -115.052282, "ratio": 19.2}, {"name": "Adams  Kirk ES", "district": "CLARK COUNTY SCHOOL DISTRICT", "city": "Las Vegas", "level": 1, "low_grade": -1, "high_grade": 5, "enrollment": 403, "teachers": 22, "lunch_pct": 100.0, "charter": false, "lat": 36.170001, "lng": -115.033567, "ratio": 18.3}, {"name": "Dailey  Jack ES", "district": "CLARK COUNTY SCHOOL DISTRICT", "city": "Las Vegas", "level": 1, "low_grade": -1, "high_grade": 5, "enrollment": 543, "teachers": 30, "lunch_pct": 100.0, "charter": false, "lat": 36.096277, "lng": -115.124644, "ratio": 18.1}, {"name": "Herr  Helen ES", "district": "CLARK COUNTY SCHOOL DISTRICT", "city": "Las Vegas", "level": 1, "low_grade": -1, "high_grade": 5, "enrollment": 615, "teachers": 33, "lunch_pct": 100.0, "charter": false, "lat": 36.201092, "lng": -115.031462, "ratio": 18.6}, {"name": "Jydstrup  Helen ES", "district": "CLARK COUNTY SCHOOL DISTRICT", "city": "Las Vegas", "level": 1, "low_grade": -1, "high_grade": 5, "enrollment": 608, "teachers": 28, "lunch_pct": 100.0, "charter": false, "lat": 36.095607, "lng": -115.219937, "ratio": 21.7}, {"name": "May  Ernest ES", "district": "CLARK COUNTY SCHOOL DISTRICT", "city": "Las Vegas", "level": 1, "low_grade": -1, "high_grade": 5, "enrollment": 584, "teachers": 32, "lunch_pct": 100.0, "charter": false, "lat": 36.255115, "lng": -115.232741, "ratio": 18.2}, {"name": "Rundle  Richard ES", "district": "CLARK COUNTY SCHOOL DISTRICT", "city": "Las Vegas", "level": 1, "low_grade": -1, "high_grade": 5, "enrollment": 672, "teachers": 38, "lunch_pct": 100.0, "charter": false, "lat": 36.167842, "lng": -115.053916, "ratio": 17.7}, {"name": "Bryan  Richard H ES", "district": "CLARK COUNTY SCHOOL DISTRICT", "city": "Las Vegas", "level": 1, "low_grade": -1, "high_grade": 5, "enrollment": 439, "teachers": 31, "lunch_pct": 100.0, "charter": false, "lat": 36.194294, "lng": -115.268437, "ratio": 14.2}, {"name": "Allen  Dean LaMar ES", "district": "CLARK COUNTY SCHOOL DISTRICT", "city": "Las Vegas", "level": 1, "low_grade": -1, "high_grade": 5, "enrollment": 467, "teachers": 23, "lunch_pct": 99.8, "charter": false, "lat": 36.260101, "lng": -115.283279, "ratio": 20.3}, {"name": "Goldfarb  Daniel ES", "district": "CLARK COUNTY SCHOOL DISTRICT", "city": "Las Vegas", "level": 1, "low_grade": -1, "high_grade": 5, "enrollment": 623, "teachers": 36, "lunch_pct": 100.0, "charter": false, "lat": 36.154725, "lng": -115.037007, "ratio": 17.3}, {"name": "Cambeiro  Arturo ES", "district": "CLARK COUNTY SCHOOL DISTRICT", "city": "Las Vegas", "level": 1, "low_grade": -1, "high_grade": 5, "enrollment": 524, "teachers": 33, "lunch_pct": 100.0, "charter": false, "lat": 36.178406, "lng": -115.110991, "ratio": 15.9}, {"name": "Bryan  Roger M ES", "district": "CLARK COUNTY SCHOOL DISTRICT", "city": "Las Vegas", "level": 1, "low_grade": -1, "high_grade": 5, "enrollment": 564, "teachers": 37, "lunch_pct": 100.0, "charter": false, "lat": 36.11939, "lng": -115.270993, "ratio": 15.2}, {"name": "Bonner  John W ES", "district": "CLARK COUNTY SCHOOL DISTRICT", "city": "Las Vegas", "level": 1, "low_grade": -1, "high_grade": 5, "enrollment": 817, "teachers": 44, "lunch_pct": 100.0, "charter": false, "lat": 36.180613, "lng": -115.324907, "ratio": 18.6}, {"name": "Cartwright  Roberta C ES", "district": "CLARK COUNTY SCHOOL DISTRICT", "city": "Las Vegas", "level": 1, "low_grade": -1, "high_grade": 5, "enrollment": 525, "teachers": 33, "lunch_pct": 100.0, "charter": false, "lat": 36.015993, "lng": -115.140312, "ratio": 15.9}, {"name": "Rhodes  Betsy ES", "district": "CLARK COUNTY SCHOOL DISTRICT", "city": "Las Vegas", "level": 1, "low_grade": -1, "high_grade": 5, "enrollment": 571, "teachers": 32, "lunch_pct": 100.0, "charter": false, "lat": 36.294313, "lng": -115.261928, "ratio": 17.8}, {"name": "Bunker  Berkeley L ES", "district": "CLARK COUNTY SCHOOL DISTRICT", "city": "Las Vegas", "level": 1, "low_grade": -1, "high_grade": 5, "enrollment": 662, "teachers": 47, "lunch_pct": 100.0, "charter": false, "lat": 36.211221, "lng": -115.232114, "ratio": 14.1}, {"name": "Cortez  Manuel J ES", "district": "CLARK COUNTY SCHOOL DISTRICT", "city": "Las Vegas", "level": 1, "low_grade": -1, "high_grade": 5, "enrollment": 699, "teachers": 36, "lunch_pct": 100.0, "charter": false, "lat": 36.191188, "lng": -115.081642, "ratio": 19.4}, {"name": "Garehime  Edith ES", "district": "CLARK COUNTY SCHOOL DISTRICT", "city": "Las Vegas", "level": 1, "low_grade": -1, "high_grade": 5, "enrollment": 623, "teachers": 35, "lunch_pct": 99.8, "charter": false, "lat": 36.231252, "lng": -115.29198, "ratio": 17.8}, {"name": "Hayes  Keith C & Karen W ES", "district": "CLARK COUNTY SCHOOL DISTRICT", "city": "Las Vegas", "level": 1, "low_grade": -1, "high_grade": 5, "enrollment": 531, "teachers": 36, "lunch_pct": 100.0, "charter": false, "lat": 36.123297, "lng": -115.303141, "ratio": 14.8}, {"name": "Neal  Joseph M ES", "district": "CLARK COUNTY SCHOOL DISTRICT", "city": "Las Vegas", "level": 1, "low_grade": -1, "high_grade": 5, "enrollment": 555, "teachers": 33, "lunch_pct": 100.0, "charter": false, "lat": 36.271817, "lng": -115.239434, "ratio": 16.8}, {"name": "Odyssey Charter Schools K-5 ES", "district": "CLARK COUNTY SCHOOL DISTRICT", "city": "Las Vegas", "level": 1, "low_grade": -1, "high_grade": 5, "enrollment": 366, "teachers": 14, "lunch_pct": 0.8, "charter": true, "lat": 36.146949, "lng": -115.226415, "ratio": 26.1}, {"name": "Detwiler  Ollie ES", "district": "CLARK COUNTY SCHOOL DISTRICT", "city": "Las Vegas", "level": 1, "low_grade": -1, "high_grade": 5, "enrollment": 528, "teachers": 32, "lunch_pct": 100.0, "charter": false, "lat": 36.194938, "lng": -115.182245, "ratio": 16.5}, {"name": "Bass  John C ES", "district": "CLARK COUNTY SCHOOL DISTRICT", "city": "Las Vegas", "level": 1, "low_grade": -1, "high_grade": 5, "enrollment": 582, "teachers": 36, "lunch_pct": 100.0, "charter": false, "lat": 36.001469, "lng": -115.167014, "ratio": 16.2}, {"name": "Moore  William K ES", "district": "CLARK COUNTY SCHOOL DISTRICT", "city": "Las Vegas", "level": 1, "low_grade": -1, "high_grade": 5, "enrollment": 560, "teachers": 31, "lunch_pct": 100.0, "charter": false, "lat": 36.168917, "lng": -115.083009, "ratio": 18.1}, {"name": "Ober  D'Vorre & Hal ES", "district": "CLARK COUNTY SCHOOL DISTRICT", "city": "Las Vegas", "level": 1, "low_grade": -1, "high_grade": 5, "enrollment": 625, "teachers": 35, "lunch_pct": 100.0, "charter": false, "lat": 36.13625, "lng": -115.321215, "ratio": 17.9}, {"name": "Smith  Hal ES", "district": "CLARK COUNTY SCHOOL DISTRICT", "city": "Las Vegas", "level": 1, "low_grade": -1, "high_grade": 5, "enrollment": 708, "teachers": 37, "lunch_pct": 100.0, "charter": false, "lat": 36.130507, "lng": -115.062102, "ratio": 19.1}, {"name": "Tarr  Sheila Academy of Int'l Studies ES", "district": "CLARK COUNTY SCHOOL DISTRICT", "city": "Las Vegas", "level": 1, "low_grade": -1, "high_grade": 5, "enrollment": 784, "teachers": 42, "lunch_pct": 100.0, "charter": false, "lat": 36.230537, "lng": -115.301284, "ratio": 18.7}, {"name": "Staton  Ethel W ES", "district": "CLARK COUNTY SCHOOL DISTRICT", "city": "Las Vegas", "level": 1, "low_grade": -1, "high_grade": 5, "enrollment": 672, "teachers": 36, "lunch_pct": 100.0, "charter": false, "lat": 36.19023, "lng": -115.335187, "ratio": 18.7}, {"name": "Carl  Kay ES", "district": "CLARK COUNTY SCHOOL DISTRICT", "city": "Las Vegas", "level": 1, "low_grade": -1, "high_grade": 5, "enrollment": 715, "teachers": 45, "lunch_pct": 99.9, "charter": false, "lat": 36.265704, "lng": -115.21997, "ratio": 15.9}, {"name": "Darnell  Marshall C ES", "district": "CLARK COUNTY SCHOOL DISTRICT", "city": "Las Vegas", "level": 1, "low_grade": -1, "high_grade": 5, "enrollment": 559, "teachers": 29, "lunch_pct": 100.0, "charter": false, "lat": 36.270828, "lng": -115.302976, "ratio": 19.3}, {"name": "Heckethorn  Howard E ES", "district": "CLARK COUNTY SCHOOL DISTRICT", "city": "Las Vegas", "level": 1, "low_grade": -1, "high_grade": 5, "enrollment": 726, "teachers": 42, "lunch_pct": 100.0, "charter": false, "lat": 36.302973, "lng": -115.213392, "ratio": 17.3}, {"name": "Rogers  Lucille S ES", "district": "CLARK COUNTY SCHOOL DISTRICT", "city": "Las Vegas", "level": 1, "low_grade": -1, "high_grade": 5, "enrollment": 718, "teachers": 37, "lunch_pct": 100.0, "charter": false, "lat": 36.088271, "lng": -115.285124, "ratio": 19.4}, {"name": "Snyder  William E ES", "district": "CLARK COUNTY SCHOOL DISTRICT", "city": "Las Vegas", "level": 1, "low_grade": -1, "high_grade": 5, "enrollment": 725, "teachers": 43, "lunch_pct": 100.0, "charter": false, "lat": 36.15443, "lng": -115.080883, "ratio": 16.9}, {"name": "Alamo  Tony ES", "district": "CLARK COUNTY SCHOOL DISTRICT", "city": "Las Vegas", "level": 1, "low_grade": -1, "high_grade": 5, "enrollment": 835, "teachers": 45, "lunch_pct": 100.0, "charter": false, "lat": 36.053285, "lng": -115.231737, "ratio": 18.6}, {"name": "Brookman  Eileen B ES", "district": "CLARK COUNTY SCHOOL DISTRICT", "city": "Las Vegas", "level": 1, "low_grade": -1, "high_grade": 5, "enrollment": 655, "teachers": 32, "lunch_pct": 100.0, "charter": false, "lat": 36.180405, "lng": -115.036209, "ratio": 20.5}, {"name": "Gehring  Roger D Acad of Science & Technology ES", "district": "CLARK COUNTY SCHOOL DISTRICT", "city": "Las Vegas", "level": 1, "low_grade": -1, "high_grade": 5, "enrollment": 665, "teachers": 38, "lunch_pct": 100.0, "charter": false, "lat": 36.015873, "lng": -115.137483, "ratio": 17.5}, {"name": "Iverson  Mervin ES", "district": "CLARK COUNTY SCHOOL DISTRICT", "city": "Las Vegas", "level": 1, "low_grade": -1, "high_grade": 5, "enrollment": 520, "teachers": 35, "lunch_pct": 100.0, "charter": false, "lat": 36.154886, "lng": -115.027177, "ratio": 14.9}, {"name": "Conners  Eileen ES", "district": "CLARK COUNTY SCHOOL DISTRICT", "city": "Las Vegas", "level": 1, "low_grade": -1, "high_grade": 5, "enrollment": 587, "teachers": 38, "lunch_pct": 100.0, "charter": false, "lat": 36.229911, "lng": -115.321185, "ratio": 15.4}, {"name": "Hummel  John R ES", "district": "CLARK COUNTY SCHOOL DISTRICT", "city": "Las Vegas", "level": 1, "low_grade": -1, "high_grade": 5, "enrollment": 622, "teachers": 37, "lunch_pct": 100.0, "charter": false, "lat": 36.011185, "lng": -115.158083, "ratio": 16.8}, {"name": "Goolsby  Judy & John L ES", "district": "CLARK COUNTY SCHOOL DISTRICT", "city": "Las Vegas", "level": 1, "low_grade": -1, "high_grade": 5, "enrollment": 743, "teachers": 39, "lunch_pct": 100.0, "charter": false, "lat": 36.12783, "lng": -115.337002, "ratio": 19.1}, {"name": "Bilbray  James ES", "district": "CLARK COUNTY SCHOOL DISTRICT", "city": "Las Vegas", "level": 1, "low_grade": -1, "high_grade": 5, "enrollment": 621, "teachers": 34, "lunch_pct": 100.0, "charter": false, "lat": 36.318637, "lng": -115.300372, "ratio": 18.3}, {"name": "Frias  Charles & Phyllis ES", "district": "CLARK COUNTY SCHOOL DISTRICT", "city": "Las Vegas", "level": 1, "low_grade": -1, "high_grade": 5, "enrollment": 671, "teachers": 34, "lunch_pct": 100.0, "charter": false, "lat": 35.989204, "lng": -115.221607, "ratio": 19.7}, {"name": "Hollingsworth  Howard ES", "district": "CLARK COUNTY SCHOOL DISTRICT", "city": "Las Vegas", "level": 1, "low_grade": -1, "high_grade": 5, "enrollment": 528, "teachers": 30, "lunch_pct": 100.0, "charter": false, "lat": 36.164041, "lng": -115.124439, "ratio": 17.6}, {"name": "Miller  Sandy Searles ES", "district": "CLARK COUNTY SCHOOL DISTRICT", "city": "Las Vegas", "level": 1, "low_grade": -1, "high_grade": 5, "enrollment": 668, "teachers": 37, "lunch_pct": 100.0, "charter": false, "lat": 36.194956, "lng": -115.067388, "ratio": 18.1}, {"name": "Petersen  Dean ES", "district": "CLARK COUNTY SCHOOL DISTRICT", "city": "Las Vegas", "level": 1, "low_grade": -1, "high_grade": 5, "enrollment": 779, "teachers": 42, "lunch_pct": 100.0, "charter": false, "lat": 36.123504, "lng": -115.140498, "ratio": 18.5}, {"name": "Explore Knowledge Academy ES", "district": "CLARK COUNTY SCHOOL DISTRICT", "city": "Las Vegas", "level": 1, "low_grade": -1, "high_grade": 5, "enrollment": 402, "teachers": 12, "lunch_pct": 0.7, "charter": true, "lat": 36.08226, "lng": -115.073761, "ratio": 33.5}, {"name": "Givens  Linda Rankin ES", "district": "CLARK COUNTY SCHOOL DISTRICT", "city": "Las Vegas", "level": 1, "low_grade": -1, "high_grade": 5, "enrollment": 663, "teachers": 37, "lunch_pct": 100.0, "charter": false, "lat": 36.167339, "lng": -115.344163, "ratio": 17.9}, {"name": "Miley Achievement Center ES", "district": "CLARK COUNTY SCHOOL DISTRICT", "city": "Las Vegas", "level": 1, "low_grade": -1, "high_grade": 5, "enrollment": 11, "teachers": null, "lunch_pct": 100.0, "charter": false, "lat": 36.164359, "lng": -115.099482, "ratio": 11.0}, {"name": "Variety ES", "district": "CLARK COUNTY SCHOOL DISTRICT", "city": "Las Vegas", "level": 1, "low_grade": -1, "high_grade": 5, "enrollment": 19, "teachers": 31, "lunch_pct": 100.0, "charter": false, "lat": 36.166115, "lng": -115.111007, "ratio": 0.6}, {"name": "Tanaka  Wayne N ES", "district": "CLARK COUNTY SCHOOL DISTRICT", "city": "Las Vegas", "level": 1, "low_grade": -1, "high_grade": 5, "enrollment": 738, "teachers": 47, "lunch_pct": 100.0, "charter": false, "lat": 36.061786, "lng": -115.291532, "ratio": 15.7}, {"name": "Scherkenbach  William & Mary ES", "district": "CLARK COUNTY SCHOOL DISTRICT", "city": "Las Vegas", "level": 1, "low_grade": -1, "high_grade": 5, "enrollment": 520, "teachers": 33, "lunch_pct": 100.0, "charter": false, "lat": 36.320401, "lng": -115.300319, "ratio": 15.8}, {"name": "Thiriot  Joseph E ES", "district": "CLARK COUNTY SCHOOL DISTRICT", "city": "Las Vegas", "level": 1, "low_grade": -1, "high_grade": 5, "enrollment": 714, "teachers": 41, "lunch_pct": 100.0, "charter": false, "lat": 36.108437, "lng": -115.219763, "ratio": 17.4}, {"name": "Batterman  Kathy L ES", "district": "CLARK COUNTY SCHOOL DISTRICT", "city": "Las Vegas", "level": 1, "low_grade": -1, "high_grade": 5, "enrollment": 664, "teachers": 37, "lunch_pct": 100.0, "charter": false, "lat": 36.082208, "lng": -115.313906, "ratio": 17.9}, {"name": "Ries  Aldeane Comito ES", "district": "CLARK COUNTY SCHOOL DISTRICT", "city": "Las Vegas", "level": 1, "low_grade": -1, "high_grade": 5, "enrollment": 755, "teachers": 43, "lunch_pct": 100.0, "charter": false, "lat": 36.011942, "lng": -115.218111, "ratio": 17.6}, {"name": "Hickey  Liliam Lujan ES", "district": "CLARK COUNTY SCHOOL DISTRICT", "city": "Las Vegas", "level": 1, "low_grade": -1, "high_grade": 5, "enrollment": 679, "teachers": 32, "lunch_pct": 100.0, "charter": false, "lat": 36.203701, "lng": -115.025506, "ratio": 21.2}, {"name": "Jeffers  Jay W ES", "district": "CLARK COUNTY SCHOOL DISTRICT", "city": "Las Vegas", "level": 1, "low_grade": -1, "high_grade": 5, "enrollment": 606, "teachers": 33, "lunch_pct": 100.0, "charter": false, "lat": 36.201885, "lng": -115.094982, "ratio": 18.4}, {"name": "Schorr  Steve ES", "district": "CLARK COUNTY SCHOOL DISTRICT", "city": "Las Vegas", "level": 1, "low_grade": -1, "high_grade": 5, "enrollment": 647, "teachers": 36, "lunch_pct": 100.0, "charter": false, "lat": 35.982796, "lng": -115.158052, "ratio": 18.0}, {"name": "Thompson  Sandra L ES", "district": "CLARK COUNTY SCHOOL DISTRICT", "city": "Las Vegas", "level": 1, "low_grade": -1, "high_grade": 5, "enrollment": 600, "teachers": 35, "lunch_pct": 100.0, "charter": false, "lat": 36.294915, "lng": -115.293574, "ratio": 17.1}, {"name": "Ward  Kitty McDonough ES", "district": "CLARK COUNTY SCHOOL DISTRICT", "city": "Las Vegas", "level": 1, "low_grade": -1, "high_grade": 5, "enrollment": 727, "teachers": 38, "lunch_pct": 100.0, "charter": false, "lat": 36.311939, "lng": -115.217659, "ratio": 19.1}, {"name": "Wright  William V ES", "district": "CLARK COUNTY SCHOOL DISTRICT", "city": "Las Vegas", "level": 1, "low_grade": -1, "high_grade": 5, "enrollment": 608, "teachers": 32, "lunch_pct": 100.0, "charter": false, "lat": 36.013962, "lng": -115.274998, "ratio": 19.0}, {"name": "Innovations Int'l Charter ES", "district": "CLARK COUNTY SCHOOL DISTRICT", "city": "Las Vegas", "level": 1, "low_grade": -1, "high_grade": 5, "enrollment": 407, "teachers": null, "lunch_pct": 100.0, "charter": true, "lat": 36.152348, "lng": -115.129635, "ratio": 407.0}, {"name": "Steele  Judith D ES", "district": "CLARK COUNTY SCHOOL DISTRICT", "city": "Las Vegas", "level": 1, "low_grade": -1, "high_grade": 5, "enrollment": 764, "teachers": 43, "lunch_pct": 100.0, "charter": false, "lat": 36.051485, "lng": -115.245716, "ratio": 17.8}, {"name": "Bailey  Sister Robert Joseph ES", "district": "CLARK COUNTY SCHOOL DISTRICT", "city": "Las Vegas", "level": 1, "low_grade": -1, "high_grade": 5, "enrollment": 586, "teachers": 37, "lunch_pct": 100.0, "charter": false, "lat": 36.107231, "lng": -115.051965, "ratio": 15.8}, {"name": "Forbuss  Robert L ES", "district": "CLARK COUNTY SCHOOL DISTRICT", "city": "Las Vegas", "level": 1, "low_grade": -1, "high_grade": 5, "enrollment": 604, "teachers": 35, "lunch_pct": 100.0, "charter": false, "lat": 36.031428, "lng": -115.308315, "ratio": 17.3}, {"name": "Rainbow Dreams Early Learning Academy", "district": "CLARK COUNTY SCHOOL DISTRICT", "city": "Las Vegas", "level": 1, "low_grade": -1, "high_grade": 0, "enrollment": 276, "teachers": 3, "lunch_pct": 100.0, "charter": true, "lat": 36.196273, "lng": -115.154471, "ratio": 92.0}, {"name": "Roundy  Dr C Owen ES", "district": "CLARK COUNTY SCHOOL DISTRICT", "city": "Las Vegas", "level": 1, "low_grade": -1, "high_grade": 5, "enrollment": 659, "teachers": 41, "lunch_pct": 100.0, "charter": false, "lat": 36.140141, "lng": -115.215805, "ratio": 16.1}, {"name": "West Prep ES", "district": "CLARK COUNTY SCHOOL DISTRICT", "city": "Las Vegas", "level": 1, "low_grade": -1, "high_grade": 5, "enrollment": 386, "teachers": 23, "lunch_pct": 100.0, "charter": false, "lat": 36.194116, "lng": -115.167043, "ratio": 16.8}, {"name": "Diaz  Ruben P ES", "district": "CLARK COUNTY SCHOOL DISTRICT", "city": "Las Vegas", "level": 1, "low_grade": -1, "high_grade": 5, "enrollment": 622, "teachers": 38, "lunch_pct": 100.0, "charter": false, "lat": 36.18946, "lng": -115.07678, "ratio": 16.4}, {"name": "Reedom  Carolyn S ES", "district": "CLARK COUNTY SCHOOL DISTRICT", "city": "Las Vegas", "level": 1, "low_grade": -1, "high_grade": 5, "enrollment": 536, "teachers": 31, "lunch_pct": 100.0, "charter": false, "lat": 36.006824, "lng": -115.26996, "ratio": 17.3}, {"name": "O Roarke  Thomas ES", "district": "CLARK COUNTY SCHOOL DISTRICT", "city": "Las Vegas", "level": 1, "low_grade": -1, "high_grade": 5, "enrollment": 758, "teachers": 41, "lunch_pct": 100.0, "charter": false, "lat": 36.32345, "lng": -115.27994, "ratio": 18.5}, {"name": "Fine  Mark L ES", "district": "CLARK COUNTY SCHOOL DISTRICT", "city": "Las Vegas", "level": 1, "low_grade": -1, "high_grade": 5, "enrollment": 761, "teachers": 43, "lunch_pct": 100.0, "charter": false, "lat": 36.031384, "lng": -115.236776, "ratio": 17.7}, {"name": "Bozarth  Henry & Evelyn ES", "district": "CLARK COUNTY SCHOOL DISTRICT", "city": "Las Vegas", "level": 1, "low_grade": -1, "high_grade": 5, "enrollment": 799, "teachers": 45, "lunch_pct": 99.9, "charter": false, "lat": 36.29629, "lng": -115.321016, "ratio": 17.8}, {"name": "Early Childhood ES", "district": "CLARK COUNTY SCHOOL DISTRICT", "city": "Las Vegas", "level": 1, "low_grade": -1, "high_grade": 0, "enrollment": 51, "teachers": 4, "lunch_pct": 100.0, "charter": false, "lat": 36.123391, "lng": -115.105975, "ratio": 12.8}, {"name": "Keller  Charlotte & Jerry ES", "district": "CLARK COUNTY SCHOOL DISTRICT", "city": "Las Vegas", "level": 1, "low_grade": -1, "high_grade": 5, "enrollment": 501, "teachers": 29, "lunch_pct": 100.0, "charter": false, "lat": 36.169533, "lng": -115.054646, "ratio": 17.3}, {"name": "NW Career-Technical Academy ES", "district": "CLARK COUNTY SCHOOL DISTRICT", "city": "Las Vegas", "level": 1, "low_grade": 0, "high_grade": 0, "enrollment": 20, "teachers": 1, "lunch_pct": 100.0, "charter": false, "lat": 36.27207, "lng": -115.273711, "ratio": 20.0}, {"name": "Stuckey  Evelyn ES", "district": "CLARK COUNTY SCHOOL DISTRICT", "city": "Las Vegas", "level": 1, "low_grade": -1, "high_grade": 5, "enrollment": 578, "teachers": 30, "lunch_pct": 100.0, "charter": false, "lat": 35.986963, "lng": -115.208218, "ratio": 19.3}, {"name": "Snyder  Don & Dee ES", "district": "CLARK COUNTY SCHOOL DISTRICT", "city": "Las Vegas", "level": 1, "low_grade": -1, "high_grade": 5, "enrollment": 713, "teachers": 36, "lunch_pct": 100.0, "charter": false, "lat": 36.028744, "lng": -115.286656, "ratio": 19.8}, {"name": "Berkley  Shelley ES", "district": "CLARK COUNTY SCHOOL DISTRICT", "city": "Las Vegas", "level": 1, "low_grade": -1, "high_grade": 5, "enrollment": 725, "teachers": 38, "lunch_pct": 100.0, "charter": false, "lat": 36.061539, "lng": -115.307841, "ratio": 19.1}, {"name": "Jones Blackhurst  Jan L ES", "district": "CLARK COUNTY SCHOOL DISTRICT", "city": "Las Vegas", "level": 1, "low_grade": -1, "high_grade": 5, "enrollment": 846, "teachers": 41, "lunch_pct": 100.0, "charter": false, "lat": 35.986923, "lng": -115.258439, "ratio": 20.6}, {"name": "Mathis  Dr. Beverly S ES", "district": "CLARK COUNTY SCHOOL DISTRICT", "city": "Las Vegas", "level": 1, "low_grade": -1, "high_grade": 5, "enrollment": 864, "teachers": 50, "lunch_pct": 100.0, "charter": false, "lat": 36.045495, "lng": -115.198325, "ratio": 17.3}, {"name": "Vassiliadis  Billy & Rosemary ES", "district": "CLARK COUNTY SCHOOL DISTRICT", "city": "Las Vegas", "level": 1, "low_grade": -1, "high_grade": 5, "enrollment": 1093, "teachers": 60, "lunch_pct": 100.0, "charter": false, "lat": 36.177048, "lng": -115.359653, "ratio": 18.2}, {"name": "Heard  Lomie G ES", "district": "CLARK COUNTY SCHOOL DISTRICT", "city": "Las Vegas", "level": 1, "low_grade": -1, "high_grade": 5, "enrollment": 703, "teachers": 36, "lunch_pct": 100.0, "charter": false, "lat": 36.191324, "lng": -115.077326, "ratio": 19.5}, {"name": "Ortwein  Dennis ES", "district": "CLARK COUNTY SCHOOL DISTRICT", "city": "Las Vegas", "level": 1, "low_grade": -1, "high_grade": 5, "enrollment": 769, "teachers": 43, "lunch_pct": 100.0, "charter": false, "lat": 35.990627, "lng": -115.182683, "ratio": 17.9}, {"name": "Barber  Shirley A ES", "district": "CLARK COUNTY SCHOOL DISTRICT", "city": "Las Vegas", "level": 1, "low_grade": -1, "high_grade": 5, "enrollment": 777, "teachers": 42, "lunch_pct": 100.0, "charter": false, "lat": 36.005397, "lng": -115.12484, "ratio": 18.5}, {"name": "Divich  Kenneth ES", "district": "CLARK COUNTY SCHOOL DISTRICT", "city": "Las Vegas", "level": 1, "low_grade": -1, "high_grade": 5, "enrollment": 1020, "teachers": 52, "lunch_pct": 100.0, "charter": false, "lat": 36.300483, "lng": -115.309901, "ratio": 19.6}, {"name": "Jenkins  Earl N ES", "district": "CLARK COUNTY SCHOOL DISTRICT", "city": "Las Vegas", "level": 1, "low_grade": -1, "high_grade": 5, "enrollment": 667, "teachers": 36, "lunch_pct": 100.0, "charter": false, "lat": 36.138403, "lng": -115.020939, "ratio": 18.5}, {"name": "Abston  Sandra B ES", "district": "CLARK COUNTY SCHOOL DISTRICT", "city": "Las Vegas", "level": 1, "low_grade": -1, "high_grade": 5, "enrollment": 727, "teachers": 43, "lunch_pct": 100.0, "charter": false, "lat": 36.104891, "lng": -115.309627, "ratio": 16.9}, {"name": "Thompson  Tyrone ES", "district": "CLARK COUNTY SCHOOL DISTRICT", "city": "Las Vegas", "level": 1, "low_grade": -1, "high_grade": 5, "enrollment": 712, "teachers": 39, "lunch_pct": 100.0, "charter": false, "lat": 36.002712, "lng": -115.287674, "ratio": 18.3}, {"name": "NV Learning Academy ES", "district": "CLARK COUNTY SCHOOL DISTRICT", "city": "Las Vegas", "level": 1, "low_grade": -1, "high_grade": 5, "enrollment": 1728, "teachers": 134, "lunch_pct": 0.2, "charter": false, "lat": 36.115832, "lng": -115.109201, "ratio": 12.9}], "middle": [{"name": "Democracy Prep at Agassi Middle", "district": "STATE-SPONSORED CHARTER SCHOOLS", "city": "Las Vegas", "level": 2, "low_grade": 6, "high_grade": 8, "enrollment": 375, "teachers": 6, "lunch_pct": 100.0, "charter": true, "lat": 36.195055, "lng": -115.15699, "ratio": 62.5}, {"name": "Nevada Prep Charter School", "district": "STATE-SPONSORED CHARTER SCHOOLS", "city": "Las Vegas", "level": 2, "low_grade": 3, "high_grade": 8, "enrollment": 283, "teachers": null, "lunch_pct": 100.0, "charter": true, "lat": 36.192023, "lng": -115.056877, "ratio": 283.0}, {"name": "Girls Empowerment Middle School", "district": "STATE-SPONSORED CHARTER SCHOOLS", "city": "LAS VEGAS", "level": 2, "low_grade": 6, "high_grade": 8, "enrollment": 92, "teachers": 2, "lunch_pct": 100.0, "charter": true, "lat": 36.112279, "lng": -115.136539, "ratio": 46.0}, {"name": "Young Women's Leadership Academy of Las Vegas", "district": "STATE-SPONSORED CHARTER SCHOOLS", "city": "Las Vegas", "level": 2, "low_grade": 6, "high_grade": 9, "enrollment": 62, "teachers": 3, "lunch_pct": 71.0, "charter": true, "lat": 36.127095, "lng": -115.105817, "ratio": 20.7}, {"name": "Woodbury  C W MS", "district": "CLARK COUNTY SCHOOL DISTRICT", "city": "Las Vegas", "level": 2, "low_grade": 6, "high_grade": 8, "enrollment": 784, "teachers": 28, "lunch_pct": 100.0, "charter": false, "lat": 36.106829, "lng": -115.090433, "ratio": 28.0}, {"name": "Robison  Dell H MS", "district": "CLARK COUNTY SCHOOL DISTRICT", "city": "Las Vegas", "level": 2, "low_grade": 6, "high_grade": 8, "enrollment": 760, "teachers": 29, "lunch_pct": 99.9, "charter": false, "lat": 36.178542, "lng": -115.070186, "ratio": 26.2}, {"name": "Von Tobel  Ed MS", "district": "CLARK COUNTY SCHOOL DISTRICT", "city": "Las Vegas", "level": 2, "low_grade": 6, "high_grade": 8, "enrollment": 968, "teachers": 49, "lunch_pct": 100.0, "charter": false, "lat": 36.20418, "lng": -115.097412, "ratio": 19.8}, {"name": "Garside  Frank F JHS", "district": "CLARK COUNTY SCHOOL DISTRICT", "city": "Las Vegas", "level": 2, "low_grade": 6, "high_grade": 8, "enrollment": 1079, "teachers": 40, "lunch_pct": 100.0, "charter": false, "lat": 36.169084, "lng": -115.23415, "ratio": 27.0}, {"name": "Cannon  Helen C JHS", "district": "CLARK COUNTY SCHOOL DISTRICT", "city": "Las Vegas", "level": 2, "low_grade": 6, "high_grade": 8, "enrollment": 746, "teachers": 37, "lunch_pct": 100.0, "charter": false, "lat": 36.083449, "lng": -115.11559, "ratio": 20.2}, {"name": "Hyde Park MS", "district": "CLARK COUNTY SCHOOL DISTRICT", "city": "Las Vegas", "level": 2, "low_grade": 6, "high_grade": 8, "enrollment": 1387, "teachers": 60, "lunch_pct": 100.0, "charter": false, "lat": 36.161493, "lng": -115.194167, "ratio": 23.1}, {"name": "Brinley  J Harold MS", "district": "CLARK COUNTY SCHOOL DISTRICT", "city": "Las Vegas", "level": 2, "low_grade": 6, "high_grade": 8, "enrollment": 929, "teachers": 40, "lunch_pct": 100.0, "charter": false, "lat": 36.20487, "lng": -115.227696, "ratio": 23.2}, {"name": "Cashman  James MS", "district": "CLARK COUNTY SCHOOL DISTRICT", "city": "Las Vegas", "level": 2, "low_grade": 6, "high_grade": 8, "enrollment": 1189, "teachers": 38, "lunch_pct": 99.9, "charter": false, "lat": 36.130927, "lng": -115.204562, "ratio": 31.3}, {"name": "Fremont  John C Professional Dev MS", "district": "CLARK COUNTY SCHOOL DISTRICT", "city": "Las Vegas", "level": 2, "low_grade": 6, "high_grade": 8, "enrollment": 660, "teachers": 30, "lunch_pct": 100.0, "charter": false, "lat": 36.147266, "lng": -115.139357, "ratio": 22.0}, {"name": "Knudson  K O Academy of the Arts", "district": "CLARK COUNTY SCHOOL DISTRICT", "city": "Las Vegas", "level": 2, "low_grade": 6, "high_grade": 8, "enrollment": 1215, "teachers": 60, "lunch_pct": 99.9, "charter": false, "lat": 36.145307, "lng": -115.11539, "ratio": 20.2}, {"name": "Gibson  Robert O MS Leadership Academy", "district": "CLARK COUNTY SCHOOL DISTRICT", "city": "Las Vegas", "level": 2, "low_grade": 6, "high_grade": 8, "enrollment": 1195, "teachers": 52, "lunch_pct": 99.9, "charter": false, "lat": 36.182006, "lng": -115.197462, "ratio": 23.0}, {"name": "Martin  Roy W MS", "district": "CLARK COUNTY SCHOOL DISTRICT", "city": "Las Vegas", "level": 2, "low_grade": 6, "high_grade": 8, "enrollment": 1271, "teachers": 50, "lunch_pct": 100.0, "charter": false, "lat": 36.164039, "lng": -115.110646, "ratio": 25.4}, {"name": "Orr  William E MS", "district": "CLARK COUNTY SCHOOL DISTRICT", "city": "Las Vegas", "level": 2, "low_grade": 6, "high_grade": 8, "enrollment": 815, "teachers": 36, "lunch_pct": 100.0, "charter": false, "lat": 36.121296, "lng": -115.131653, "ratio": 22.6}, {"name": "Becker  Ernest MS", "district": "CLARK COUNTY SCHOOL DISTRICT", "city": "Las Vegas", "level": 2, "low_grade": 6, "high_grade": 8, "enrollment": 1127, "teachers": 44, "lunch_pct": 100.0, "charter": false, "lat": 36.20073, "lng": -115.294123, "ratio": 25.6}, {"name": "Sawyer  Grant MS", "district": "CLARK COUNTY SCHOOL DISTRICT", "city": "Las Vegas", "level": 2, "low_grade": 6, "high_grade": 8, "enrollment": 1142, "teachers": 53, "lunch_pct": 100.0, "charter": false, "lat": 36.089516, "lng": -115.23766, "ratio": 21.5}, {"name": "Guinn  Kenny C MS", "district": "CLARK COUNTY SCHOOL DISTRICT", "city": "Las Vegas", "level": 2, "low_grade": 6, "high_grade": 8, "enrollment": 1045, "teachers": 44, "lunch_pct": 100.0, "charter": false, "lat": 36.113641, "lng": -115.2328, "ratio": 23.8}, {"name": "Johnson  Walter JHS Academy of Int'l Studies", "district": "CLARK COUNTY SCHOOL DISTRICT", "city": "Las Vegas", "level": 2, "low_grade": 6, "high_grade": 8, "enrollment": 1356, "teachers": 64, "lunch_pct": 99.9, "charter": false, "lat": 36.169167, "lng": -115.262127, "ratio": 21.2}, {"name": "O'Callaghan  Mike MS i3 Learn Academy", "district": "CLARK COUNTY SCHOOL DISTRICT", "city": "Las Vegas", "level": 2, "low_grade": 6, "high_grade": 8, "enrollment": 1451, "teachers": 61, "lunch_pct": 100.0, "charter": false, "lat": 36.184714, "lng": -115.020433, "ratio": 23.8}, {"name": "Lied STEM Academy MS", "district": "CLARK COUNTY SCHOOL DISTRICT", "city": "Las Vegas", "level": 2, "low_grade": 6, "high_grade": 8, "enrollment": 1601, "teachers": 62, "lunch_pct": 99.9, "charter": false, "lat": 36.269303, "lng": -115.215079, "ratio": 25.8}, {"name": "Keller  Duane D MS", "district": "CLARK COUNTY SCHOOL DISTRICT", "city": "Las Vegas", "level": 2, "low_grade": 6, "high_grade": 8, "enrollment": 1082, "teachers": 42, "lunch_pct": 100.0, "charter": false, "lat": 36.166253, "lng": -115.036357, "ratio": 25.8}, {"name": "Molasky  Irwin & Susan JHS", "district": "CLARK COUNTY SCHOOL DISTRICT", "city": "Las Vegas", "level": 2, "low_grade": 6, "high_grade": 8, "enrollment": 922, "teachers": 42, "lunch_pct": 100.0, "charter": false, "lat": 36.228603, "lng": -115.265411, "ratio": 22.0}, {"name": "Silvestri  Charles JHS", "district": "CLARK COUNTY SCHOOL DISTRICT", "city": "Las Vegas", "level": 2, "low_grade": 6, "high_grade": 8, "enrollment": 1258, "teachers": 57, "lunch_pct": 100.0, "charter": false, "lat": 36.012626, "lng": -115.141238, "ratio": 22.1}, {"name": "Cortney  Francis H JHS", "district": "CLARK COUNTY SCHOOL DISTRICT", "city": "Las Vegas", "level": 2, "low_grade": 6, "high_grade": 8, "enrollment": 1085, "teachers": 43, "lunch_pct": 99.9, "charter": false, "lat": 36.092118, "lng": -115.058056, "ratio": 25.2}, {"name": "Lawrence  Clifford J JHS", "district": "CLARK COUNTY SCHOOL DISTRICT", "city": "Las Vegas", "level": 2, "low_grade": 6, "high_grade": 8, "enrollment": 1263, "teachers": 59, "lunch_pct": 100.0, "charter": false, "lat": 36.108185, "lng": -115.284691, "ratio": 21.4}, {"name": "Rogich  Sig MS", "district": "CLARK COUNTY SCHOOL DISTRICT", "city": "Las Vegas", "level": 2, "low_grade": 6, "high_grade": 8, "enrollment": 1587, "teachers": 56, "lunch_pct": 100.0, "charter": false, "lat": 36.175896, "lng": -115.33455, "ratio": 28.3}, {"name": "Leavitt  Justice Myron E MS", "district": "CLARK COUNTY SCHOOL DISTRICT", "city": "Las Vegas", "level": 2, "low_grade": 6, "high_grade": 8, "enrollment": 1352, "teachers": 55, "lunch_pct": 100.0, "charter": false, "lat": 36.245344, "lng": -115.263925, "ratio": 24.6}, {"name": "Monaco  Mario C & JoAnne MS", "district": "CLARK COUNTY SCHOOL DISTRICT", "city": "Las Vegas", "level": 2, "low_grade": 6, "high_grade": 8, "enrollment": 1123, "teachers": 58, "lunch_pct": 100.0, "charter": false, "lat": 36.193379, "lng": -115.065249, "ratio": 19.4}, {"name": "Schofield  Jack Lund MS", "district": "CLARK COUNTY SCHOOL DISTRICT", "city": "Las Vegas", "level": 2, "low_grade": 6, "high_grade": 8, "enrollment": 1019, "teachers": 41, "lunch_pct": 100.0, "charter": false, "lat": 36.032519, "lng": -115.128636, "ratio": 24.9}, {"name": "Harney  Kathleen & Tim MS", "district": "CLARK COUNTY SCHOOL DISTRICT", "city": "Las Vegas", "level": 2, "low_grade": 6, "high_grade": 8, "enrollment": 1279, "teachers": 49, "lunch_pct": 100.0, "charter": false, "lat": 36.154428, "lng": -115.021241, "ratio": 26.1}, {"name": "Fertitta  Victoria MS", "district": "CLARK COUNTY SCHOOL DISTRICT", "city": "Las Vegas", "level": 2, "low_grade": 6, "high_grade": 8, "enrollment": 1243, "teachers": 50, "lunch_pct": 100.0, "charter": false, "lat": 36.089855, "lng": -115.309998, "ratio": 24.9}, {"name": "Saville  Anthony MS", "district": "CLARK COUNTY SCHOOL DISTRICT", "city": "Las Vegas", "level": 2, "low_grade": 6, "high_grade": 8, "enrollment": 1480, "teachers": 49, "lunch_pct": 99.9, "charter": false, "lat": 36.306155, "lng": -115.234626, "ratio": 30.2}, {"name": "Cadwallader  Ralph MS", "district": "CLARK COUNTY SCHOOL DISTRICT", "city": "Las Vegas", "level": 2, "low_grade": 6, "high_grade": 8, "enrollment": 1396, "teachers": 59, "lunch_pct": 99.9, "charter": false, "lat": 36.2897, "lng": -115.263739, "ratio": 23.7}, {"name": "Canarelli  Lawrence & Heidi MS", "district": "CLARK COUNTY SCHOOL DISTRICT", "city": "Las Vegas", "level": 2, "low_grade": 6, "high_grade": 8, "enrollment": 1500, "teachers": 59, "lunch_pct": 100.0, "charter": false, "lat": 36.046425, "lng": -115.233228, "ratio": 25.4}, {"name": "Mack  Jerome MS", "district": "CLARK COUNTY SCHOOL DISTRICT", "city": "Las Vegas", "level": 2, "low_grade": 6, "high_grade": 8, "enrollment": 1069, "teachers": 50, "lunch_pct": 100.0, "charter": false, "lat": 36.141521, "lng": -115.081508, "ratio": 21.4}, {"name": "Bailey  Dr William H MS", "district": "CLARK COUNTY SCHOOL DISTRICT", "city": "Las Vegas", "level": 2, "low_grade": 6, "high_grade": 8, "enrollment": 1294, "teachers": 53, "lunch_pct": 99.8, "charter": false, "lat": 36.205246, "lng": -115.025635, "ratio": 24.4}, {"name": "Odyssey Charter Schools 6-8 MS", "district": "CLARK COUNTY SCHOOL DISTRICT", "city": "Las Vegas", "level": 2, "low_grade": 6, "high_grade": 8, "enrollment": 599, "teachers": 9, "lunch_pct": 0.5, "charter": true, "lat": 36.146949, "lng": -115.226415, "ratio": 66.6}, {"name": "Tarkanian  Lois & Jerry MS", "district": "CLARK COUNTY SCHOOL DISTRICT", "city": "Las Vegas", "level": 2, "low_grade": 6, "high_grade": 8, "enrollment": 1264, "teachers": 53, "lunch_pct": 100.0, "charter": false, "lat": 36.006992, "lng": -115.221214, "ratio": 23.8}, {"name": "Faiss  Wilbur & Theresa MS", "district": "CLARK COUNTY SCHOOL DISTRICT", "city": "Las Vegas", "level": 2, "low_grade": 6, "high_grade": 8, "enrollment": 1270, "teachers": 56, "lunch_pct": 100.0, "charter": false, "lat": 36.062078, "lng": -115.300982, "ratio": 22.7}, {"name": "Escobedo  Edmundo Eddie Sr MS", "district": "CLARK COUNTY SCHOOL DISTRICT", "city": "Las Vegas", "level": 2, "low_grade": 6, "high_grade": 8, "enrollment": 871, "teachers": 22, "lunch_pct": 99.9, "charter": false, "lat": 36.282046, "lng": -115.303921, "ratio": 39.6},