{"falls city": {"elem": [{"name": "Falls City Elementary School", "district": "Falls City SD 57", "city": "Falls City", "level": 1, "low_grade": 0, "high_grade": 8, "enrollment": 130, "teachers": 13, "lunch_pct": 96.9, "charter": false, "lat": 44.8677, "lng": -123.4323, "ratio": 10.0}], "middle": [], "high": [{"name": "Falls City High School", "district": "Falls City SD 57", "city": "Falls City", "level": 3, "low_grade": 9, "high_grade": 12, "enrollment": 51, "teachers": 6, "lunch_pct": 98.0, "charter": false, "lat": 44.865518, "lng": -123.429371, "ratio": 8.5}]}, "salem": {"elem": [{"name": "Eagle Charter School", "district": "Oregon Department of Education", "city": "Salem", "level": 1, "low_grade": 0, "high_grade": 5, "enrollment": 143, "teachers": 7, "lunch_pct": 65.7, "charter": true, "lat": 44.965861, "lng": -123.022074, "ratio": 20.4}, {"name": "Yoshikai Elementary School", "district": "Salem-Keizer SD 24J", "city": "Salem", "level": 1, "low_grade": 0, "high_grade": 5, "enrollment": 480, "teachers": 27, "lunch_pct": 70.0, "charter": false, "lat": 44.9851, "lng": -122.9615, "ratio": 17.8}, {"name": "Auburn Elementary School", "district": "Salem-Keizer SD 24J", "city": "Salem", "level": 1, "low_grade": 0, "high_grade": 5, "enrollment": 542, "teachers": 31, "lunch_pct": 71.2, "charter": false, "lat": 44.936054, "lng": -122.971112, "ratio": 17.5}, {"name": "Brush College Elementary School", "district": "Salem-Keizer SD 24J", "city": "Salem", "level": 1, "low_grade": 0, "high_grade": 5, "enrollment": 307, "teachers": 15, "lunch_pct": 82.1, "charter": false, "lat": 44.972314, "lng": -123.077104, "ratio": 20.5}, {"name": "Bush Elementary School", "district": "Salem-Keizer SD 24J", "city": "Salem", "level": 1, "low_grade": 0, "high_grade": 5, "enrollment": 254, "teachers": 16, "lunch_pct": 72.4, "charter": false, "lat": 44.932564, "lng": -123.025768, "ratio": 15.9}, {"name": "Candalaria Elementary School", "district": "Salem-Keizer SD 24J", "city": "Salem", "level": 1, "low_grade": 0, "high_grade": 5, "enrollment": 301, "teachers": 13, "lunch_pct": 82.4, "charter": false, "lat": 44.9124, "lng": -123.0582, "ratio": 23.2}, {"name": "Englewood Elementary School", "district": "Salem-Keizer SD 24J", "city": "Salem", "level": 1, "low_grade": 0, "high_grade": 5, "enrollment": 321, "teachers": 16, "lunch_pct": 71.3, "charter": false, "lat": 44.9456, "lng": -123.0112, "ratio": 20.1}, {"name": "Wright Elementary School", "district": "Salem-Keizer SD 24J", "city": "Salem", "level": 1, "low_grade": 0, "high_grade": 5, "enrollment": 375, "teachers": 18, "lunch_pct": 93.6, "charter": false, "lat": 44.8961, "lng": -123.048, "ratio": 20.8}, {"name": "Four Corners Elementary School", "district": "Salem-Keizer SD 24J", "city": "Salem", "level": 1, "low_grade": 0, "high_grade": 5, "enrollment": 362, "teachers": 19, "lunch_pct": 72.1, "charter": false, "lat": 44.922873, "lng": -122.977253, "ratio": 19.1}, {"name": "Grant Community School", "district": "Salem-Keizer SD 24J", "city": "Salem", "level": 1, "low_grade": 0, "high_grade": 5, "enrollment": 424, "teachers": 25, "lunch_pct": 71.7, "charter": false, "lat": 44.950438, "lng": -123.027256, "ratio": 17.0}, {"name": "Scott Elementary School", "district": "Salem-Keizer SD 24J", "city": "Salem", "level": 1, "low_grade": 0, "high_grade": 5, "enrollment": 517, "teachers": 26, "lunch_pct": 57.1, "charter": false, "lat": 44.9668, "lng": -122.9677, "ratio": 19.9}, {"name": "Highland Elementary School", "district": "Salem-Keizer SD 24J", "city": "Salem", "level": 1, "low_grade": 0, "high_grade": 5, "enrollment": 347, "teachers": 21, "lunch_pct": 72.3, "charter": false, "lat": 44.9596, "lng": -123.0279, "ratio": 16.5}, {"name": "Hoover Elementary School", "district": "Salem-Keizer SD 24J", "city": "Salem", "level": 1, "low_grade": 0, "high_grade": 5, "enrollment": 399, "teachers": 22, "lunch_pct": 115.8, "charter": false, "lat": 44.9449, "lng": -122.9957, "ratio": 18.1}, {"name": "Liberty Elementary School", "district": "Salem-Keizer SD 24J", "city": "Salem", "level": 1, "low_grade": 0, "high_grade": 5, "enrollment": 458, "teachers": 21, "lunch_pct": 46.5, "charter": false, "lat": 44.887257, "lng": -123.061397, "ratio": 21.8}, {"name": "McKinley Elementary School", "district": "Salem-Keizer SD 24J", "city": "Salem", "level": 1, "low_grade": 0, "high_grade": 5, "enrollment": 285, "teachers": 13, "lunch_pct": 89.8, "charter": false, "lat": 44.9171, "lng": -123.042, "ratio": 21.9}, {"name": "Eyre Elementary School", "district": "Salem-Keizer SD 24J", "city": "Salem", "level": 1, "low_grade": 0, "high_grade": 5, "enrollment": 532, "teachers": 32, "lunch_pct": 72.2, "charter": false, "lat": 44.9179, "lng": -122.9618, "ratio": 16.6}, {"name": "Morningside Elementary School", "district": "Salem-Keizer SD 24J", "city": "Salem", "level": 1, "low_grade": 0, "high_grade": 5, "enrollment": 324, "teachers": 14, "lunch_pct": 90.4, "charter": false, "lat": 44.9044, "lng": -123.032, "ratio": 23.1}, {"name": "Myers Elementary School", "district": "Salem-Keizer SD 24J", "city": "Salem", "level": 1, "low_grade": 0, "high_grade": 5, "enrollment": 344, "teachers": 17, "lunch_pct": 89.0, "charter": false, "lat": 44.9459, "lng": -123.077, "ratio": 20.2}, {"name": "Hayesville Elementary School", "district": "Salem-Keizer SD 24J", "city": "Salem", "level": 1, "low_grade": 0, "high_grade": 5, "enrollment": 333, "teachers": 21, "lunch_pct": 70.9, "charter": false, "lat": 44.9833, "lng": -122.9719, "ratio": 15.9}, {"name": "Pringle Elementary School", "district": "Salem-Keizer SD 24J", "city": "Salem", "level": 1, "low_grade": 0, "high_grade": 5, "enrollment": 499, "teachers": 23, "lunch_pct": 91.4, "charter": false, "lat": 44.8758, "lng": -123.0155, "ratio": 21.7}, {"name": "Richmond Elementary School", "district": "Salem-Keizer SD 24J", "city": "Salem", "level": 1, "low_grade": 0, "high_grade": 5, "enrollment": 310, "teachers": 22, "lunch_pct": 71.9, "charter": false, "lat": 44.929975, "lng": -123.012795, "ratio": 14.1}, {"name": "Salem Heights Elementary School", "district": "Salem-Keizer SD 24J", "city": "Salem", "level": 1, "low_grade": 0, "high_grade": 5, "enrollment": 255, "teachers": 13, "lunch_pct": 97.6, "charter": false, "lat": 44.905281, "lng": -123.050711, "ratio": 19.6}, {"name": "Schirle Elementary School", "district": "Salem-Keizer SD 24J", "city": "Salem", "level": 1, "low_grade": 0, "high_grade": 5, "enrollment": 304, "teachers": 17, "lunch_pct": 83.9, "charter": false, "lat": 44.8859, "lng": -123.0737, "ratio": 17.9}, {"name": "Sumpter Elementary School", "district": "Salem-Keizer SD 24J", "city": "Salem", "level": 1, "low_grade": 0, "high_grade": 5, "enrollment": 477, "teachers": 22, "lunch_pct": 81.6, "charter": false, "lat": 44.8778, "lng": -123.048, "ratio": 21.7}, {"name": "Swegle Elementary School", "district": "Salem-Keizer SD 24J", "city": "Salem", "level": 1, "low_grade": 0, "high_grade": 5, "enrollment": 520, "teachers": 28, "lunch_pct": 74.0, "charter": false, "lat": 44.950564, "lng": -122.974005, "ratio": 18.6}, {"name": "Washington Elementary School", "district": "Salem-Keizer SD 24J", "city": "Salem", "level": 1, "low_grade": 0, "high_grade": 5, "enrollment": 371, "teachers": 20, "lunch_pct": 59.6, "charter": false, "lat": 44.9648, "lng": -122.998, "ratio": 18.6}, {"name": "Chapman Hill Elementary School", "district": "Salem-Keizer SD 24J", "city": "Salem", "level": 1, "low_grade": 0, "high_grade": 5, "enrollment": 369, "teachers": 17, "lunch_pct": 87.8, "charter": false, "lat": 44.9556, "lng": -123.0766, "ratio": 21.7}, {"name": "Lamb Elementary School", "district": "Salem-Keizer SD 24J", "city": "Salem", "level": 1, "low_grade": 0, "high_grade": 5, "enrollment": 373, "teachers": 22, "lunch_pct": 69.2, "charter": false, "lat": 44.9763, "lng": -122.9601, "ratio": 17.0}, {"name": "Hammond Elementary School", "district": "Salem-Keizer SD 24J", "city": "Salem", "level": 1, "low_grade": 0, "high_grade": 5, "enrollment": 530, "teachers": 25, "lunch_pct": 71.9, "charter": false, "lat": 44.995, "lng": -122.9562, "ratio": 21.2}, {"name": "Hallman Elementary School", "district": "Salem-Keizer SD 24J", "city": "Salem", "level": 1, "low_grade": 0, "high_grade": 5, "enrollment": 366, "teachers": 21, "lunch_pct": 72.1, "charter": false, "lat": 44.977744, "lng": -122.995871, "ratio": 17.4}, {"name": "Miller Elementary School", "district": "Salem-Keizer SD 24J", "city": "Salem", "level": 1, "low_grade": 0, "high_grade": 5, "enrollment": 361, "teachers": 19, "lunch_pct": 75.6, "charter": false, "lat": 44.9107, "lng": -122.9665, "ratio": 19.0}, {"name": "Harritt Elementary School", "district": "Salem-Keizer SD 24J", "city": "Salem", "level": 1, "low_grade": 0, "high_grade": 5, "enrollment": 469, "teachers": 22, "lunch_pct": 73.3, "charter": false, "lat": 44.9643, "lng": -123.0635, "ratio": 21.3}, {"name": "Valley Inquiry Charter School", "district": "Salem-Keizer SD 24J", "city": "Salem", "level": 1, "low_grade": 0, "high_grade": 7, "enrollment": 225, "teachers": 6, "lunch_pct": 59.1, "charter": true, "lat": 45.006876, "lng": -122.94244, "ratio": 37.5}, {"name": "Kalapuya Elementary School", "district": "Salem-Keizer SD 24J", "city": "Salem", "level": 1, "low_grade": 0, "high_grade": 5, "enrollment": 512, "teachers": 25, "lunch_pct": 86.1, "charter": false, "lat": 44.9646, "lng": -123.0752, "ratio": 20.5}, {"name": "Battle Creek Elementary School", "district": "Salem-Keizer SD 24J", "city": "Salem", "level": 1, "low_grade": 0, "high_grade": 5, "enrollment": 462, "teachers": 21, "lunch_pct": 92.0, "charter": false, "lat": 44.863926, "lng": -123.026233, "ratio": 22.0}, {"name": "Cesar E Chavez Elementary", "district": "Salem-Keizer SD 24J", "city": "Salem", "level": 1, "low_grade": 0, "high_grade": 5, "enrollment": 573, "teachers": 31, "lunch_pct": 69.1, "charter": false, "lat": 44.958735, "lng": -122.960653, "ratio": 18.5}, {"name": "Lee Elementary School", "district": "Salem-Keizer SD 24J", "city": "Salem", "level": 1, "low_grade": 0, "high_grade": 5, "enrollment": 275, "teachers": 17, "lunch_pct": 42.9, "charter": false, "lat": 44.874, "lng": -123.0036, "ratio": 16.2}, {"name": "Pratum Elementary School", "district": "Silver Falls SD 4J", "city": "Salem", "level": 1, "low_grade": 0, "high_grade": 8, "enrollment": 67, "teachers": 3, "lunch_pct": 0.0, "charter": false, "lat": 44.958621, "lng": -122.877475, "ratio": 22.3}], "middle": [{"name": "Crossler Middle School", "district": "Salem-Keizer SD 24J", "city": "Salem", "level": 2, "low_grade": 6, "high_grade": 8, "enrollment": 798, "teachers": 36, "lunch_pct": 87.6, "charter": false, "lat": 44.8745, "lng": -123.0636, "ratio": 22.2}, {"name": "Houck Middle School", "district": "Salem-Keizer SD 24J", "city": "Salem", "level": 2, "low_grade": 6, "high_grade": 8, "enrollment": 949, "teachers": 45, "lunch_pct": 73.7, "charter": false, "lat": 44.9158, "lng": -122.9715, "ratio": 21.1}, {"name": "Stephens Middle School", "district": "Salem-Keizer SD 24J", "city": "Salem", "level": 2, "low_grade": 6, "high_grade": 8, "enrollment": 1024, "teachers": 52, "lunch_pct": 71.7, "charter": false, "lat": 44.9903, "lng": -122.96, "ratio": 19.7}, {"name": "Judson Middle School", "district": "Salem-Keizer SD 24J", "city": "Salem", "level": 2, "low_grade": 6, "high_grade": 8, "enrollment": 810, "teachers": 34, "lunch_pct": 96.3, "charter": false, "lat": 44.88939, "lng": -123.045062, "ratio": 23.8}, {"name": "Leslie Middle School", "district": "Salem-Keizer SD 24J", "city": "Salem", "level": 2, "low_grade": 6, "high_grade": 8, "enrollment": 743, "teachers": 38, "lunch_pct": 75.8, "charter": false, "lat": 44.9004, "lng": -123.0235, "ratio": 19.6}, {"name": "Parrish Middle School", "district": "Salem-Keizer SD 24J", "city": "Salem", "level": 2, "low_grade": 6, "high_grade": 8, "enrollment": 670, "teachers": 34, "lunch_pct": 75.2, "charter": false, "lat": 44.9455, "lng": -123.0242, "ratio": 19.7}, {"name": "Waldo Middle School", "district": "Salem-Keizer SD 24J", "city": "Salem", "level": 2, "low_grade": 6, "high_grade": 8, "enrollment": 1166, "teachers": 62, "lunch_pct": 72.7, "charter": false, "lat": 44.961842, "lng": -122.998819, "ratio": 18.8}, {"name": "Walker Middle School", "district": "Salem-Keizer SD 24J", "city": "Salem", "level": 2, "low_grade": 6, "high_grade": 8, "enrollment": 556, "teachers": 27, "lunch_pct": 93.2, "charter": false, "lat": 44.947331, "lng": -123.059621, "ratio": 20.6}, {"name": "Howard Street Charter", "district": "Salem-Keizer SD 24J", "city": "Salem", "level": 2, "low_grade": 6, "high_grade": 8, "enrollment": 188, "teachers": 1, "lunch_pct": 10.1, "charter": true, "lat": 44.944155, "lng": -123.032499, "ratio": 188.0}, {"name": "Jane Goodall Environmental Middle Charter School", "district": "Salem-Keizer SD 24J", "city": "Salem", "level": 2, "low_grade": 6, "high_grade": 8, "enrollment": 96, "teachers": 5, "lunch_pct": 21.9, "charter": true, "lat": 44.965793, "lng": -123.022181, "ratio": 19.2}, {"name": "Straub Middle School", "district": "Salem-Keizer SD 24J", "city": "Salem", "level": 2, "low_grade": 6, "high_grade": 8, "enrollment": 561, "teachers": 27, "lunch_pct": 85.4, "charter": false, "lat": 44.9622, "lng": -123.0762, "ratio": 20.8}], "high": [{"name": "Willamette Career Academy", "district": "Willamette ESD", "city": "Salem", "level": 3, "low_grade": 11, "high_grade": 12, "enrollment": 0, "teachers": 0, "lunch_pct": 0.0, "charter": false, "lat": 44.945145, "lng": -122.981576, "ratio": 1.0}, {"name": "North Salem High School", "district": "Salem-Keizer SD 24J", "city": "Salem", "level": 3, "low_grade": 9, "high_grade": 12, "enrollment": 2239, "teachers": 104, "lunch_pct": 74.2, "charter": false, "lat": 44.9446, "lng": -123.0214, "ratio": 21.5}, {"name": "Sprague High School", "district": "Salem-Keizer SD 24J", "city": "Salem", "level": 3, "low_grade": 9, "high_grade": 12, "enrollment": 1779, "teachers": 77, "lunch_pct": 88.3, "charter": false, "lat": 44.887016, "lng": -123.077661, "ratio": 23.1}, {"name": "South Salem High School", "district": "Salem-Keizer SD 24J", "city": "Salem", "level": 3, "low_grade": 9, "high_grade": 12, "enrollment": 2256, "teachers": 103, "lunch_pct": 95.7, "charter": false, "lat": 44.922178, "lng": -123.039932, "ratio": 21.9}, {"name": "McKay High School", "district": "Salem-Keizer SD 24J", "city": "Salem", "level": 3, "low_grade": 9, "high_grade": 12, "enrollment": 2311, "teachers": 105, "lunch_pct": 101.9, "charter": false, "lat": 44.9571, "lng": -122.9795, "ratio": 22.0}, {"name": "Early College High School", "district": "Salem-Keizer SD 24J", "city": "Salem", "level": 3, "low_grade": 9, "high_grade": 12, "enrollment": 204, "teachers": 11, "lunch_pct": 0.0, "charter": false, "lat": 44.9741, "lng": -122.981, "ratio": 18.5}, {"name": "Roberts High School", "district": "Salem-Keizer SD 24J", "city": "Salem", "level": 3, "low_grade": 7, "high_grade": 12, "enrollment": 538, "teachers": 45, "lunch_pct": 48.3, "charter": false, "lat": 44.927278, "lng": -122.988572, "ratio": 12.0}, {"name": "West Salem High School", "district": "Salem-Keizer SD 24J", "city": "Salem", "level": 3, "low_grade": 9, "high_grade": 12, "enrollment": 1733, "teachers": 72, "lunch_pct": 85.6, "charter": false, "lat": 44.959122, "lng": -123.084086, "ratio": 24.1}]}, "ontario": {"elem": [{"name": "Annex Charter School", "district": "Annex SD 29", "city": "Ontario", "level": 1, "low_grade": 0, "high_grade": 8, "enrollment": 82, "teachers": 9, "lunch_pct": 69.5, "charter": true, "lat": 44.23658, "lng": -116.987503, "ratio": 9.1}, {"name": "Alameda Elementary School", "district": "Ontario SD 8C", "city": "Ontario", "level": 1, "low_grade": 0, "high_grade": 6, "enrollment": 360, "teachers": 20, "lunch_pct": 102.8, "charter": false, "lat": 44.0175, "lng": -116.9821, "ratio": 18.0}, {"name": "Cairo Elementary School", "district": "Ontario SD 8C", "city": "Ontario", "level": 1, "low_grade": 0, "high_grade": 5, "enrollment": 109, "teachers": 8, "lunch_pct": 103.7, "charter": false, "lat": 43.9879, "lng": -117.0125, "ratio": 13.6}, {"name": "Aiken Elementary School", "district": "Ontario SD 8C", "city": "Ontario", "level": 1, "low_grade": 0, "high_grade": 5, "enrollment": 270, "teachers": 14, "lunch_pct": 98.9, "charter": false, "lat": 44.029, "lng": -116.9841, "ratio": 19.3}, {"name": "May Roberts Elementary School", "district": "Ontario SD 8C", "city": "Ontario", "level": 1, "low_grade": 0, "high_grade": 6, "enrollment": 355, "teachers": 25, "lunch_pct": 104.2, "charter": false, "lat": 44.0334, "lng": -116.9711, "ratio": 14.2}, {"name": "Pioneer Elementary School", "district": "Ontario SD 8C", "city": "Ontario", "level": 1, "low_grade": 0, "high_grade": 5, "enrollment": 90, "teachers": 6, "lunch_pct": 101.1, "charter": false, "lat": 44.1179, "lng": -116.939, "ratio": 15.0}], "middle": [{"name": "Ontario Middle School", "district": "Ontario SD 8C", "city": "Ontario", "level": 2, "low_grade": 7, "high_grade": 8, "enrollment": 378, "teachers": 21, "lunch_pct": 99.5, "charter": false, "lat": 44.026252, "lng": -116.970085, "ratio": 18.0}], "high": [{"name": "Ontario High School", "district": "Ontario SD 8C", "city": "Ontario", "level": 3, "low_grade": 9, "high_grade": 12, "enrollment": 656, "teachers": 38, "lunch_pct": 104.9, "charter": false, "lat": 44.0298, "lng": -116.9779, "ratio": 17.3}]}, "portland": {"elem": [{"name": "The Cottonwood School of Civics and Science", "district": "Oregon Department of Education", "city": "Portland", "level": 1, "low_grade": 0, "high_grade": 8, "enrollment": 205, "teachers": 11, "lunch_pct": 0.0, "charter": true, "lat": 45.492697, "lng": -122.67171, "ratio": 18.6}, {"name": "The Ivy School", "district": "Oregon Department of Education", "city": "Portland", "level": 1, "low_grade": -1, "high_grade": 8, "enrollment": 271, "teachers": 13, "lunch_pct": 37.3, "charter": true, "lat": 45.5622, "lng": -122.6818, "ratio": 20.8}, {"name": "Lenox Elementary School", "district": "Hillsboro SD 1J", "city": "Portland", "level": 1, "low_grade": 0, "high_grade": 6, "enrollment": 367, "teachers": 21, "lunch_pct": 29.4, "charter": false, "lat": 45.558, "lng": -122.894, "ratio": 17.5}, {"name": "Cedar Mill Elementary School", "district": "Beaverton SD 48J", "city": "Portland", "level": 1, "low_grade": 0, "high_grade": 5, "enrollment": 356, "teachers": 19, "lunch_pct": 13.5, "charter": false, "lat": 45.5269, "lng": -122.782482, "ratio": 18.7}, {"name": "Montclair Elementary School", "district": "Beaverton SD 48J", "city": "Portland", "level": 1, "low_grade": 0, "high_grade": 5, "enrollment": 283, "teachers": 15, "lunch_pct": 26.5, "charter": false, "lat": 45.4759, "lng": -122.751368, "ratio": 18.9}, {"name": "Raleigh Hills Elementary School", "district": "Beaverton SD 48J", "city": "Portland", "level": 1, "low_grade": 0, "high_grade": 8, "enrollment": 307, "teachers": 20, "lunch_pct": 49.2, "charter": false, "lat": 45.4824, "lng": -122.7583, "ratio": 15.3}, {"name": "Raleigh Park Elementary School", "district": "Beaverton SD 48J", "city": "Portland", "level": 1, "low_grade": 0, "high_grade": 5, "enrollment": 308, "teachers": 20, "lunch_pct": 44.8, "charter": false, "lat": 45.4934, "lng": -122.7564, "ratio": 15.4}, {"name": "Ridgewood Elementary School", "district": "Beaverton SD 48J", "city": "Portland", "level": 1, "low_grade": 0, "high_grade": 5, "enrollment": 394, "teachers": 23, "lunch_pct": 23.4, "charter": false, "lat": 45.5025, "lng": -122.7804, "ratio": 17.1}, {"name": "Rock Creek Elementary School", "district": "Beaverton SD 48J", "city": "Portland", "level": 1, "low_grade": 0, "high_grade": 5, "enrollment": 432, "teachers": 22, "lunch_pct": 24.5, "charter": false, "lat": 45.5492, "lng": -122.8687, "ratio": 19.6}, {"name": "Terra Linda Elementary School", "district": "Beaverton SD 48J", "city": "Portland", "level": 1, "low_grade": 0, "high_grade": 5, "enrollment": 277, "teachers": 18, "lunch_pct": 32.5, "charter": false, "lat": 45.533236, "lng": -122.820146, "ratio": 15.4}, {"name": "West Tualatin View Elementary School", "district": "Beaverton SD 48J", "city": "Portland", "level": 1, "low_grade": 0, "high_grade": 5, "enrollment": 305, "teachers": 17, "lunch_pct": 13.1, "charter": false, "lat": 45.5152, "lng": -122.7668, "ratio": 17.9}, {"name": "William Walker Elementary School", "district": "Beaverton SD 48J", "city": "Portland", "level": 1, "low_grade": -1, "high_grade": 5, "enrollment": 534, "teachers": 40, "lunch_pct": 68.2, "charter": false, "lat": 45.5016, "lng": -122.8001, "ratio": 13.3}, {"name": "Findley Elementary", "district": "Beaverton SD 48J", "city": "Portland", "level": 1, "low_grade": 0, "high_grade": 5, "enrollment": 527, "teachers": 25, "lunch_pct": 5.7, "charter": false, "lat": 45.5497, "lng": -122.8115, "ratio": 21.1}, {"name": "Jacob Wismer Elementary School", "district": "Beaverton SD 48J", "city": "Portland", "level": 1, "low_grade": 0, "high_grade": 5, "enrollment": 591, "teachers": 29, "lunch_pct": 9.6, "charter": false, "lat": 45.5602, "lng": -122.8231, "ratio": 20.4}, {"name": "Bonny Slope Elementary School", "district": "Beaverton SD 48J", "city": "Portland", "level": 1, "low_grade": -1, "high_grade": 5, "enrollment": 686, "teachers": 34, "lunch_pct": 15.2, "charter": false, "lat": 45.5396, "lng": -122.797461, "ratio": 20.2}, {"name": "Springville K-8 School", "district": "Beaverton SD 48J", "city": "Portland", "level": 1, "low_grade": 0, "high_grade": 8, "enrollment": 764, "teachers": 39, "lunch_pct": 12.7, "charter": false, "lat": 45.568445, "lng": -122.850703, "ratio": 19.6}, {"name": "Sato Elementary School", "district": "Beaverton SD 48J", "city": "Portland", "level": 1, "low_grade": 0, "high_grade": 5, "enrollment": 776, "teachers": 39, "lunch_pct": 14.3, "charter": false, "lat": 45.575573, "lng": -122.837856, "ratio": 19.9}, {"name": "Meadows Elementary", "district": "Centennial SD 28J", "city": "Portland", "level": 1, "low_grade": 0, "high_grade": 5, "enrollment": 311, "teachers": 18, "lunch_pct": 69.1, "charter": false, "lat": 45.5015, "lng": -122.4775, "ratio": 17.3}, {"name": "Parklane Elementary School", "district": "Centennial SD 28J", "city": "Portland", "level": 1, "low_grade": 0, "high_grade": 5, "enrollment": 437, "teachers": 23, "lunch_pct": 69.3, "charter": false, "lat": 45.514469, "lng": -122.500266, "ratio": 19.0}, {"name": "Patrick Lynch Elementary", "district": "Centennial SD 28J", "city": "Portland", "level": 1, "low_grade": 0, "high_grade": 5, "enrollment": 336, "teachers": 19, "lunch_pct": 70.5, "charter": false, "lat": 45.5115, "lng": -122.4882, "ratio": 17.7}, {"name": "Powell Butte Elementary School", "district": "Centennial SD 28J", "city": "Portland", "level": 1, "low_grade": 0, "high_grade": 5, "enrollment": 385, "teachers": 22, "lunch_pct": 69.6, "charter": false, "lat": 45.4963, "lng": -122.4858, "ratio": 17.5}, {"name": "Cherry Park Elementary School", "district": "David Douglas SD 40", "city": "Portland", "level": 1, "low_grade": -1, "high_grade": 5, "enrollment": 459, "teachers": 26, "lunch_pct": 86.9, "charter": false, "lat": 45.509007, "lng": -122.555689, "ratio": 17.7}, {"name": "Gilbert Heights Elementary School", "district": "David Douglas SD 40", "city": "Portland", "level": 1, "low_grade": 0, "high_grade": 5, "enrollment": 420, "teachers": 22, "lunch_pct": 76.2, "charter": false, "lat": 45.4906, "lng": -122.5315, "ratio": 19.1}, {"name": "Gilbert Park Elementary School", "district": "David Douglas SD 40", "city": "Portland", "level": 1, "low_grade": 0, "high_grade": 5, "enrollment": 462, "teachers": 21, "lunch_pct": 76.2, "charter": false, "lat": 45.479595, "lng": -122.528343, "ratio": 22.0}, {"name": "Lincoln Park Elementary School", "district": "David Douglas SD 40", "city": "Portland", "level": 1, "low_grade": -1, "high_grade": 5, "enrollment": 465, "teachers": 24, "lunch_pct": 81.5, "charter": false, "lat": 45.5084, "lng": -122.5258, "ratio": 19.4}, {"name": "Menlo Park Elementary School", "district": "David Douglas SD 40", "city": "Portland", "level": 1, "low_grade": 0, "high_grade": 5, "enrollment": 383, "teachers": 21, "lunch_pct": 77.5, "charter": false, "lat": 45.5255, "lng": -122.5303, "ratio": 18.2}, {"name": "Mill Park Elementary School", "district": "David Douglas SD 40", "city": "Portland", "level": 1, "low_grade": -1, "high_grade": 5, "enrollment": 446, "teachers": 24, "lunch_pct": 84.3, "charter": false, "lat": 45.5099, "lng": -122.5411, "ratio": 18.6}, {"name": "Ventura Park Elementary School", "district": "David Douglas SD 40", "city": "Portland", "level": 1, "low_grade": 0, "high_grade": 5, "enrollment": 376, "teachers": 20, "lunch_pct": 76.9, "charter": false, "lat": 45.5214, "lng": -122.5439, "ratio": 18.8}, {"name": "West Powellhurst Elementary School", "district": "David Douglas SD 40", "city": "Portland", "level": 1, "low_grade": -1, "high_grade": 5, "enrollment": 363, "teachers": 21, "lunch_pct": 80.2, "charter": false, "lat": 45.5014, "lng": -122.5435, "ratio": 17.3}, {"name": "Earl Boyles Elementary", "district": "David Douglas SD 40", "city": "Portland", "level": 1, "low_grade": -1, "high_grade": 5, "enrollment": 363, "teachers": 24, "lunch_pct": 87.9, "charter": false, "lat": 45.4944, "lng": -122.5518, "ratio": 15.1}, {"name": "Arthur Academy", "district": "David Douglas SD 40", "city": "Portland", "level": 1, "low_grade": 0, "high_grade": 5, "enrollment": 158, "teachers": 3, "lunch_pct": 49.4, "charter": true, "lat": 45.5044, "lng": -122.5222, "ratio": 52.7}, {"name": "Prescott Elementary School", "district": "Parkrose SD 3", "city": "Portland", "level": 1, "low_grade": -1, "high_grade": 5, "enrollment": 266, "teachers": 18, "lunch_pct": 83.1, "charter": false, "lat": 45.5551, "lng": -122.5558, "ratio": 14.8}, {"name": "Russell Elementary", "district": "Parkrose SD 3", "city": "Portland", "level": 1, "low_grade": 0, "high_grade": 5, "enrollment": 327, "teachers": 19, "lunch_pct": 70.0, "charter": false, "lat": 45.5413, "lng": -122.5316, "ratio": 17.2}, {"name": "Sacramento Elementary School", "district": "Parkrose SD 3", "city": "Portland", "level": 1, "low_grade": 0, "high_grade": 5, "enrollment": 217, "teachers": 18, "lunch_pct": 80.2, "charter": false, "lat": 45.539, "lng": -122.5448, "ratio": 12.1}, {"name": "Shaver Elementary School", "district": "Parkrose SD 3", "city": "Portland", "level": 1, "low_grade": 0, "high_grade": 5, "enrollment": 292, "teachers": 16, "lunch_pct": 81.5, "charter": false, "lat": 45.5495, "lng": -122.5286, "ratio": 18.2}, {"name": "Rieke Elementary School", "district": "Portland SD 1J", "city": "Portland", "level": 1, "low_grade": 0, "high_grade": 5, "enrollment": 300, "teachers": 14, "lunch_pct": 12.7, "charter": false, "lat": 45.4765, "lng": -122.6949, "ratio": 21.4}, {"name": "Abernethy Elementary School", "district": "Portland SD 1J", "city": "Portland", "level": 1, "low_grade": 0, "high_grade": 5, "enrollment": 353, "teachers": 19, "lunch_pct": 10.8, "charter": false, "lat": 45.5058, "lng": -122.6514, "ratio": 18.6}, {"name": "Ainsworth Elementary School", "district": "Portland SD 1J", "city": "Portland", "level": 1, "low_grade": 0, "high_grade": 5, "enrollment": 563, "teachers": 28, "lunch_pct": 9.2, "charter": false, "lat": 45.5098, "lng": -122.6996, "ratio": 20.1}, {"name": "Alameda Elementary School", "district": "Portland SD 1J", "city": "Portland", "level": 1, "low_grade": 0, "high_grade": 5, "enrollment": 538, "teachers": 25, "lunch_pct": 68.8, "charter": false, "lat": 45.5478, "lng": -122.6374, "ratio": 21.5}, {"name": "Arleta Elementary School", "district": "Portland SD 1J", "city": "Portland", "level": 1, "low_grade": 0, "high_grade": 5, "enrollment": 256, "teachers": 17, "lunch_pct": 65.6, "charter": false, "lat": 45.4862, "lng": -122.5961, "ratio": 15.1}, {"name": "Astor Elementary School", "district": "Portland SD 1J", "city": "Portland", "level": 1, "low_grade": 0, "high_grade": 8, "enrollment": 368, "teachers": 23, "lunch_pct": 64.4, "charter": false, "lat": 45.5788, "lng": -122.7297, "ratio": 16.0}, {"name": "Atkinson Elementary School", "district": "Portland SD 1J", "city": "Portland", "level": 1, "low_grade": 0, "high_grade": 5, "enrollment": 337, "teachers": 22, "lunch_pct": 23.7, "charter": false, "lat": 45.505026, "lng": -122.604783, "ratio": 15.3}, {"name": "Rosa Parks Elementary School", "district": "Portland SD 1J", "city": "Portland", "level": 1, "low_grade": -1, "high_grade": 5, "enrollment": 197, "teachers": 18, "lunch_pct": 65.0, "charter": false, "lat": 45.58786, "lng": -122.712724, "ratio": 10.9}, {"name": "Beach Elementary School", "district": "Portland SD 1J", "city": "Portland", "level": 1, "low_grade": -1, "high_grade": 5, "enrollment": 346, "teachers": 25, "lunch_pct": 65.3, "charter": false, "lat": 45.5581, "lng": -122.6855, "ratio": 13.8}, {"name": "Boise-Eliot Elementary School", "district": "Portland SD 1J", "city": "Portland", "level": 1, "low_grade": -1, "high_grade": 5, "enrollment": 326, "teachers": 26, "lunch_pct": 71.2, "charter": false, "lat": 45.5479, "lng": -122.6727, "ratio": 12.5}, {"name": "Bridger Elementary School", "district": "Portland SD 1J", "city": "Portland", "level": 1, "low_grade": 0, "high_grade": 5, "enrollment": 329, "teachers": 21, "lunch_pct": 65.3, "charter": false, "lat": 45.5106, "lng": -122.5821, "ratio": 15.7}, {"name": "Bridlemile Elementary School", "district": "Portland SD 1J", "city": "Portland", "level": 1, "low_grade": 0, "high_grade": 5, "enrollment": 458, "teachers": 21, "lunch_pct": 13.1, "charter": false, "lat": 45.4918, "lng": -122.7243, "ratio": 21.8}, {"name": "Buckman Elementary School", "district": "Portland SD 1J", "city": "Portland", "level": 1, "low_grade": 0, "high_grade": 5, "enrollment": 395, "teachers": 23, "lunch_pct": 65.1, "charter": false, "lat": 45.5204, "lng": -122.649, "ratio": 17.2}, {"name": "Capitol Hill Elementary School", "district": "Portland SD 1J", "city": "Portland", "level": 1, "low_grade": 0, "high_grade": 5, "enrollment": 333, "teachers": 17, "lunch_pct": 17.1, "charter": false, "lat": 45.4643, "lng": -122.6957, "ratio": 19.6}, {"name": "Chapman Elementary School", "district": "Portland SD 1J", "city": "Portland", "level": 1, "low_grade": 0, "high_grade": 5, "enrollment": 350, "teachers": 18, "lunch_pct": 64.9, "charter": false, "lat": 45.5332, "lng": -122.7055, "ratio": 19.4}, {"name": "Chief Joseph Elementary School", "district": "Portland SD 1J", "city": "Portland", "level": 1, "low_grade": 0, "high_grade": 5, "enrollment": 261, "teachers": 14, "lunch_pct": 64.4, "charter": false, "lat": 45.5729, "lng": -122.6915, "ratio": 18.6}, {"name": "Cesar Chavez K-8 School", "district": "Portland SD 1J", "city": "Portland", "level": 1, "low_grade": 0, "high_grade": 8, "enrollment": 466, "teachers": 34, "lunch_pct": 64.6, "charter": false, "lat": 45.5844, "lng": -122.7195, "ratio": 13.7}, {"name": "Harrison Park School", "district": "Portland SD 1J", "city": "Portland", "level": 1, "low_grade": 0, "high_grade": 8, "enrollment": 573, "teachers": 38, "lunch_pct": 65.8, "charter": false, "lat": 45.506762, "lng": -122.574963, "ratio": 15.1}, {"name": "Creston Elementary School", "district": "Portland SD 1J", "city": "Portland", "level": 1, "low_grade": 0, "high_grade": 5, "enrollment": 260, "teachers": 15, "lunch_pct": 77.7, "charter": false, "lat": 45.4954, "lng": -122.6147, "ratio": 17.3}, {"name": "Duniway Elementary School", "district": "Portland SD 1J", "city": "Portland", "level": 1, "low_grade": 0, "high_grade": 5, "enrollment": 422, "teachers": 19, "lunch_pct": 9.7, "charter": false, "lat": 45.4687, "lng": -122.6289, "ratio": 22.2}, {"name": "Faubion Elementary School", "district": "Portland SD 1J", "city": "Portland", "level": 1, "low_grade": -1, "high_grade": 8, "enrollment": 610, "teachers": 42, "lunch_pct": 72.6, "charter": false, "lat": 45.570756, "lng": -122.634699, "ratio": 14.5}, {"name": "Glencoe Elementary School", "district": "Portland SD 1J", "city": "Portland", "level": 1, "low_grade": 0, "high_grade": 5, "enrollment": 394, "teachers": 21, "lunch_pct": 18.3, "charter": false, "lat": 45.5172, "lng": -122.6108, "ratio": 18.8}, {"name": "Grout Elementary School", "district": "Portland SD 1J", "city": "Portland", "level": 1, "low_grade": 0, "high_grade": 5, "enrollment": 316, "teachers": 22, "lunch_pct": 69.6, "charter": false, "lat": 45.490972, "lng": -122.633139, "ratio": 14.4}, {"name": "Hayhurst Elementary School", "district": "Portland SD 1J", "city": "Portland", "level": 1, "low_grade": 0, "high_grade": 8, "enrollment": 575, "teachers": 27, "lunch_pct": 39.3, "charter": false, "lat": 45.4804, "lng": -122.729, "ratio": 21.3}, {"name": "Beverly Cleary School", "district": "Portland SD 1J", "city": "Portland", "level": 1, "low_grade": 0, "high_grade": 8, "enrollment": 604, "teachers": 29, "lunch_pct": 8.1, "charter": false, "lat": 45.5369, "lng": -122.6315, "ratio": 20.8}, {"name": "Irvington Elementary School", "district": "Portland SD 1J", "city": "Portland", "level": 1, "low_grade": 0, "high_grade": 5, "enrollment": 228, "teachers": 13, "lunch_pct": 20.6, "charter": false, "lat": 45.5402, "lng": -122.652, "ratio": 17.5}, {"name": "James John Elementary School", "district": "Portland SD 1J", "city": "Portland", "level": 1, "low_grade": 0, "high_grade": 5, "enrollment": 337, "teachers": 23, "lunch_pct": 65.6, "charter": false, "lat": 45.5904, "lng": -122.752, "ratio": 14.7}, {"name": "Kelly Elementary School", "district": "Portland SD 1J", "city": "Portland", "level": 1, "low_grade": 0, "high_grade": 5, "enrollment": 355, "teachers": 27, "lunch_pct": 83.4, "charter": false, "lat": 45.4729, "lng": -122.5704, "ratio": 13.1}, {"name": "Dr. Martin Luther King Jr. School", "district": "Portland SD 1J", "city": "Portland", "level": 1, "low_grade": -1, "high_grade": 5, "enrollment": 302, "teachers": 23, "lunch_pct": 72.8, "charter": false, "lat": 45.5581, "lng": -122.659, "ratio": 13.1}, {"name": "Laurelhurst Elementary School", "district": "Portland SD 1J", "city": "Portland", "level": 1, "low_grade": 0, "high_grade": 8, "enrollment": 674, "teachers": 30, "lunch_pct": 8.5, "charter": false, "lat": 45.5291, "lng": -122.6198, "ratio": 22.5}, {"name": "Lee Elementary School", "district": "Portland SD 1J", "city": "Portland", "level": 1, "low_grade": 0, "high_grade": 5, "enrollment": 274, "teachers": 19, "lunch_pct": 73.4, "charter": false, "lat": 45.5381, "lng": -122.5677, "ratio": 14.4}, {"name": "Lent Elementary School", "district": "Portland SD 1J", "city": "Portland", "level": 1, "low_grade": 0, "high_grade": 5, "enrollment": 251, "teachers": 22, "lunch_pct": 76.1, "charter": false, "lat": 45.4855, "lng": -122.5639, "ratio": 11.4}, {"name": "Lewis Elementary School", "district": "Portland SD 1J", "city": "Portland", "level": 1, "low_grade": 0, "high_grade": 5, "enrollment": 320, "teachers": 18, "lunch_pct": 18.8, "charter": false, "lat": 45.4739, "lng": -122.6179, "ratio": 17.8}, {"name": "Llewellyn Elementary School", "district": "Portland SD 1J", "city": "Portland", "level": 1, "low_grade": 0, "high_grade": 5, "enrollment": 413, "teachers": 21, "lunch_pct": 14.0, "charter": false, "lat": 45.4772, "lng": -122.6523, "ratio": 19.7}, {"name": "Maplewood Elementary School", "district": "Portland SD 1J", "city": "Portland", "level": 1, "low_grade": 0, "high_grade": 5, "enrollment": 310, "teachers": 14, "lunch_pct": 16.5, "charter": false, "lat": 45.4709, "lng": -122.7297, "ratio": 22.1}, {"name": "Markham Elementary School", "district": "Portland SD 1J", "city": "Portland", "level": 1, "low_grade": 0, "high_grade": 5, "enrollment": 426, "teachers": 26, "lunch_pct": 65.0, "charter": false, "lat": 45.4492, "lng": -122.7255, "ratio": 16.4}, {"name": "Marysville Elementary School", "district": "Portland SD 1J", "city": "Portland", "level": 1, "low_grade": 0, "high_grade": 5, "enrollment": 286, "teachers": 18, "lunch_pct": 72.0, "charter": false, "lat": 45.4869, "lng": -122.5835, "ratio": 15.9}, {"name": "Peninsula Elementary School", "district": "Portland SD 1J", "city": "Portland", "level": 1, "low_grade": 0, "high_grade": 5, "enrollment": 225, "teachers": 18, "lunch_pct": 64.4, "charter": false, "lat": 45.5819, "lng": -122.700338, "ratio": 12.5}, {"name": "Richmond Elementary School", "district": "Portland SD 1J", "city": "Portland", "level": 1, "low_grade": -1, "high_grade": 5, "enrollment": 539, "teachers": 26, "lunch_pct": 5.4, "charter": false, "lat": 45.5064, "lng": -122.6199, "ratio": 20.7}, {"name": "Rigler Elementary School", "district": "Portland SD 1J", "city": "Portland", "level": 1, "low_grade": 0, "high_grade": 5, "enrollment": 223, "teachers": 17, "lunch_pct": 64.6, "charter": false, "lat": 45.556, "lng": -122.6077, "ratio": 13.1}, {"name": "Sabin Elementary School", "district": "Portland SD 1J", "city": "Portland", "level": 1, "low_grade": -1, "high_grade": 5, "enrollment": 312, "teachers": 17, "lunch_pct": 25.3, "charter": false, "lat": 45.5521, "lng": -122.6478, "ratio": 18.4}, {"name": "Scott Elementary School", "district": "Portland SD 1J", "city": "Portland", "level": 1, "low_grade": 0, "high_grade": 5, "enrollment": 450, "teachers": 34, "lunch_pct": 65.6, "charter": false, "lat": 45.5552, "lng": -122.5943, "ratio": 13.2}, {"name": "Sitton Elementary School", "district": "Portland SD 1J", "city": "Portland", "level": 1, "low_grade": 0, "high_grade": 5, "enrollment": 345, "teachers": 28, "lunch_pct": 70.4, "charter": false, "lat": 45.6, "lng": -122.7584, "ratio": 12.3}, {"name": "Skyline Elementary School", "district": "Portland SD 1J", "city": "Portland", "level": 1, "low_grade": 0, "high_grade": 8, "enrollment": 215, "teachers": 13, "lunch_pct": 13.0, "charter": false, "lat": 45.6077, "lng": -122.856472, "ratio": 16.5}, {"name": "Stephenson Elementary School", "district": "Portland SD 1J", "city": "Portland", "level": 1, "low_grade": 0, "high_grade": 5, "enrollment": 307, "teachers": 17, "lunch_pct": 9.1, "charter": false, "lat": 45.4409, "lng": -122.704, "ratio": 18.1}, {"name": "Sunnyside Environmental School", "district": "Portland SD 1J", "city": "Portland", "level": 1, "low_grade": 0, "high_grade": 8, "enrollment": 465, "teachers": 25, "lunch_pct": 22.2, "charter": false, "lat": 45.5146, "lng": -122.6289, "ratio": 18.6}, {"name": "Vernon Elementary School", "district": "Portland SD 1J", "city": "Portland", "level": 1, "low_grade": -1, "high_grade": 8, "enrollment": 555, "teachers": 30, "lunch_pct": 64.9, "charter": false, "lat": 45.5624, "lng": -122.6439, "ratio": 18.5}, {"name": "Vestal Elementary School", "district": "Portland SD 1J", "city": "Portland", "level": 1, "low_grade": 0, "high_grade": 5, "enrollment": 230, "teachers": 18, "lunch_pct": 66.1, "charter": false, "lat": 45.5246, "lng": -122.5796, "ratio": 12.8}, {"name": "Whitman Elementary School", "district": "Portland SD 1J", "city": "Portland", "level": 1, "low_grade": 0, "high_grade": 5, "enrollment": 153, "teachers": 11, "lunch_pct": 80.4, "charter": false, "lat": 45.4681, "lng": -122.5873, "ratio": 13.9}, {"name": "Woodlawn Elementary School", "district": "Portland SD 1J", "city": "Portland", "level": 1, "low_grade": -1, "high_grade": 5, "enrollment": 287, "teachers": 18, "lunch_pct": 64.8, "charter": false, "lat": 45.575, "lng": -122.6532, "ratio": 15.9}, {"name": "Woodmere Elementary School", "district": "Portland SD 1J", "city": "Portland", "level": 1, "low_grade": 0, "high_grade": 5, "enrollment": 234, "teachers": 18, "lunch_pct": 65.8, "charter": false, "lat": 45.4751, "lng": -122.5824, "ratio": 13.0}, {"name": "Woodstock Elementary School", "district": "Portland SD 1J", "city": "Portland", "level": 1, "low_grade": 0, "high_grade": 5, "enrollment": 491, "teachers": 30, "lunch_pct": 25.7, "charter": false, "lat": 45.4821, "lng": -122.612, "ratio": 16.4}, {"name": "Winterhaven School", "district": "Portland SD 1J", "city": "Portland", "level": 1, "low_grade": 0, "high_grade": 8, "enrollment": 313, "teachers": 16, "lunch_pct": 19.8, "charter": false, "lat": 45.4949, "lng": -122.6509, "ratio": 19.6}, {"name": "Forest Park Elementary School", "district": "Portland SD 1J", "city": "Portland", "level": 1, "low_grade": 0, "high_grade": 5, "enrollment": 328, "teachers": 15, "lunch_pct": 3.4, "charter": false, "lat": 45.542628, "lng": -122.777668, "ratio": 21.9}, {"name": "Emerson School", "district": "Portland SD 1J", "city": "Portland", "level": 1, "low_grade": 0, "high_grade": 5, "enrollment": 106, "teachers": 8, "lunch_pct": 0.0, "charter": true, "lat": 45.52394, "lng": -122.679421, "ratio": 13.2}, {"name": "Portland Village School", "district": "Portland SD 1J", "city": "Portland", "level": 1, "low_grade": 0, "high_grade": 8, "enrollment": 410, "teachers": 27, "lunch_pct": 23.4, "charter": true, "lat": 45.5786, "lng": -122.6919, "ratio": 15.2}, {"name": "Portland Arthur Academy Charter School", "district": "Portland SD 1J", "city": "Portland", "level": 1, "low_grade": 0, "high_grade": 5, "enrollment": 150, "teachers": 10, "lunch_pct": 28.0, "charter": true, "lat": 45.5168, "lng": -122.586, "ratio": 15.0}, {"name": "Creative Science School", "district": "Portland SD 1J", "city": "Portland", "level": 1, "low_grade": 0, "high_grade": 8, "enrollment": 423, "teachers": 23, "lunch_pct": 26.0, "charter": false, "lat": 45.513709, "lng": -122.570042, "ratio": 18.4}, {"name": "Le Monde French Immersion Public Charter School", "district": "Portland SD 1J", "city": "Portland", "level": 1, "low_grade": 0, "high_grade": 8, "enrollment": 381, "teachers": 27, "lunch_pct": 0.0, "charter": true, "lat": 45.522606, "lng": -122.644656, "ratio": 14.1}, {"name": "Kairos PDX", "district": "Portland SD 1J", "city": "Portland", "level": 1, "low_grade": 0, "high_grade": 5, "enrollment": 245, "teachers": 17, "lunch_pct": 32.7, "charter": true, "lat": 45.549357, "lng": -122.66733, "ratio": 14.4}, {"name": "Rose City Park", "district": "Portland SD 1J", "city": "Portland", "level": 1, "low_grade": 0, "high_grade": 5, "enrollment": 467, "teachers": 29, "lunch_pct": 64.5, "charter": false, "lat": 45.539379, "lng": -122.604594, "ratio": 16.1}, {"name": "Alder Elementary School", "district": "Reynolds SD 7", "city": "Portland", "level": 1, "low_grade": 0, "high_grade": 5, "enrollment": 388, "teachers": 24, "lunch_pct": 67.8, "charter": false, "lat": 45.5172, "lng": -122.4863, "ratio": 16.2}, {"name": "Glenfair Elementary School", "district": "Reynolds SD 7", "city": "Portland", "level": 1, "low_grade": 0, "high_grade": 5, "enrollment": 429, "teachers": 27, "lunch_pct": 99.5, "charter": false, "lat": 45.5257, "lng": -122.506, "ratio": 15.9}, {"name": "Hartley Elementary School", "district": "Reynolds SD 7", "city": "Portland", "level": 1, "low_grade": 0, "high_grade": 5, "enrollment": 325, "teachers": 23, "lunch_pct": 98.2, "charter": false, "lat": 45.5283, "lng": -122.4722, "ratio": 14.1}, {"name": "Margaret Scott Elementary School", "district": "Reynolds SD 7", "city": "Portland", "level": 1, "low_grade": 0, "high_grade": 5, "enrollment": 322, "teachers": 23, "lunch_pct": 100.6, "charter": false, "lat": 45.539, "lng": -122.5118, "ratio": 14.0}, {"name": "Davis Elementary School", "district": "Reynolds SD 7", "city": "Portland", "level": 1, "low_grade": 0, "high_grade": 5, "enrollment": 373, "teachers": 26, "lunch_pct": 98.1, "charter": false, "lat": 45.5235, "lng": -122.4622, "ratio": 14.3}, {"name": "Wilkes Elementary School", "district": "Reynolds SD 7", "city": "Portland", "level": 1, "low_grade": 0, "high_grade": 5, "enrollment": 443, "teachers": 30, "lunch_pct": 99.8, "charter": false, "lat": 45.540886, "lng": -122.488546, "ratio": 14.8}, {"name": "Rockwood Preparatory Academy", "district": "Reynolds SD 7", "city": "Portland", "level": 1, "low_grade": 0, "high_grade": 5, "enrollment": 351, "teachers": 11, "lunch_pct": 66.1, "charter": true, "lat": 45.517186, "lng": -122.475222, "ratio": 31.9}, {"name": "HOLLA School", "district": "Reynolds SD 7", "city": "Portland", "level": 1, "low_grade": 0, "high_grade": 2, "enrollment": 45, "teachers": 0, "lunch_pct": 0.0, "charter": true, "lat": 45.519477, "lng": -122.492866, "ratio": 45.0}, {"name": "Riverdale Grade School", "district": "Riverdale SD 51J", "city": "Portland", "level": 1, "low_grade": 0, "high_grade": 8, "enrollment": 410, "teachers": 26, "lunch_pct": 0.0, "charter": false, "lat": 45.43996, "lng": -122.655996, "ratio": 15.8}, {"name": "Sauvie Island School", "district": "Scappoose SD 1J", "city": "Portland", "level": 1, "low_grade": 0, "high_grade": 8, "enrollment": 211, "teachers": 13, "lunch_pct": 19.9, "charter": true, "lat": 45.6555, "lng": -122.8257, "ratio": 16.2}], "middle": [{"name": "Cedar Park Middle School", "district": "Beaverton SD 48J", "city": "Portland", "level": 2, "low_grade": 6, "high_grade": 8, "enrollment": 653, "teachers": 36, "lunch_pct": 45.9, "charter": false, "lat": 45.5061, "lng": -122.7914, "ratio": 18.1}, {"name": "Stoller Middle School", "district": "Beaverton SD 48J", "city": "Portland", "level": 2, "low_grade": 6, "high_grade": 8, "enrollment": 924, "teachers": 42, "lunch_pct": 12.2, "charter": false, "lat": 45.5573, "lng": -122.8226, "ratio": 22.0}, {"name": "Tumwater Middle School", "district": "Beaverton SD 48J", "city": "Portland", "level": 2, "low_grade": 6, "high_grade": 8, "enrollment": 998, "teachers": 43, "lunch_pct": 14.9, "charter": false, "lat": 45.523892, "lng": -122.798388, "ratio": 23.2}, {"name": "Centennial Middle School", "district": "Centennial SD 28J", "city": "Portland", "level": 2, "low_grade": 6, "high_grade": 8, "enrollment": 876, "teachers": 41, "lunch_pct": 67.9, "charter": false, "lat": 45.5015, "lng": -122.4793, "ratio": 21.4}, {"name": "Oliver Middle", "district": "Centennial SD 28J", "city": "Portland", "level": 2, "low_grade": 6, "high_grade": 8, "enrollment": 457, "teachers": 20, "lunch_pct": 68.7, "charter": false, "lat": 45.51545, "lng": -122.499725, "ratio": 22.9}, {"name": "Floyd Light Middle School", "district": "David Douglas SD 40", "city": "Portland", "level": 2, "low_grade": 6, "high_grade": 8, "enrollment": 635, "teachers": 36, "lunch_pct": 78.3, "charter": false, "lat": 45.5176, "lng": -122.552, "ratio": 17.6}, {"name": "Alice Ott Middle School", "district": "David Douglas SD 40", "city": "Portland", "level": 2, "low_grade": 6, "high_grade": 8, "enrollment": 582, "teachers": 30, "lunch_pct": 76.8, "charter": false, "lat": 45.479657, "lng": -122.534985, "ratio": 19.4}, {"name": "Ron Russell Middle School", "district": "David Douglas SD 40", "city": "Portland", "level": 2, "low_grade": 6, "high_grade": 8, "enrollment": 770, "teachers": 45, "lunch_pct": 76.9, "charter": false, "lat": 45.494, "lng": -122.549, "ratio": 17.1}, {"name": "Parkrose Middle School", "district": "Parkrose SD 3", "city": "Portland", "level": 2, "low_grade": 6, "high_grade": 8, "enrollment": 669, "teachers": 34, "lunch_pct": 70.7, "charter": false, "lat": 45.550137, "lng": -122.540587, "ratio": 19.7}, {"name": "Beaumont Middle School", "district": "Portland SD 1J", "city": "Portland", "level": 2, "low_grade": 6, "high_grade": 8, "enrollment": 446, "teachers": 26, "lunch_pct": 65.0, "charter": false, "lat": 45.5489, "lng": -122.6208, "ratio": 17.2}, {"name": "George Middle School", "district": "Portland SD 1J", "city": "Portland", "level": 2, "low_grade": 6, "high_grade": 8, "enrollment": 387, "teachers": 29, "lunch_pct": 64.3, "charter": false, "lat": 45.5961, "lng": -122.7367, "ratio": 13.3}, {"name": "Gray Middle School", "district": "Portland SD 1J", "city": "Portland", "level": 2, "low_grade": 6, "high_grade": 8, "enrollment": 483, "teachers": 23, "lunch_pct": 20.7, "charter": false, "lat": 45.4824, "lng": -122.7013, "ratio": 21.0}, {"name": "Hosford Middle School", "district": "Portland SD 1J", "city": "Portland", "level": 2, "low_grade": 6, "high_grade": 8, "enrollment": 566, "teachers": 27, "lunch_pct": 27.4, "charter": false, "lat": 45.5062, "lng": -122.6371, "ratio": 21.0}, {"name": "Lane Middle School", "district": "Portland SD 1J", "city": "Portland", "level": 2, "low_grade": 6, "high_grade": 8, "enrollment": 334, "teachers": 25, "lunch_pct": 66.8, "charter": false, "lat": 45.4713, "lng": -122.6016, "ratio": 13.4}, {"name": "Mt Tabor Middle School", "district": "Portland SD 1J", "city": "Portland", "level": 2, "low_grade": 6, "high_grade": 8, "enrollment": 606, "teachers": 31, "lunch_pct": 15.2, "charter": false, "lat": 45.521059, "lng": -122.604261, "ratio": 19.5}, {"name": "Ockley Green Middle School", "district": "Portland SD 1J", "city": "Portland", "level": 2, "low_grade": 6, "high_grade": 8, "enrollment": 483, "teachers": 28, "lunch_pct": 65.0, "charter": false, "lat": 45.567, "lng": -122.6807, "ratio": 17.2}, {"name": "Roseway Heights School", "district": "Portland SD 1J", "city": "Portland", "level": 2, "low_grade": 6, "high_grade": 8, "enrollment": 576, "teachers": 36, "lunch_pct": 65.8, "charter": false, "lat": 45.544, "lng": -122.5876, "ratio": 16.0}, {"name": "Sellwood Middle School", "district": "Portland SD 1J", "city": "Portland", "level": 2, "low_grade": 6, "high_grade": 8, "enrollment": 563, "teachers": 26, "lunch_pct": 12.1, "charter": false, "lat": 45.4626, "lng": -122.6506, "ratio": 21.7}, {"name": "West Sylvan Middle School", "district": "Portland SD 1J", "city": "Portland", "level": 2, "low_grade": 6, "high_grade": 8, "enrollment": 757, "teachers": 37, "lunch_pct": 13.1, "charter": false, "lat": 45.504712, "lng": -122.760447, "ratio": 20.5}, {"name": "da Vinci Middle School", "district": "Portland SD 1J", "city": "Portland", "level": 2, "low_grade": 6, "high_grade": 8, "enrollment": 434, "teachers": 24, "lunch_pct": 34.1, "charter": false, "lat": 45.5246, "lng": -122.6402, "ratio": 18.1}, {"name": "Harriet Tubman Middle School", "district": "Portland SD 1J", "city": "Portland", "level": 2, "low_grade": 6, "high_grade": 8, "enrollment": 360, "teachers": 24, "lunch_pct": 64.7, "charter": false, "lat": 45.539001, "lng": -122.668809, "ratio": 15.0}, {"name": "Jackson Middle School", "district": "Portland SD 1J", "city": "Portland", "level": 2, "low_grade": 6, "high_grade": 8, "enrollment": 791, "teachers": 35, "lunch_pct": 25.7, "charter": false, "lat": 45.448557, "lng": -122.714215, "ratio": 22.6}, {"name": "Kellogg Middle School", "district": "Portland SD 1J", "city": "Portland", "level": 2, "low_grade": 6, "high_grade": 8, "enrollment": 658, "teachers": 38, "lunch_pct": 66.1, "charter": false, "lat": 45.498264, "lng": -122.591499, "ratio": 17.3}, {"name": "Hauton B Lee Middle School", "district": "Reynolds SD 7", "city": "Portland", "level": 2, "low_grade": 6, "high_grade": 8, "enrollment": 651, "teachers": 38, "lunch_pct": 100.6, "charter": false, "lat": 45.5314, "lng": -122.4877, "ratio": 17.1}], "high": [{"name": "Westview High School", "district": "Beaverton SD 48J", "city": "Portland", "level": 3, "low_grade": 9, "high_grade": 12, "enrollment": 2442, "teachers": 108, "lunch_pct": 29.1, "charter": false, "lat": 45.5503, "lng": -122.8658, "ratio": 22.6}, {"name": "Sunset High School", "district": "Beaverton SD 48J", "city": "Portland", "level": 3, "low_grade": 9, "high_grade": 12, "enrollment": 1962, "teachers": 85, "lunch_pct": 15.0, "charter": false, "lat": 45.528, "lng": -122.8199, "ratio": 23.1}, {"name": "David Douglas High School", "district": "David Douglas SD 40", "city": "Portland", "level": 3, "low_grade": 9, "high_grade": 12, "enrollment": 2698, "teachers": 144, "lunch_pct": 73.2, "charter": false, "lat": 45.5157, "lng": -122.5264, "ratio": 18.7}, {"name": "Parkrose High School", "district": "Parkrose SD 3", "city": "Portland", "level": 3, "low_grade": 9, "high_grade": 12, "enrollment": 998, "teachers": 43, "lunch_pct": 71.6, "charter": false, "lat": 45.5531, "lng": -122.5401, "ratio": 23.2}, {"name": "Benson Polytechnic High School", "district": "Portland SD 1J", "city": "Portland", "level": 3, "low_grade": 9, "high_grade": 12, "enrollment": 824, "teachers": 59, "lunch_pct": 64.8, "charter": false, "lat": 45.493749, "lng": -122.572439, "ratio": 14.0}, {"name": "Cleveland High School", "district": "Portland SD 1J", "city": "Portland", "level": 3, "low_grade": 9, "high_grade": 12, "enrollment": 1547, "teachers": 78, "lunch_pct": 16.9, "charter": false, "lat": 45.4985, "lng": -122.6391, "ratio": 19.8}, {"name": "Franklin High School", "district": "Portland SD 1J", "city": "Portland", "level": 3, "low_grade": 9, "high_grade": 12, "enrollment": 1966, "teachers": 105, "lunch_pct": 36.6, "charter": false, "lat": 45.502271, "lng": -122.606886, "ratio": 18.7}, {"name": "Grant High School", "district": "Portland SD 1J", "city": "Portland", "level": 3, "low_grade": 9, "high_grade": 12, "enrollment": 2156, "teachers": 101, "lunch_pct": 14.1, "charter": false, "lat": 45.539, "lng": -122.6268, "ratio": 21.3}, {"name": "Jefferson High School", "district": "Portland SD 1J", "city": "Portland", "level": 3, "low_grade": 9, "high_grade": 12, "enrollment": 606, "teachers": 47, "lunch_pct": 64.5, "charter": false, "lat": 45.560536, "lng": -122.671936, "ratio": 12.9}, {"name": "Lincoln High School", "district": "Portland SD 1J", "city": "Portland", "level": 3, "low_grade": 9, "high_grade": 12, "enrollment": 1525, "teachers": 75, "lunch_pct": 11.0, "charter": false, "lat": 45.519344, "lng": -122.691262, "ratio": 20.3}, {"name": "Leodis V. McDaniel High School", "district": "Portland SD 1J", "city": "Portland", "level": 3, "low_grade": 9, "high_grade": 12, "enrollment": 1440, "teachers": 91, "lunch_pct": 65.0, "charter": false, "lat": 45.541967, "lng": -122.580962, "ratio": 15.8}, {"name": "Ida B. Wells-Barnett High School", "district": "Portland SD 1J", "city": "Portland", "level": 3, "low_grade": 9, "high_grade": 12, "enrollment": 1556, "teachers": 76, "lunch_pct": 14.1, "charter": false, "lat": 45.477443, "lng": -122.689848, "ratio": 20.5}, {"name": "Alliance High School", "district": "Portland SD 1J", "city": "Portland", "level": 3, "low_grade": 9, "high_grade": 12, "enrollment": 193, "teachers": 24, "lunch_pct": 69.9, "charter": false, "lat": 45.5586, "lng": -122.6221, "ratio": 8.0}, {"name": "Roosevelt High School", "district": "Portland SD 1J", "city": "Portland", "level": 3, "low_grade": 9, "high_grade": 12, "enrollment": 1484, "teachers": 89, "lunch_pct": 65.2, "charter": false, "lat": 45.58911, "lng": -122.738383, "ratio": 16.7}, {"name": "Riverdale High School", "district": "Riverdale SD 51J", "city": "Portland", "level": 3, "low_grade": 9, "high_grade": 12, "enrollment": 185, "teachers": 15, "lunch_pct": 0.0, "charter": false, "lat": 45.4543, "lng": -122.6846, "ratio": 12.3}, {"name": "Helensview High School", "district": "Multnomah ESD", "city": "Portland", "level": 3, "low_grade": 6, "high_grade": 12, "enrollment": 120, "teachers": 7, "lunch_pct": 50.0, "charter": false, "lat": 45.5613, "lng": -122.5742, "ratio": 17.1}, {"name": "Multnomah Inverness School", "district": "Multnomah ESD", "city": "Portland", "level": 3, "low_grade": 12, "high_grade": 12, "enrollment": 8, "teachers": 0, "lunch_pct": 0.0, "charter": false, "lat": 45.563364, "lng": -122.543487, "ratio": 8.0}, {"name": "Hassolo School", "district": "Multnomah ESD", "city": "Portland", "level": 3, "low_grade": 6, "high_grade": 12, "enrollment": 5, "teachers": 0, "lunch_pct": 0.0, "charter": false, "lat": 45.531333, "lng": -122.595156, "ratio": 5.0}]}, "vale": {"elem": [{"name": "Vale Elementary School", "district": "Vale SD 84", "city": "Vale", "level": 1, "low_grade": 0, "high_grade": 6, "enrollment": 436, "teachers": 24, "lunch_pct": 870.0, "charter": false, "lat": 43.978626, "lng": -117.243266, "ratio": 18.2}, {"name": "Willowcreek Elementary School", "district": "Vale SD 84", "city": "Vale", "level": 1, "low_grade": 1, "high_grade": 8, "enrollment": 84, "teachers": 5, "lunch_pct": 885.7, "charter": false, "lat": 44.1131, "lng": -117.3657, "ratio": 16.8}], "middle": [{"name": "Vale Middle School", "district": "Vale SD 84", "city": "Vale", "level": 2, "low_grade": 7, "high_grade": 8, "enrollment": 135, "teachers": 8, "lunch_pct": 658.5, "charter": false, "lat": 43.978893, "lng": -117.252461, "ratio": 16.9}], "high": [{"name": "Vale High School", "district": "Vale SD 84", "city": "Vale", "level": 3, "low_grade": 9, "high_grade": 12, "enrollment": 291, "teachers": 18, "lunch_pct": 223.4, "charter": false, "lat": 43.978893, "lng": -117.252461, "ratio": 16.2}]}, "gervais": {"elem": [{"name": "Gervais Elementary School", "district": "Gervais SD 1", "city": "Gervais", "level": 1, "low_grade": 0, "high_grade": 5, "enrollment": 374, "teachers": 23, "lunch_pct": 74.6, "charter": false, "lat": 45.106191, "lng": -122.897505, "ratio": 16.3}], "middle": [{"name": "Gervais Middle School", "district": "Gervais SD 1", "city": "Gervais", "level": 2, "low_grade": 6, "high_grade": 8, "enrollment": 186, "teachers": 13, "lunch_pct": 75.8, "charter": false, "lat": 45.103694, "lng": -122.893841, "ratio": 14.3}], "high": [{"name": "Gervais High School", "district": "Gervais SD 1", "city": "Gervais", "level": 3, "low_grade": 9, "high_grade": 12, "enrollment": 317, "teachers": 20, "lunch_pct": 74.8, "charter": false, "lat": 45.103694, "lng": -122.893841, "ratio": 15.8}]}, "carlton": {"elem": [{"name": "Yamhill Carlton Elementary School", "district": "Yamhill Carlton SD 1", "city": "Carlton", "level": 1, "low_grade": 0, "high_grade": 3, "enrollment": 301, "teachers": 17, "lunch_pct": 28.6, "charter": false, "lat": 45.290958, "lng": -123.172928, "ratio": 17.7}], "middle": [], "high": []}, "yamhill": {"elem": [], "middle": [{"name": "Yamhill Carlton Intermediate School", "district": "Yamhill Carlton SD 1", "city": "Yamhill", "level": 2, "low_grade": 4, "high_grade": 8, "enrollment": 328, "teachers": 16, "lunch_pct": 33.5, "charter": false, "lat": 45.341875, "lng": -123.185773, "ratio": 20.5}], "high": [{"name": "Yamhill Carlton High School", "district": "Yamhill Carlton SD 1", "city": "Yamhill", "level": 3, "low_grade": 9, "high_grade": 12, "enrollment": 292, "teachers": 17, "lunch_pct": 28.1, "charter": false, "lat": 45.343258, "lng": -123.186973, "ratio": 17.2}]}, "harrisburg": {"elem": [{"name": "Harrisburg Elementary School", "district": "Harrisburg SD 7J", "city": "Harrisburg", "level": 1, "low_grade": 0, "high_grade": 4, "enrollment": 288, "teachers": 18, "lunch_pct": 65.6, "charter": false, "lat": 44.272031, "lng": -123.164536, "ratio": 16.0}], "middle": [{"name": "Harrisburg Middle School", "district": "Harrisburg SD 7J", "city": "Harrisburg", "level": 2, "low_grade": 5, "high_grade": 8, "enrollment": 238, "teachers": 13, "lunch_pct": 66.4, "charter": false, "lat": 44.271653, "lng": -123.165656, "ratio": 18.3}], "high": [{"name": "Harrisburg High School", "district": "Harrisburg SD 7J", "city": "Harrisburg", "level": 3, "low_grade": 9, "high_grade": 12, "enrollment": 250, "teachers": 15, "lunch_pct": 33.2, "charter": false, "lat": 44.269256, "lng": -123.160742, "ratio": 16.7}]}, "lyons": {"elem": [{"name": "Mari-Linn Elementary School", "district": "North Santiam SD 29J", "city": "Lyons", "level": 1, "low_grade": 0, "high_grade": 8, "enrollment": 184, "teachers": 11, "lunch_pct": 70.1, "charter": false, "lat": 44.7793, "lng": -122.6168, "ratio": 16.7}], "middle": [], "high": []}, "sublimity": {"elem": [{"name": "Sublimity Elementary School", "district": "North Santiam SD 29J", "city": "Sublimity", "level": 1, "low_grade": 0, "high_grade": 8, "enrollment": 357, "teachers": 21, "lunch_pct": 27.2, "charter": false, "lat": 44.8305, "lng": -122.787, "ratio": 17.0}], "middle": [], "high": []}, "stayton": {"elem": [{"name": "Stayton Elementary School", "district": "North Santiam SD 29J", "city": "Stayton", "level": 1, "low_grade": 0, "high_grade": 3, "enrollment": 322, "teachers": 22, "lunch_pct": 76.7, "charter": false, "lat": 44.801651, "lng": -122.793412, "ratio": 14.6}], "middle": [{"name": "Stayton Middle School", "district": "North Santiam SD 29J", "city": "Stayton", "level": 2, "low_grade": 4, "high_grade": 8, "enrollment": 450, "teachers": 30, "lunch_pct": 71.1, "charter": false, "lat": 44.8107, "lng": -122.8038, "ratio": 15.0}], "high": [{"name": "Stayton High School", "district": "North Santiam SD 29J", "city": "Stayton", "level": 3, "low_grade": 9, "high_grade": 12, "enrollment": 697, "teachers": 39, "lunch_pct": 53.1, "charter": false, "lat": 44.803194, "lng": -122.801151, "ratio": 17.9}]}, "maupin": {"elem": [{"name": "Maupin Elementary School", "district": "South Wasco County SD 1", "city": "Maupin", "level": 1, "low_grade": 0, "high_grade": 6, "enrollment": 112, "teachers": 9, "lunch_pct": 62.5, "charter": false, "lat": 45.1763, "lng": -121.0793, "ratio": 12.4}], "middle": [], "high": [{"name": "South Wasco County High School", "district": "South Wasco County SD 1", "city": "Maupin", "level": 3, "low_grade": 7, "high_grade": 12, "enrollment": 112, "teachers": 8, "lunch_pct": 88.4, "charter": false, "lat": 45.1774, "lng": -121.0814, "ratio": 14.0}]}, "hillsboro": {"elem": [{"name": "West Union Elementary School", "district": "Hillsboro SD 1J", "city": "Hillsboro", "level": 1, "low_grade": 0, "high_grade": 6, "enrollment": 312, "teachers": 19, "lunch_pct": 67.0, "charter": false, "lat": 45.577, "lng": -122.924, "ratio": 16.4}, {"name": "Brookwood Elementary School", "district": "Hillsboro SD 1J", "city": "Hillsboro", "level": 1, "low_grade": 0, "high_grade": 6, "enrollment": 333, "teachers": 20, "lunch_pct": 69.1, "charter": false, "lat": 45.515318, "lng": -122.941785, "ratio": 16.6}, {"name": "Eastwood Elementary School", "district": "Hillsboro SD 1J", "city": "Hillsboro", "level": 1, "low_grade": 0, "high_grade": 6, "enrollment": 378, "teachers": 23, "lunch_pct": 69.6, "charter": false, "lat": 45.5236, "lng": -122.9599, "ratio": 16.4}, {"name": "W Verne McKinney Elementary School", "district": "Hillsboro SD 1J", "city": "Hillsboro", "level": 1, "low_grade": 0, "high_grade": 6, "enrollment": 408, "teachers": 24, "lunch_pct": 69.1, "charter": false, "lat": 45.5306, "lng": -122.9955, "ratio": 17.0}, {"name": "Mooberry Elementary School", "district": "Hillsboro SD 1J", "city": "Hillsboro", "level": 1, "low_grade": 0, "high_grade": 6, "enrollment": 381, "teachers": 24, "lunch_pct": 66.4, "charter": false, "lat": 45.5338, "lng": -122.9719, "ratio": 15.9}, {"name": "W L Henry Elementary School", "district": "Hillsboro SD 1J", "city": "Hillsboro", "level": 1, "low_grade": 0, "high_grade": 6, "enrollment": 318, "teachers": 18, "lunch_pct": 73.6, "charter": false, "lat": 45.512, "lng": -122.9566, "ratio": 17.7}, {"name": "Ladd Acres Elementary School", "district": "Hillsboro SD 1J", "city": "Hillsboro", "level": 1, "low_grade": 0, "high_grade": 6, "enrollment": 411, "teachers": 21, "lunch_pct": 36.5, "charter": false, "lat": 45.5021, "lng": -122.9034, "ratio": 19.6}, {"name": "Witch Hazel Elementary School", "district": "Hillsboro SD 1J", "city": "Hillsboro", "level": 1, "low_grade": 0, "high_grade": 6, "enrollment": 433, "teachers": 27, "lunch_pct": 67.9, "charter": false, "lat": 45.493527, "lng": -122.932306, "ratio": 16.0}, {"name": "Groner K-8", "district": "Hillsboro SD 1J", "city": "Hillsboro", "level": 1, "low_grade": 0, "high_grade": 8, "enrollment": 154, "teachers": 13, "lunch_pct": 38.3, "charter": false, "lat": 45.4178, "lng": -122.92, "ratio": 11.8}, {"name": "Farmington View Elementary School", "district": "Hillsboro SD 1J", "city": "Hillsboro", "level": 1, "low_grade": 0, "high_grade": 6, "enrollment": 245, "teachers": 13, "lunch_pct": 34.7, "charter": false, "lat": 45.4602, "lng": -122.9914, "ratio": 18.8}, {"name": "Minter Bridge Elementary School", "district": "Hillsboro SD 1J", "city": "Hillsboro", "level": 1, "low_grade": 0, "high_grade": 6, "enrollment": 351, "teachers": 21, "lunch_pct": 68.7, "charter": false, "lat": 45.4972, "lng": -122.9634, "ratio": 16.7}, {"name": "Jackson Elementary School", "district": "Hillsboro SD 1J", "city": "Hillsboro", "level": 1, "low_grade": 0, "high_grade": 6, "enrollment": 389, "teachers": 22, "lunch_pct": 24.9, "charter": false, "lat": 45.5438, "lng": -122.9815, "ratio": 17.7}, {"name": "Orenco Elementary School", "district": "Hillsboro SD 1J", "city": "Hillsboro", "level": 1, "low_grade": 0, "high_grade": 6, "enrollment": 476, "teachers": 25, "lunch_pct": 37.4, "charter": false, "lat": 45.5284, "lng": -122.9076, "ratio": 19.0}, {"name": "Paul L Patterson Elementary School", "district": "Hillsboro SD 1J", "city": "Hillsboro", "level": 1, "low_grade": 0, "high_grade": 6, "enrollment": 404, "teachers": 19, "lunch_pct": 29.5, "charter": false, "lat": 45.5462, "lng": -122.9926, "ratio": 21.3}, {"name": "City View Charter School", "district": "Hillsboro SD 1J", "city": "Hillsboro", "level": 1, "low_grade": 0, "high_grade": 8, "enrollment": 313, "teachers": 15, "lunch_pct": 17.6, "charter": true, "lat": 45.511804, "lng": -122.939508, "ratio": 20.9}, {"name": "Lincoln Street Elementary School", "district": "Hillsboro SD 1J", "city": "Hillsboro", "level": 1, "low_grade": 0, "high_grade": 6, "enrollment": 366, "teachers": 22, "lunch_pct": 67.8, "charter": false, "lat": 45.524129, "lng": -122.977302, "ratio": 16.6}, {"name": "Quatama Elementary School", "district": "Hillsboro SD 1J", "city": "Hillsboro", "level": 1, "low_grade": 0, "high_grade": 6, "enrollment": 502, "teachers": 25, "lunch_pct": 33.5, "charter": false, "lat": 45.53268, "lng": -122.908773, "ratio": 20.1}, {"name": "Imlay Elementary School", "district": "Hillsboro SD 1J", "city": "Hillsboro", "level": 1, "low_grade": 0, "high_grade": 6, "enrollment": 468, "teachers": 25, "lunch_pct": 34.8, "charter": false, "lat": 45.5119, "lng": -122.921, "ratio": 18.7}], "middle": [{"name": "R A Brown Middle School", "district": "Hillsboro SD 1J", "city": "Hillsboro", "level": 2, "low_grade": 7, "high_grade": 8, "enrollment": 722, "teachers": 37, "lunch_pct": 46.5, "charter": false, "lat": 45.5096, "lng": -122.9031, "ratio": 19.5}, {"name": "J W Poynter Middle School", "district": "Hillsboro SD 1J", "city": "Hillsboro", "level": 2, "low_grade": 7, "high_grade": 8, "enrollment": 654, "teachers": 34, "lunch_pct": 62.4, "charter": false, "lat": 45.5285, "lng": -122.9663, "ratio": 19.2}, {"name": "South Meadows Middle School", "district": "Hillsboro SD 1J", "city": "Hillsboro", "level": 2, "low_grade": 7, "high_grade": 8, "enrollment": 709, "teachers": 34, "lunch_pct": 67.6, "charter": false, "lat": 45.493139, "lng": -122.933977, "ratio": 20.9}, {"name": "Evergreen Jr High School", "district": "Hillsboro SD 1J", "city": "Hillsboro", "level": 2, "low_grade": 7, "high_grade": 8, "enrollment": 742, "teachers": 36, "lunch_pct": 54.9, "charter": false, "lat": 45.5482, "lng": -122.9848, "ratio": 20.6}], "high": [{"name": "Century High School", "district": "Hillsboro SD 1J", "city": "Hillsboro", "level": 3, "low_grade": 9, "high_grade": 12, "enrollment": 1551, "teachers": 71, "lunch_pct": 46.0, "charter": false, "lat": 45.5039, "lng": -122.9152, "ratio": 21.8}, {"name": "Hillsboro High School", "district": "Hillsboro SD 1J", "city": "Hillsboro", "level": 3, "low_grade": 9, "high_grade": 12, "enrollment": 1359, "teachers": 68, "lunch_pct": 67.5, "charter": false, "lat": 45.4947, "lng": -122.9588, "ratio": 20.0}, {"name": "Glencoe High School", "district": "Hillsboro SD 1J", "city": "Hillsboro", "level": 3, "low_grade": 9, "high_grade": 12, "enrollment": 1500, "teachers": 70, "lunch_pct": 46.5, "charter": false, "lat": 45.5419, "lng": -122.9927, "ratio": 21.4}, {"name": "Liberty High School", "district": "Hillsboro SD 1J", "city": "Hillsboro", "level": 3, "low_grade": 9, "high_grade": 12, "enrollment": 1454, "teachers": 71, "lunch_pct": 45.5, "charter": false, "lat": 45.562495, "lng": -122.902566, "ratio": 20.5}, {"name": "Beaverton Academy of Science and Engineering", "district": "Beaverton SD 48J", "city": "Hillsboro", "level": 3, "low_grade": 6, "high_grade": 12, "enrollment": 822, "teachers": 38, "lunch_pct": 33.3, "charter": false, "lat": 45.527196, "lng": -122.869619, "ratio": 21.6}]}, "aloha": {"elem": [{"name": "Tobias Elementary School", "district": "Hillsboro SD 1J", "city": "Aloha", "level": 1, "low_grade": 0, "high_grade": 6, "enrollment": 411, "teachers": 23, "lunch_pct": 44.8, "charter": false, "lat": 45.5121, "lng": -122.8905, "ratio": 17.9}, {"name": "Butternut Creek Elementary School", "district": "Hillsboro SD 1J", "city": "Aloha", "level": 1, "low_grade": 0, "high_grade": 6, "enrollment": 334, "teachers": 17, "lunch_pct": 45.8, "charter": false, "lat": 45.4871, "lng": -122.8869, "ratio": 19.6}, {"name": "Reedville Elementary School", "district": "Hillsboro SD 1J", "city": "Aloha", "level": 1, "low_grade": -1, "high_grade": 6, "enrollment": 213, "teachers": 18, "lunch_pct": 71.4, "charter": false, "lat": 45.5002, "lng": -122.892, "ratio": 11.8}, {"name": "Indian Hills Elementary School", "district": "Hillsboro SD 1J", "city": "Aloha", "level": 1, "low_grade": 0, "high_grade": 6, "enrollment": 389, "teachers": 21, "lunch_pct": 40.4, "charter": false, "lat": 45.5069, "lng": -122.8953, "ratio": 18.5}, {"name": "Hazeldale Elementary School", "district": "Beaverton SD 48J", "city": "Aloha", "level": 1, "low_grade": 0, "high_grade": 5, "enrollment": 429, "teachers": 28, "lunch_pct": 64.8, "charter": false, "lat": 45.4692, "lng": -122.8832, "ratio": 15.3}], "middle": [], "high": []}, "north plains": {"elem": [{"name": "North Plains Elementary School", "district": "Hillsboro SD 1J", "city": "North Plains", "level": 1, "low_grade": 0, "high_grade": 6, "enrollment": 181, "teachers": 11, "lunch_pct": 29.8, "charter": false, "lat": 45.6017, "lng": -123.0071, "ratio": 16.5}, {"name": "Atfalati Ridge", "district": "Hillsboro SD 1J", "city": "North Plains", "level": 1, "low_grade": 0, "high_grade": 6, "enrollment": 189, "teachers": 10, "lunch_pct": 15.3, "charter": false, "lat": 45.592859, "lng": -122.977884, "ratio": 18.9}], "middle": [], "high": []}, "beaverton": {"elem": [{"name": "Rosedale Elementary School", "district": "Hillsboro SD 1J", "city": "Beaverton", "level": 1, "low_grade": 0, "high_grade": 6, "enrollment": 438, "teachers": 23, "lunch_pct": 36.1, "charter": false, "lat": 45.491401, "lng": -122.914765, "ratio": 19.0}, {"name": "Nancy Ryles Elementary School", "district": "Beaverton SD 48J", "city": "Beaverton", "level": 1, "low_grade": 0, "high_grade": 5, "enrollment": 508, "teachers": 26, "lunch_pct": 31.7, "charter": false, "lat": 45.4451, "lng": -122.8435, "ratio": 19.5}, {"name": "Aloha-Huber Park School", "district": "Beaverton SD 48J", "city": "Beaverton", "level": 1, "low_grade": -1, "high_grade": 8, "enrollment": 887, "teachers": 57, "lunch_pct": 67.2, "charter": false, "lat": 45.483965, "lng": -122.85382, "ratio": 15.6}, {"name": "Barnes Elementary School", "district": "Beaverton SD 48J", "city": "Beaverton", "level": 1, "low_grade": -1, "high_grade": 5, "enrollment": 478, "teachers": 29, "lunch_pct": 68.2, "charter": false, "lat": 45.5063, "lng": -122.8184, "ratio": 16.5}, {"name": "Beaver Acres Elementary School", "district": "Beaverton SD 48J", "city": "Beaverton", "level": 1, "low_grade": -1, "high_grade": 5, "enrollment": 755, "teachers": 47, "lunch_pct": 67.0, "charter": false, "lat": 45.50441, "lng": -122.852956, "ratio": 16.1}, {"name": "Bethany Elementary School", "district": "Beaverton SD 48J", "city": "Beaverton", "level": 1, "low_grade": 0, "high_grade": 5, "enrollment": 429, "teachers": 23, "lunch_pct": 21.4, "charter": false, "lat": 45.543, "lng": -122.8579, "ratio": 18.7}, {"name": "Chehalem Elementary School", "district": "Beaverton SD 48J", "city": "Beaverton", "level": 1, "low_grade": -1, "high_grade": 5, "enrollment": 383, "teachers": 26, "lunch_pct": 70.5, "charter": false, "lat": 45.4759, "lng": -122.8373, "ratio": 14.7}, {"name": "Cooper Mountain Elementary School", "district": "Beaverton SD 48J", "city": "Beaverton", "level": 1, "low_grade": 0, "high_grade": 5, "enrollment": 413, "teachers": 24, "lunch_pct": 12.6, "charter": false, "lat": 45.4646, "lng": -122.8507, "ratio": 17.2}, {"name": "Fir Grove Elementary School", "district": "Beaverton SD 48J", "city": "Beaverton", "level": 1, "low_grade": -1, "high_grade": 5, "enrollment": 362, "teachers": 23, "lunch_pct": 70.7, "charter": false, "lat": 45.4738, "lng": -122.8183, "ratio": 15.7}, {"name": "Hiteon Elementary School", "district": "Beaverton SD 48J", "city": "Beaverton", "level": 1, "low_grade": 0, "high_grade": 5, "enrollment": 488, "teachers": 26, "lunch_pct": 22.5, "charter": false, "lat": 45.4541, "lng": -122.8193, "ratio": 18.8}, {"name": "Kinnaman Elementary School", "district": "Beaverton SD 48J", "city": "Beaverton", "level": 1, "low_grade": 0, "high_grade": 5, "enrollment": 489, "teachers": 37, "lunch_pct": 64.4, "charter": false, "lat": 45.48926, "lng": -122.876286, "ratio": 13.2}, {"name": "McKay Elementary School", "district": "Beaverton SD 48J", "city": "Beaverton", "level": 1, "low_grade": -1, "high_grade": 5, "enrollment": 260, "teachers": 19, "lunch_pct": 71.9, "charter": false, "lat": 45.465586, "lng": -122.778254, "ratio": 13.7}, {"name": "McKinley Elementary School", "district": "Beaverton SD 48J", "city": "Beaverton", "level": 1, "low_grade": -1, "high_grade": 5, "enrollment": 650, "teachers": 40, "lunch_pct": 67.2, "charter": false, "lat": 45.5301, "lng": -122.8667, "ratio": 16.2}, {"name": "Oak Hills Elementary School", "district": "Beaverton SD 48J", "city": "Beaverton", "level": 1, "low_grade": 0, "high_grade": 5, "enrollment": 496, "teachers": 27, "lunch_pct": 22.6, "charter": false, "lat": 45.5388, "lng": -122.836, "ratio": 18.4}, {"name": "Vose Elementary School", "district": "Beaverton SD 48J", "city": "Beaverton", "level": 1, "low_grade": -1, "high_grade": 5, "enrollment": 704, "teachers": 45, "lunch_pct": 67.0, "charter": false, "lat": 45.4688, "lng": -122.7939, "ratio": 15.6}, {"name": "Greenway Elementary School", "district": "Beaverton SD 48J", "city": "Beaverton", "level": 1, "low_grade": -1, "high_grade": 5, "enrollment": 277, "teachers": 19, "lunch_pct": 73.3, "charter": false, "lat": 45.4537, "lng": -122.8019, "ratio": 14.6}, {"name": "Errol Hassell Elementary School", "district": "Beaverton SD 48J", "city": "Beaverton", "level": 1, "low_grade": 0, "high_grade": 5, "enrollment": 355, "teachers": 19, "lunch_pct": 35.2, "charter": false, "lat": 45.4663, "lng": -122.8632, "ratio": 18.7}, {"name": "Elmonica Elementary School", "district": "Beaverton SD 48J", "city": "Beaverton", "level": 1, "low_grade": 0, "high_grade": 5, "enrollment": 413, "teachers": 26, "lunch_pct": 41.4, "charter": false, "lat": 45.5157, "lng": -122.8516, "ratio": 15.9}, {"name": "Scholls Heights Elementary School", "district": "Beaverton SD 48J", "city": "Beaverton", "level": 1, "low_grade": 0, "high_grade": 5, "enrollment": 637, "teachers": 33, "lunch_pct": 15.9, "charter": false, "lat": 45.4305, "lng": -122.8452, "ratio": 19.3}, {"name": "Arco Iris Spanish Immersion School", "district": "Beaverton SD 48J", "city": "Beaverton", "level": 1, "low_grade": 0, "high_grade": 8, "enrollment": 393, "teachers": 23, "lunch_pct": 17.6, "charter": true, "lat": 45.46013, "lng": -122.794091, "ratio": 17.1}, {"name": "Hope Chinese Charter School", "district": "Beaverton SD 48J", "city": "Beaverton", "level": 1, "low_grade": 0, "high_grade": 8, "enrollment": 366, "teachers": 21, "lunch_pct": 0.0, "charter": true, "lat": 45.49451, "lng": -122.783891, "ratio": 17.4}, {"name": "Sexton Mountain Elementary School", "district": "Beaverton SD 48J", "city": "Beaverton", "level": 1, "low_grade": 0, "high_grade": 5, "enrollment": 467, "teachers": 28, "lunch_pct": 19.3, "charter": false, "lat": 45.4594, "lng": -122.8375, "ratio": 16.7}], "middle": [{"name": "Conestoga Middle School", "district": "Beaverton SD 48J", "city": "Beaverton", "level": 2, "low_grade": 6, "high_grade": 8, "enrollment": 786, "teachers": 41, "lunch_pct": 39.4, "charter": false, "lat": 45.4467, "lng": -122.8029, "ratio": 19.2}, {"name": "Five Oaks Middle School", "district": "Beaverton SD 48J", "city": "Beaverton", "level": 2, "low_grade": 6, "high_grade": 8, "enrollment": 781, "teachers": 45, "lunch_pct": 48.7, "charter": false, "lat": 45.5305, "lng": -122.8532, "ratio": 17.4}, {"name": "Meadow Park Middle School", "district": "Beaverton SD 48J", "city": "Beaverton", "level": 2, "low_grade": 6, "high_grade": 8, "enrollment": 697, "teachers": 42, "lunch_pct": 65.4, "charter": false, "lat": 45.5152, "lng": -122.8235, "ratio": 16.6}, {"name": "Mountain View Middle School", "district": "Beaverton SD 48J", "city": "Beaverton", "level": 2, "low_grade": 6, "high_grade": 8, "enrollment": 887, "teachers": 49, "lunch_pct": 63.8, "charter": false, "lat": 45.4793, "lng": -122.856, "ratio": 18.1}, {"name": "Highland Park Middle School", "district": "Beaverton SD 48J", "city": "Beaverton", "level": 2, "low_grade": 6, "high_grade": 8, "enrollment": 667, "teachers": 35, "lunch_pct": 33.6, "charter": false, "lat": 45.4689, "lng": -122.8185, "ratio": 19.1}, {"name": "Whitford Middle School", "district": "Beaverton SD 48J", "city": "Beaverton", "level": 2, "low_grade": 6, "high_grade": 8, "enrollment": 809, "teachers": 46, "lunch_pct": 55.7, "charter": false, "lat": 45.4632, "lng": -122.782, "ratio": 17.6}], "high": [{"name": "Arts and Communication Magnet Academy", "district": "Beaverton SD 48J", "city": "Beaverton", "level": 3, "low_grade": 6, "high_grade": 12, "enrollment": 691, "teachers": 33, "lunch_pct": 27.1, "charter": false, "lat": 45.4946, "lng": -122.7939, "ratio": 20.9}, {"name": "Community School", "district": "Beaverton SD 48J", "city": "Beaverton", "level": 3, "low_grade": 9, "high_grade": 12, "enrollment": 130, "teachers": 18, "lunch_pct": 60.8, "charter": false, "lat": 45.506122, "lng": -122.848195, "ratio": 7.2}, {"name": "Aloha High School", "district": "Beaverton SD 48J", "city": "Beaverton", "level": 3, "low_grade": 9, "high_grade": 12, "enrollment": 1686, "teachers": 95, "lunch_pct": 65.8, "charter": false, "lat": 45.48459, "lng": -122.868911, "ratio": 17.7}, {"name": "Beaverton High School", "district": "Beaverton SD 48J", "city": "Beaverton", "level": 3, "low_grade": 9, "high_grade": 12, "enrollment": 1483, "teachers": 87, "lunch_pct": 54.6, "charter": false, "lat": 45.4857, "lng": -122.8107, "ratio": 17.0}, {"name": "Southridge High School", "district": "Beaverton SD 48J", "city": "Beaverton", "level": 3, "low_grade": 9, "high_grade": 12, "enrollment": 1495, "teachers": 81, "lunch_pct": 45.0, "charter": false, "lat": 45.4502, "lng": -122.8076, "ratio": 18.5}, {"name": "International School of Beaverton", "district": "Beaverton SD 48J", "city": "Beaverton", "level": 3, "low_grade": 6, "high_grade": 12, "enrollment": 887, "teachers": 40, "lunch_pct": 20.1, "charter": false, "lat": 45.490535, "lng": -122.860032, "ratio": 22.2}, {"name": "Mountainside High School", "district": "Beaverton SD 48J", "city": "Beaverton", "level": 3, "low_grade": 9, "high_grade": 12, "enrollment": 1758, "teachers": 78, "lunch_pct": 21.7, "charter": false, "lat": 45.427315, "lng": -122.855278, "ratio": 22.5}]}, "cornelius": {"elem": [{"name": "Free Orchards Elementary School", "district": "Hillsboro SD 1J", "city": "Cornelius", "level": 1, "low_grade": 0, "high_grade": 6, "enrollment": 377, "teachers": 19, "lunch_pct": 69.0, "charter": false, "lat": 45.517398, "lng": -123.041859, "ratio": 19.8}, {"name": "Cornelius Elementary School", "district": "Forest Grove SD 15", "city": "Cornelius", "level": 1, "low_grade": -1, "high_grade": 4, "enrollment": 371, "teachers": 26, "lunch_pct": 93.0, "charter": false, "lat": 45.5217, "lng": -123.054, "ratio": 14.3}, {"name": "Echo Shaw Elementary School", "district": "Forest Grove SD 15", "city": "Cornelius", "level": 1, "low_grade": -1, "high_grade": 6, "enrollment": 377, "teachers": 27, "lunch_pct": 72.1, "charter": false, "lat": 45.512, "lng": -123.062, "ratio": 14.0}], "middle": [], "high": []}, "coos bay": {"elem": [{"name": "Eastside School", "district": "Coos Bay SD 9", "city": "Coos Bay", "level": 1, "low_grade": 0, "high_grade": 2, "enrollment": 315, "teachers": 19, "lunch_pct": 50.5, "charter": false, "lat": 43.365461, "lng": -124.197464, "ratio": 16.6}, {"name": "Madison Elementary School", "district": "Coos Bay SD 9", "city": "Coos Bay", "level": 1, "low_grade": 0, "high_grade": 2, "enrollment": 295, "teachers": 17, "lunch_pct": 69.2, "charter": false, "lat": 43.387759, "lng": -124.273263, "ratio": 17.4}, {"name": "Millicoma School", "district": "Coos Bay SD 9", "city": "Coos Bay", "level": 1, "low_grade": 3, "high_grade": 6, "enrollment": 485, "teachers": 22, "lunch_pct": 46.4, "charter": false, "lat": 43.3662, "lng": -124.197, "ratio": 22.0}, {"name": "Sunset School", "district": "Coos Bay SD 9", "city": "Coos Bay", "level": 1, "low_grade": 3, "high_grade": 6, "enrollment": 360, "teachers": 20, "lunch_pct": 55.8, "charter": false, "lat": 43.3896, "lng": -124.2734, "ratio": 18.0}, {"name": "Lighthouse Charter School", "district": "Coos Bay SD 9", "city": "Coos Bay", "level": 1, "low_grade": 0, "high_grade": 8, "enrollment": 200, "teachers": 13, "lunch_pct": 50.0, "charter": true, "lat": 43.353142, "lng": -124.200483, "ratio": 15.4}], "middle": [{"name": "Marshfield Junior High", "district": "Coos Bay SD 9", "city": "Coos Bay", "level": 2, "low_grade": 7, "high_grade": 8, "enrollment": 436, "teachers": 18, "lunch_pct": 40.6, "charter": false, "lat": 43.362074, "lng": -124.21951, "ratio": 24.2}], "high": [{"name": "Marshfield Senior High School", "district": "Coos Bay SD 9", "city": "Coos Bay", "level": 3, "low_grade": 9, "high_grade": 12, "enrollment": 835, "teachers": 42, "lunch_pct": 31.4, "charter": false, "lat": 43.3605, "lng": -124.2214, "ratio": 19.9}, {"name": "Destinations Academy", "district": "Coos Bay SD 9", "city": "Coos Bay", "level": 3, "low_grade": 9, "high_grade": 12, "enrollment": 55, "teachers": 3, "lunch_pct": 30.9, "charter": false, "lat": 43.365501, "lng": -124.223135, "ratio": 18.3}]}, "roseburg": {"elem": [{"name": "Eastwood Elementary School", "district": "Douglas County SD 4", "city": "Roseburg", "level": 1, "low_grade": -1, "high_grade": 5, "enrollment": 402, "teachers": 23, "lunch_pct": 65.4, "charter": false, "lat": 43.20777, "lng": -123.320476, "ratio": 17.5}, {"name": "Fir Grove Elementary School", "district": "Douglas County SD 4", "city": "Roseburg", "level": 1, "low_grade": 0, "high_grade": 5, "enrollment": 249, "teachers": 19, "lunch_pct": 102.8, "charter": false, "lat": 43.215612, "lng": -123.365281, "ratio": 13.1}, {"name": "Fullerton IV Elementary School", "district": "Douglas County SD 4", "city": "Roseburg", "level": 1, "low_grade": 0, "high_grade": 5, "enrollment": 349, "teachers": 22, "lunch_pct": 67.6, "charter": false, "lat": 43.21712, "lng": -123.381219, "ratio": 15.9}, {"name": "Green Elementary School", "district": "Douglas County SD 4", "city": "Roseburg", "level": 1, "low_grade": -1, "high_grade": 5, "enrollment": 263, "teachers": 19, "lunch_pct": 68.8, "charter": false, "lat": 43.149044, "lng": -123.382102, "ratio": 13.8}, {"name": "Hucrest Elementary School", "district": "Douglas County SD 4", "city": "Roseburg", "level": 1, "low_grade": 0, "high_grade": 5, "enrollment": 406, "teachers": 21, "lunch_pct": 66.3, "charter": false, "lat": 43.230914, "lng": -123.381248, "ratio": 19.3}, {"name": "Melrose Elementary School", "district": "Douglas County SD 4", "city": "Roseburg", "level": 1, "low_grade": 0, "high_grade": 5, "enrollment": 344, "teachers": 19, "lunch_pct": 22.4, "charter": false, "lat": 43.242984, "lng": -123.445091, "ratio": 18.1}, {"name": "Sunnyslope Elementary School", "district": "Douglas County SD 4", "city": "Roseburg", "level": 1, "low_grade": 0, "high_grade": 5, "enrollment": 261, "teachers": 17, "lunch_pct": 67.4, "charter": false, "lat": 43.154051, "lng": -123.38835, "ratio": 15.4}, {"name": "Roseburg Virtual School", "district": "Douglas County SD 4", "city": "Roseburg", "level": 1, "low_grade": 0, "high_grade": 8, "enrollment": 57, "teachers": 8, "lunch_pct": 0.0, "charter": false, "lat": 43.201657, "lng": -123.348702, "ratio": 7.1}, {"name": "Lookingglass Elementary School", "district": "Winston-Dillard SD 116", "city": "Roseburg", "level": 1, "low_grade": 0, "high_grade": 5, "enrollment": 137, "teachers": 8, "lunch_pct": 74.5, "charter": false, "lat": 43.177426, "lng": -123.487324, "ratio": 17.1}], "middle": [{"name": "John C Fremont Middle School", "district": "Douglas County SD 4", "city": "Roseburg", "level": 2, "low_grade": 6, "high_grade": 8, "enrollment": 646, "teachers": 38, "lunch_pct": 67.6, "charter": false, "lat": 43.210843, "lng": -123.371053, "ratio": 17.0}, {"name": "Joseph Lane Middle School", "district": "Douglas County SD 4", "city": "Roseburg", "level": 2, "low_grade": 6, "high_grade": 8, "enrollment": 583, "teachers": 38, "lunch_pct": 68.4, "charter": false, "lat": 43.235968, "lng": -123.346175, "ratio": 15.3}], "high": [{"name": "Horizons - Foster Ed Program", "district": "Douglas ESD", "city": "Roseburg", "level": 3, "low_grade": 6, "high_grade": 12, "enrollment": 11, "teachers": 3, "lunch_pct": 0.0, "charter": false, "lat": 43.201657, "lng": -123.348702, "ratio": 3.7}, {"name": "Roseburg High School", "district": "Douglas County SD 4", "city": "Roseburg", "level": 3, "low_grade": 9, "high_grade": 12, "enrollment": 1674, "teachers": 82, "lunch_pct": 67.0, "charter": false, "lat": 43.21564, "lng": -123.353285, "ratio": 20.4}, {"name": "Phoenix School", "district": "Douglas County SD 4", "city": "Roseburg", "level": 3, "low_grade": 8, "high_grade": 12, "enrollment": 171, "teachers": 13, "lunch_pct": 94.2, "charter": true, "lat": 43.212238, "lng": -123.310512, "ratio": 13.2}, {"name": "Rose School", "district": "Douglas County SD 4", "city": "Roseburg", "level": 3, "low_grade": 9, "high_grade": 12, "enrollment": 0, "teachers": 0, "lunch_pct": 0.0, "charter": false, "lat": 43.201657, "lng": -123.348702, "ratio": 1.0}]}, "eugene": {"elem": [{"name": "Clear Lake Elementary School", "district": "Bethel SD 52", "city": "Eugene", "level": 1, "low_grade": 0, "high_grade": 5, "enrollment": 300, "teachers": 17, "lunch_pct": 64.0, "charter": false, "lat": 44.0836, "lng": -123.175, "ratio": 17.6}, {"name": "Danebo Elementary School", "district": "Bethel SD 52", "city": "Eugene", "level": 1, "low_grade": 0, "high_grade": 5, "enrollment": 254, "teachers": 18, "lunch_pct": 65.0, "charter": false, "lat": 44.0768, "lng": -123.1799, "ratio": 14.1}, {"name": "Fairfield Elementary School", "district": "Bethel SD 52", "city": "Eugene", "level": 1, "low_grade": 0, "high_grade": 5, "enrollment": 333, "teachers": 21, "lunch_pct": 64.9, "charter": false, "lat": 44.0708, "lng": -123.14939, "ratio": 15.9}, {"name": "Irving Elementary School", "district": "Bethel SD 52", "city": "Eugene", "level": 1, "low_grade": 0, "high_grade": 5, "enrollment": 258, "teachers": 15, "lunch_pct": 64.3, "charter": false, "lat": 44.1108, "lng": -123.1524, "ratio": 17.2}, {"name": "Malabon Elementary School", "district": "Bethel SD 52", "city": "Eugene", "level": 1, "low_grade": 0, "high_grade": 5, "enrollment": 346, "teachers": 22, "lunch_pct": 65.6, "charter": false, "lat": 44.077428, "lng": -123.162496, "ratio": 15.7}, {"name": "Meadow View School", "district": "Bethel SD 52", "city": "Eugene", "level": 1, "low_grade": 0, "high_grade": 8, "enrollment": 657, "teachers": 36, "lunch_pct": 66.4, "charter": false, "lat": 44.0822, "lng": -123.2015, "ratio": 18.2}, {"name": "Prairie Mountain School", "district": "Bethel SD 52", "city": "Eugene", "level": 1, "low_grade": 0, "high_grade": 8, "enrollment": 585, "teachers": 36, "lunch_pct": 64.6, "charter": false, "lat": 44.0711, "lng": -123.1902, "ratio": 16.2}, {"name": "Applegate Elementary School", "district": "Crow-Applegate-Lorane SD 66", "city": "Eugene", "level": 1, "low_grade": 0, "high_grade": 5, "enrollment": 150, "teachers": 8, "lunch_pct": 47.3, "charter": false, "lat": 43.990458, "lng": -123.336631, "ratio": 18.8}, {"name": "Adams Elementary School", "district": "Eugene SD 4J", "city": "Eugene", "level": 1, "low_grade": 0, "high_grade": 5, "enrollment": 401, "teachers": 0, "lunch_pct": 31.7, "charter": false, "lat": 44.035, "lng": -123.1078, "ratio": 401.0}, {"name": "Awbrey Park Elementary School", "district": "Eugene SD 4J", "city": "Eugene", "level": 1, "low_grade": 0, "high_grade": 5, "enrollment": 427, "teachers": null, "lunch_pct": 64.4, "charter": false, "lat": 44.1237, "lng": -123.1379, "ratio": 427.0}, {"name": "Coburg Community Charter School", "district": "Eugene SD 4J", "city": "Eugene", "level": 1, "low_grade": 0, "high_grade": 8, "enrollment": 220, "teachers": 12, "lunch_pct": 0.0, "charter": true, "lat": 44.1427, "lng": -123.0724, "ratio": 18.3}, {"name": "Edgewood Community Elementary School", "district": "Eugene SD 4J", "city": "Eugene", "level": 1, "low_grade": 0, "high_grade": 5, "enrollment": 407, "teachers": 0, "lunch_pct": 23.6, "charter": false, "lat": 44.0054, "lng": -123.0846, "ratio": 407.0}, {"name": "Edison Elementary School", "district": "Eugene SD 4J", "city": "Eugene", "level": 1, "low_grade": 0, "high_grade": 5, "enrollment": 354, "teachers": 0, "lunch_pct": 65.3, "charter": false, "lat": 44.027362, "lng": -123.096586, "ratio": 354.0}, {"name": "Gilham Elementary School", "district": "Eugene SD 4J", "city": "Eugene", "level": 1, "low_grade": 0, "high_grade": 5, "enrollment": 584, "teachers": 0, "lunch_pct": 36.5, "charter": false, "lat": 44.0996, "lng": -123.0767, "ratio": 584.0}, {"name": "Howard Elementary School", "district": "Eugene SD 4J", "city": "Eugene", "level": 1, "low_grade": 0, "high_grade": 5, "enrollment": 494, "teachers": 0, "lunch_pct": 65.0, "charter": false, "lat": 44.086822, "lng": -123.138695, "ratio": 494.0}, {"name": "McCornack Elementary School", "district": "Eugene SD 4J", "city": "Eugene", "level": 1, "low_grade": 0, "high_grade": 5, "enrollment": 340, "teachers": null, "lunch_pct": 64.4, "charter": false, "lat": 44.0381, "lng": -123.1441, "ratio": 340.0}, {"name": "River Road/El Camino del Rio Elementary School", "district": "Eugene SD 4J", "city": "Eugene", "level": 1, "low_grade": 0, "high_grade": 5, "enrollment": 385, "teachers": 0, "lunch_pct": 63.9, "charter": false, "lat": 44.078743, "lng": -123.124817, "ratio": 385.0}, {"name": "Spring Creek Elementary School", "district": "Eugene SD 4J", "city": "Eugene", "level": 1, "low_grade": 0, "high_grade": 5, "enrollment": 307, "teachers": 0, "lunch_pct": 64.5, "charter": false, "lat": 44.114767, "lng": -123.144179, "ratio": 307.0}, {"name": "Twin Oaks Elementary School", "district": "Eugene SD 4J", "city": "Eugene", "level": 1, "low_grade": 0, "high_grade": 5, "enrollment": 227, "teachers": 0, "lunch_pct": 64.3, "charter": false, "lat": 43.9936, "lng": -123.1751, "ratio": 227.0}, {"name": "Willagillespie Elementary School", "district": "Eugene SD 4J", "city": "Eugene", "level": 1, "low_grade": 0, "high_grade": 5, "enrollment": 464, "teachers": 0, "lunch_pct": 63.8, "charter": false, "lat": 44.0712, "lng": -123.1, "ratio": 464.0}, {"name": "Family School", "district": "Eugene SD 4J", "city": "Eugene", "level": 1, "low_grade": 0, "high_grade": 5, "enrollment": 122, "teachers": 0, "lunch_pct": 63.9, "charter": false, "lat": 44.01633, "lng": -123.110631, "ratio": 122.0}, {"name": "Charlemagne French Immersion Elementary School", "district": "Eugene SD 4J", "city": "Eugene", "level": 1, "low_grade": 0, "high_grade": 5, "enrollment": 337, "teachers": 0, "lunch_pct": 17.2, "charter": false, "lat": 44.013807, "lng": -123.075124, "ratio": 337.0}, {"name": "Buena Vista Elementary School", "district": "Eugene SD 4J", "city": "Eugene", "level": 1, "low_grade": 0, "high_grade": 5, "enrollment": 432, "teachers": 0, "lunch_pct": 32.4, "charter": false, "lat": 44.0788, "lng": -123.0761, "ratio": 432.0}, {"name": "Yujin Gakuen Elementary School", "district": "Eugene SD 4J", "city": "Eugene", "level": 1, "low_grade": 0, "high_grade": 5, "enrollment": 255, "teachers": 0, "lunch_pct": 51.8, "charter": false, "lat": 44.087488, "lng": -123.141899, "ratio": 255.0}, {"name": "Ridgeline Montessori", "district": "Eugene SD 4J", "city": "Eugene", "level": 1, "low_grade": 0, "high_grade": 8, "enrollment": 250, "teachers": 10, "lunch_pct": 0.0, "charter": true, "lat": 44.006385, "lng": -123.076363, "ratio": 25.0}, {"name": "Village School", "district": "Eugene SD 4J", "city": "Eugene", "level": 1, "low_grade": 0, "high_grade": 8, "enrollment": 223, "teachers": 7, "lunch_pct": 48.9, "charter": true, "lat": 44.018705, "lng": -123.091164, "ratio": 31.9}, {"name": "Cesar Chavez Elementary School", "district": "Eugene SD 4J", "city": "Eugene", "level": 1, "low_grade": 0, "high_grade": 5, "enrollment": 364, "teachers": 0, "lunch_pct": 62.9, "charter": false, "lat": 44.0429, "lng": -123.1153, "ratio": 364.0}, {"name": "Holt Elementary School", "district": "Eugene SD 4J", "city": "Eugene", "level": 1, "low_grade": 0, "high_grade": 5, "enrollment": 469, "teachers": 0, "lunch_pct": 64.6, "charter": false, "lat": 44.0712, "lng": -123.055, "ratio": 469.0}, {"name": "Camas Ridge Community Elementary", "district": "Eugene SD 4J", "city": "Eugene", "level": 1, "low_grade": 0, "high_grade": 5, "enrollment": 251, "teachers": 0, "lunch_pct": 64.1, "charter": false, "lat": 44.026523, "lng": -123.095819, "ratio": 251.0}, {"name": "Chinese Language Immersion School", "district": "Eugene SD 4J", "city": "Eugene", "level": 1, "low_grade": 0, "high_grade": 5, "enrollment": 122, "teachers": 0, "lunch_pct": 22.1, "charter": false, "lat": 44.03604, "lng": -123.15476, "ratio": 122.0}], "middle": [{"name": "Cascade Middle School", "district": "Bethel SD 52", "city": "Eugene", "level": 2, "low_grade": 6, "high_grade": 8, "enrollment": 342, "teachers": 23, "lunch_pct": 65.2, "charter": false, "lat": 44.0788, "lng": -123.1667, "ratio": 14.9}, {"name": "Shasta Middle School", "district": "Bethel SD 52", "city": "Eugene", "level": 2, "low_grade": 6, "high_grade": 8, "enrollment": 392, "teachers": 23, "lunch_pct": 66.3, "charter": false, "lat": 44.0837, "lng": -123.1769, "ratio": 17.0}, {"name": "Cal Young Middle School", "district": "Eugene SD 4J", "city": "Eugene", "level": 2, "low_grade": 6, "high_grade": 8, "enrollment": 494, "teachers": 0, "lunch_pct": 48.0, "charter": false, "lat": 44.0903, "lng": -123.0792, "ratio": 494.0}, {"name": "Kelly Middle School", "district": "Eugene SD 4J", "city": "Eugene", "level": 2, "low_grade": 6, "high_grade": 8, "enrollment": 424, "teachers": 0, "lunch_pct": 63.9, "charter": false, "lat": 44.087488, "lng": -123.141899, "ratio": 424.0}, {"name": "Kennedy Middle School", "district": "Eugene SD 4J", "city": "Eugene", "level": 2, "low_grade": 6, "high_grade": 8, "enrollment": 361, "teachers": 0, "lunch_pct": 61.2, "charter": false, "lat": 44.03604, "lng": -123.15476, "ratio": 361.0}, {"name": "Madison Middle School", "district": "Eugene SD 4J", "city": "Eugene", "level": 2, "low_grade": 6, "high_grade": 8, "enrollment": 415, "teachers": 0, "lunch_pct": 64.6, "charter": false, "lat": 44.1171, "lng": -123.1204, "ratio": 415.0}, {"name": "Monroe Middle School", "district": "Eugene SD 4J", "city": "Eugene", "level": 2, "low_grade": 6, "high_grade": 8, "enrollment": 541, "teachers": 0, "lunch_pct": 54.9, "charter": false, "lat": 44.075325, "lng": -123.066142, "ratio": 541.0}, {"name": "Roosevelt Middle School", "district": "Eugene SD 4J", "city": "Eugene", "level": 2, "low_grade": 6, "high_grade": 8, "enrollment": 543, "teachers": 0, "lunch_pct": 41.4, "charter": false, "lat": 44.033037, "lng": -123.082842, "ratio": 543.0}, {"name": "Spencer Butte Middle School", "district": "Eugene SD 4J", "city": "Eugene", "level": 2, "low_grade": 6, "high_grade": 8, "enrollment": 385, "teachers": 0, "lunch_pct": 37.4, "charter": false, "lat": 44.0077, "lng": -123.0853, "ratio": 385.0}, {"name": "Arts and Technology Academy at Jefferson", "district": "Eugene SD 4J", "city": "Eugene", "level": 2, "low_grade": 6, "high_grade": 8, "enrollment": 410, "teachers": 0, "lunch_pct": 63.2, "charter": false, "lat": 44.035207, "lng": -123.115175, "ratio": 410.0}], "high": [{"name": "Martin Luther King Jr. Education Center", "district": "Lane ESD", "city": "Eugene", "level": 3, "low_grade": 6, "high_grade": 12, "enrollment": 9, "teachers": 3, "lunch_pct": 0.0, "charter": false, "lat": 44.061234, "lng": -123.067631, "ratio": 3.0}, {"name": "Willamette High School", "district": "Bethel SD 52", "city": "Eugene", "level": 3, "low_grade": 9, "high_grade": 12, "enrollment": 1516, "teachers": 74, "lunch_pct": 34.6, "charter": false, "lat": 44.0817, "lng": -123.1667, "ratio": 20.5}, {"name": "Kalapuya High School", "district": "Bethel SD 52", "city": "Eugene", "level": 3, "low_grade": 9, "high_grade": 12, "enrollment": 92, "teachers": 8, "lunch_pct": 84.8, "charter": false, "lat": 44.0739, "lng": -123.1892, "ratio": 11.5}, {"name": "Crow Middle/High School", "district": "Crow-Applegate-Lorane SD 66", "city": "Eugene", "level": 3, "low_grade": 6, "high_grade": 12, "enrollment": 121, "teachers": 10, "lunch_pct": 39.7, "charter": false, "lat": 43.986756, "lng": -123.31919, "ratio": 12.1}, {"name": "Eugene Education Options", "district": "Eugene SD 4J", "city": "Eugene", "level": 3, "low_grade": 9, "high_grade": 12, "enrollment": 74, "teachers": 2, "lunch_pct": 60.8, "charter": false, "lat": 44.061756, "lng": -123.104248, "ratio": 37.0}, {"name": "North Eugene High School", "district": "Eugene SD 4J", "city": "Eugene", "level": 3, "low_grade": 9, "high_grade": 12, "enrollment": 1071, "teachers": 0, "lunch_pct": 63.4, "charter": false, "lat": 44.0947, "lng": -123.1315, "ratio": 1071.0}, {"name": "Sheldon High School", "district": "Eugene SD 4J", "city": "Eugene", "level": 3, "low_grade": 9, "high_grade": 12, "enrollment": 1525, "teachers": 0, "lunch_pct": 37.0, "charter": false, "lat": 44.0824, "lng": -123.0727, "ratio": 1525.0}, {"name": "South Eugene High School", "district": "Eugene SD 4J", "city": "Eugene", "level": 3, "low_grade": 9, "high_grade": 12, "enrollment": 1505, "teachers": 0, "lunch_pct": 26.8, "charter": false, "lat": 44.0377, "lng": -123.0867, "ratio": 1505.0}, {"name": "Churchill High School", "district": "Eugene SD 4J", "city": "Eugene", "level": 3, "low_grade": 9, "high_grade": 12, "enrollment": 1082, "teachers": 0, "lunch_pct": 56.7, "charter": false, "lat": 44.0393, "lng": -123.1509, "ratio": 1082.0}, {"name": "Network Charter School", "district": "Eugene SD 4J", "city": "Eugene", "level": 3, "low_grade": 7, "high_grade": 12, "enrollment": 103, "teachers": 7, "lunch_pct": 100.0, "charter": true, "lat": 44.030658, "lng": -123.092502, "ratio": 14.7}, {"name": "Twin Rivers Charter School", "district": "Eugene SD 4J", "city": "Eugene", "level": 3, "low_grade": 8, "high_grade": 12, "enrollment": 49, "teachers": 3, "lunch_pct": 0.0, "charter": true, "lat": 44.032, "lng": -123.0496, "ratio": 16.3}]}, "pendleton": {"elem": [{"name": "McKay Creek Elementary School", "district": "Pendleton SD 16", "city": "Pendleton", "level": 1, "low_grade": 0, "high_grade": 5, "enrollment": 246, "teachers": 13, "lunch_pct": 65.4, "charter": false, "lat": 45.646, "lng": -118.8258, "ratio": 18.9}, {"name": "Sherwood Heights Elementary School", "district": "Pendleton SD 16", "city": "Pendleton", "level": 1, "low_grade": 0, "high_grade": 5, "enrollment": 476, "teachers": 29, "lunch_pct": 64.5, "charter": false, "lat": 45.65283, "lng": -118.8168, "ratio": 16.4}, {"name": "Washington Elementary School", "district": "Pendleton SD 16", "city": "Pendleton", "level": 1, "low_grade": 0, "high_grade": 5, "enrollment": 434, "teachers": 26, "lunch_pct": 50.9, "charter": false, "lat": 45.676649, "lng": -118.773226, "ratio": 16.7},