{"everett": {"elem": [{"name": "Everett Area El Sch", "district": "Everett Area SD", "city": "Everett", "level": 1, "low_grade": 0, "high_grade": 5, "enrollment": 435, "teachers": 30, "lunch_pct": 100.0, "charter": false, "lat": 40.0049, "lng": -78.3587, "ratio": 14.5}], "middle": [{"name": "Everett Area MS", "district": "Everett Area SD", "city": "Everett", "level": 2, "low_grade": 6, "high_grade": 8, "enrollment": 293, "teachers": 20, "lunch_pct": 56.0, "charter": false, "lat": 40.0142, "lng": -78.3662, "ratio": 14.7}], "high": [{"name": "Bedford County Technical Center", "district": "Bedford County Technical Center", "city": "Everett", "level": 3, "low_grade": 9, "high_grade": 12, "enrollment": 3, "teachers": 8, "lunch_pct": 0.0, "charter": false, "lat": 40.022189, "lng": -78.435751, "ratio": 0.4}, {"name": "Everett Area HS", "district": "Everett Area SD", "city": "Everett", "level": 3, "low_grade": 9, "high_grade": 12, "enrollment": 360, "teachers": 23, "lunch_pct": 35.3, "charter": false, "lat": 40.0153, "lng": -78.3652, "ratio": 15.7}]}, "springville": {"elem": [{"name": "Elk Lake El Sch", "district": "Elk Lake SD", "city": "Springville", "level": 1, "low_grade": 0, "high_grade": 6, "enrollment": 554, "teachers": 48, "lunch_pct": 43.7, "charter": false, "lat": 41.7386, "lng": -75.9558, "ratio": 11.5}], "middle": [], "high": [{"name": "Susquehanna County CTC", "district": "Susquehanna County CTC", "city": "Springville", "level": 3, "low_grade": 9, "high_grade": 12, "enrollment": 8, "teachers": 15, "lunch_pct": 0.0, "charter": false, "lat": 41.7386, "lng": -75.9558, "ratio": 0.5}, {"name": "Elk Lake JSHS", "district": "Elk Lake SD", "city": "Springville", "level": 3, "low_grade": 7, "high_grade": 12, "enrollment": 555, "teachers": 62, "lunch_pct": 33.9, "charter": false, "lat": 41.7386, "lng": -75.9558, "ratio": 9.0}]}, "mcconnellsburg": {"elem": [{"name": "McConnellsburg El Sch", "district": "Central Fulton SD", "city": "McConnellsburg", "level": 1, "low_grade": -1, "high_grade": 5, "enrollment": 429, "teachers": 35, "lunch_pct": 49.7, "charter": false, "lat": 39.928452, "lng": -77.997576, "ratio": 12.3}], "middle": [{"name": "McConnellsburg MS", "district": "Central Fulton SD", "city": "McConnellsburg", "level": 2, "low_grade": 6, "high_grade": 8, "enrollment": 211, "teachers": 15, "lunch_pct": 50.7, "charter": false, "lat": 39.928452, "lng": -77.997576, "ratio": 14.1}], "high": [{"name": "Fulton County Center for Career and Tech", "district": "Fulton County Center for Career and Technology", "city": "McConnellsburg", "level": 3, "low_grade": 9, "high_grade": 12, "enrollment": 0, "teachers": 8, "lunch_pct": 0.0, "charter": false, "lat": 39.928704, "lng": -77.997936, "ratio": 0.1}, {"name": "McConnellsburg HS", "district": "Central Fulton SD", "city": "McConnellsburg", "level": 3, "low_grade": 9, "high_grade": 12, "enrollment": 291, "teachers": 16, "lunch_pct": 25.4, "charter": false, "lat": 39.928452, "lng": -77.997576, "ratio": 18.2}]}, "greenville": {"elem": [{"name": "Greenville El Sch", "district": "Greenville Area SD", "city": "Greenville", "level": 1, "low_grade": 0, "high_grade": 6, "enrollment": 625, "teachers": 46, "lunch_pct": 58.6, "charter": false, "lat": 41.39378, "lng": -80.36501, "ratio": 13.6}, {"name": "Reynolds El Sch", "district": "Reynolds SD", "city": "Greenville", "level": 1, "low_grade": 0, "high_grade": 6, "enrollment": 516, "teachers": 34, "lunch_pct": 59.7, "charter": false, "lat": 41.337, "lng": -80.395, "ratio": 15.2}], "middle": [], "high": [{"name": "Greenville JSHS", "district": "Greenville Area SD", "city": "Greenville", "level": 3, "low_grade": 7, "high_grade": 12, "enrollment": 653, "teachers": 44, "lunch_pct": 50.4, "charter": false, "lat": 41.4031, "lng": -80.3724, "ratio": 14.8}, {"name": "Reynolds JSHS", "district": "Reynolds SD", "city": "Greenville", "level": 3, "low_grade": 7, "high_grade": 12, "enrollment": 433, "teachers": 37, "lunch_pct": 37.4, "charter": false, "lat": 41.340694, "lng": -80.396715, "ratio": 11.7}]}, "west chester": {"elem": [{"name": "Chester Co Family Academy CS", "district": "Chester Co Family Academy CS", "city": "West Chester", "level": 1, "low_grade": 0, "high_grade": 2, "enrollment": 60, "teachers": 5, "lunch_pct": 88.3, "charter": true, "lat": 39.95961, "lng": -75.595391, "ratio": 12.0}, {"name": "Pocopson El Sch", "district": "Unionville-Chadds Ford SD", "city": "West Chester", "level": 1, "low_grade": 0, "high_grade": 5, "enrollment": 517, "teachers": 35, "lunch_pct": 2.3, "charter": false, "lat": 39.9005, "lng": -75.629, "ratio": 14.8}, {"name": "East Bradford El Sch", "district": "West Chester Area SD", "city": "West Chester", "level": 1, "low_grade": 0, "high_grade": 5, "enrollment": 470, "teachers": 35, "lunch_pct": 16.0, "charter": false, "lat": 39.9694, "lng": -75.6414, "ratio": 13.4}, {"name": "East Goshen El Sch", "district": "West Chester Area SD", "city": "West Chester", "level": 1, "low_grade": 0, "high_grade": 5, "enrollment": 510, "teachers": 36, "lunch_pct": 18.4, "charter": false, "lat": 39.9924, "lng": -75.5449, "ratio": 14.2}, {"name": "Fern Hill El Sch", "district": "West Chester Area SD", "city": "West Chester", "level": 1, "low_grade": 0, "high_grade": 5, "enrollment": 391, "teachers": 37, "lunch_pct": 24.3, "charter": false, "lat": 39.9753, "lng": -75.587, "ratio": 10.6}, {"name": "Mary C Howse El Sch", "district": "West Chester Area SD", "city": "West Chester", "level": 1, "low_grade": 0, "high_grade": 5, "enrollment": 493, "teachers": 33, "lunch_pct": 7.7, "charter": false, "lat": 40.0034, "lng": -75.6443, "ratio": 14.9}, {"name": "Westtown-Thornbury El Sch", "district": "West Chester Area SD", "city": "West Chester", "level": 1, "low_grade": 0, "high_grade": 5, "enrollment": 545, "teachers": 37, "lunch_pct": 14.7, "charter": false, "lat": 39.9343, "lng": -75.5561, "ratio": 14.7}, {"name": "Glen Acres El Sch", "district": "West Chester Area SD", "city": "West Chester", "level": 1, "low_grade": 0, "high_grade": 5, "enrollment": 485, "teachers": 35, "lunch_pct": 23.9, "charter": false, "lat": 39.9681, "lng": -75.5657, "ratio": 13.9}, {"name": "Penn Wood El Sch", "district": "West Chester Area SD", "city": "West Chester", "level": 1, "low_grade": 0, "high_grade": 5, "enrollment": 463, "teachers": 33, "lunch_pct": 14.7, "charter": false, "lat": 39.9535, "lng": -75.527, "ratio": 14.0}, {"name": "Hillsdale El Sch", "district": "West Chester Area SD", "city": "West Chester", "level": 1, "low_grade": 0, "high_grade": 5, "enrollment": 545, "teachers": 43, "lunch_pct": 18.2, "charter": false, "lat": 39.9546, "lng": -75.6174, "ratio": 12.7}, {"name": "Greystone El Sch", "district": "West Chester Area SD", "city": "West Chester", "level": 1, "low_grade": 0, "high_grade": 5, "enrollment": 536, "teachers": 38, "lunch_pct": 25.0, "charter": false, "lat": 39.989948, "lng": -75.613792, "ratio": 14.1}, {"name": "Sarah W Starkweather El Sch", "district": "West Chester Area SD", "city": "West Chester", "level": 1, "low_grade": 0, "high_grade": 5, "enrollment": 578, "teachers": 41, "lunch_pct": 18.2, "charter": false, "lat": 39.9316, "lng": -75.5892, "ratio": 14.1}], "middle": [{"name": "Stetson MS", "district": "West Chester Area SD", "city": "West Chester", "level": 2, "low_grade": 6, "high_grade": 8, "enrollment": 843, "teachers": 67, "lunch_pct": 18.1, "charter": false, "lat": 39.9284, "lng": -75.5887, "ratio": 12.6}, {"name": "E N Peirce MS", "district": "West Chester Area SD", "city": "West Chester", "level": 2, "low_grade": 6, "high_grade": 8, "enrollment": 1018, "teachers": 84, "lunch_pct": 19.6, "charter": false, "lat": 39.9969, "lng": -75.6218, "ratio": 12.1}, {"name": "J R Fugett MS", "district": "West Chester Area SD", "city": "West Chester", "level": 2, "low_grade": 6, "high_grade": 8, "enrollment": 908, "teachers": 77, "lunch_pct": 23.0, "charter": false, "lat": 39.98, "lng": -75.5656, "ratio": 11.8}], "high": [{"name": "21st Century Cyber CS", "district": "21st Century Cyber CS", "city": "West Chester", "level": 3, "low_grade": 6, "high_grade": 12, "enrollment": 1239, "teachers": 58, "lunch_pct": 0.0, "charter": true, "lat": 39.98831, "lng": -75.574369, "ratio": 21.4}, {"name": "West Chester Bayard Rustin HS", "district": "West Chester Area SD", "city": "West Chester", "level": 3, "low_grade": 9, "high_grade": 12, "enrollment": 1210, "teachers": 91, "lunch_pct": 16.3, "charter": false, "lat": 39.939, "lng": -75.5537, "ratio": 13.3}, {"name": "West Chester Henderson HS", "district": "West Chester Area SD", "city": "West Chester", "level": 3, "low_grade": 9, "high_grade": 12, "enrollment": 1429, "teachers": 94, "lunch_pct": 16.1, "charter": false, "lat": 39.968, "lng": -75.5991, "ratio": 15.2}, {"name": "West Chester East HS", "district": "West Chester Area SD", "city": "West Chester", "level": 3, "low_grade": 9, "high_grade": 12, "enrollment": 1251, "teachers": 89, "lunch_pct": 20.1, "charter": false, "lat": 39.9794, "lng": -75.5651, "ratio": 14.1}]}, "philadelphia": {"elem": [{"name": "Harambee Institute of Science and Techno", "district": "Harambee Institute of Science and Technology CS", "city": "Philadelphia", "level": 1, "low_grade": 0, "high_grade": 8, "enrollment": 593, "teachers": 25, "lunch_pct": 99.5, "charter": true, "lat": 39.9733, "lng": -75.2519, "ratio": 23.7}, {"name": "Alliance for Progress CS", "district": "Alliance for Progress CS", "city": "Philadelphia", "level": 1, "low_grade": 0, "high_grade": 8, "enrollment": 557, "teachers": 31, "lunch_pct": 98.9, "charter": true, "lat": 39.9799, "lng": -75.1654, "ratio": 18.0}, {"name": "West Oak Lane CS", "district": "West Oak Lane CS", "city": "Philadelphia", "level": 1, "low_grade": 0, "high_grade": 8, "enrollment": 950, "teachers": 59, "lunch_pct": 99.8, "charter": true, "lat": 40.0595, "lng": -75.1634, "ratio": 16.1}, {"name": "Inquiry CS", "district": "Inquiry CS", "city": "Philadelphia", "level": 1, "low_grade": -1, "high_grade": 5, "enrollment": 268, "teachers": 26, "lunch_pct": 100.0, "charter": true, "lat": 39.97476, "lng": -75.212431, "ratio": 10.3}, {"name": "Eugenio Maria DE Hostos CS", "district": "Eugenio Maria De Hostos CS", "city": "Philadelphia", "level": 1, "low_grade": 0, "high_grade": 8, "enrollment": 507, "teachers": 37, "lunch_pct": 73.4, "charter": true, "lat": 40.046789, "lng": -75.121873, "ratio": 13.7}, {"name": "Laboratory CS", "district": "Laboratory CS", "city": "Philadelphia", "level": 1, "low_grade": 0, "high_grade": 8, "enrollment": 491, "teachers": 0, "lunch_pct": 55.4, "charter": true, "lat": 40.00148, "lng": -75.145229, "ratio": 491.0}, {"name": "Christopher Columbus CS", "district": "Christopher Columbus CS", "city": "Philadelphia", "level": 1, "low_grade": 0, "high_grade": 8, "enrollment": 862, "teachers": 60, "lunch_pct": 40.7, "charter": true, "lat": 39.93418, "lng": -75.165656, "ratio": 14.4}, {"name": "Global Leadership Academy CS", "district": "Global Leadership Academy CS", "city": "Philadelphia", "level": 1, "low_grade": 0, "high_grade": 8, "enrollment": 636, "teachers": 32, "lunch_pct": 99.2, "charter": true, "lat": 39.973319, "lng": -75.215599, "ratio": 19.9}, {"name": "Independence CS", "district": "Independence CS", "city": "Philadelphia", "level": 1, "low_grade": 0, "high_grade": 8, "enrollment": 781, "teachers": 59, "lunch_pct": 99.9, "charter": true, "lat": 39.944972, "lng": -75.168903, "ratio": 13.2}, {"name": "Russell Byers CS", "district": "Russell Byers CS", "city": "Philadelphia", "level": 1, "low_grade": -1, "high_grade": 8, "enrollment": 701, "teachers": 43, "lunch_pct": 100.0, "charter": true, "lat": 39.9558, "lng": -75.1716, "ratio": 16.3}, {"name": "Green Woods CS", "district": "Green Woods CS", "city": "Philadelphia", "level": 1, "low_grade": 0, "high_grade": 8, "enrollment": 688, "teachers": 43, "lunch_pct": 33.4, "charter": true, "lat": 40.043121, "lng": -75.233983, "ratio": 16.0}, {"name": "West Phila. Achievement CES", "district": "West Phila. Achievement CES", "city": "Philadelphia", "level": 1, "low_grade": 0, "high_grade": 5, "enrollment": 637, "teachers": 29, "lunch_pct": 100.0, "charter": true, "lat": 39.97041, "lng": -75.254151, "ratio": 22.0}, {"name": "Wissahickon CS", "district": "Wissahickon CS", "city": "Philadelphia", "level": 1, "low_grade": 0, "high_grade": 8, "enrollment": 943, "teachers": 56, "lunch_pct": 100.0, "charter": true, "lat": 40.0159, "lng": -75.1713, "ratio": 16.8}, {"name": "Discovery CS", "district": "Discovery CS", "city": "Philadelphia", "level": 1, "low_grade": 0, "high_grade": 8, "enrollment": 622, "teachers": 44, "lunch_pct": 57.9, "charter": true, "lat": 39.977191, "lng": -75.213726, "ratio": 14.1}, {"name": "KIPP Philadelphia CS", "district": "KIPP Philadelphia CS", "city": "Philadelphia", "level": 1, "low_grade": 0, "high_grade": 8, "enrollment": 838, "teachers": 57, "lunch_pct": 99.2, "charter": true, "lat": 39.992034, "lng": -75.157974, "ratio": 14.7}, {"name": "Ad Prima CS", "district": "Ad Prima CS", "city": "Philadelphia", "level": 1, "low_grade": 0, "high_grade": 8, "enrollment": 582, "teachers": 43, "lunch_pct": 99.7, "charter": true, "lat": 39.984775, "lng": -75.247738, "ratio": 13.5}, {"name": "Philadelphia Montessori CS", "district": "Philadelphia Montessori CS", "city": "Philadelphia", "level": 1, "low_grade": -1, "high_grade": 6, "enrollment": 236, "teachers": 29, "lunch_pct": 0.0, "charter": true, "lat": 39.916418, "lng": -75.245436, "ratio": 8.1}, {"name": "Northwood Academy CS", "district": "Northwood Academy CS", "city": "Philadelphia", "level": 1, "low_grade": 0, "high_grade": 8, "enrollment": 760, "teachers": 46, "lunch_pct": 99.7, "charter": true, "lat": 40.0204, "lng": -75.0945, "ratio": 16.5}, {"name": "Folk Arts-Cultural Treasures CS", "district": "Folk Arts-Cultural Treasures CS", "city": "Philadelphia", "level": 1, "low_grade": 0, "high_grade": 8, "enrollment": 487, "teachers": 37, "lunch_pct": 100.0, "charter": true, "lat": 39.959, "lng": -75.1561, "ratio": 13.2}, {"name": "Southwest Leadership Academy CS", "district": "Southwest Leadership Academy CS", "city": "Philadelphia", "level": 1, "low_grade": 0, "high_grade": 8, "enrollment": 619, "teachers": 23, "lunch_pct": 99.5, "charter": true, "lat": 39.9182, "lng": -75.2426, "ratio": 26.9}, {"name": "Keystone Academy CS", "district": "Keystone Academy CS", "city": "Philadelphia", "level": 1, "low_grade": 0, "high_grade": 8, "enrollment": 666, "teachers": 39, "lunch_pct": 87.1, "charter": true, "lat": 40.027655, "lng": -75.043608, "ratio": 17.1}, {"name": "Pan American Academy CS", "district": "Pan American Academy CS", "city": "Philadelphia", "level": 1, "low_grade": 0, "high_grade": 8, "enrollment": 739, "teachers": 57, "lunch_pct": 99.6, "charter": true, "lat": 39.994505, "lng": -75.13593, "ratio": 13.0}, {"name": "Antonia Pantoja Community CS", "district": "Antonia Pantoja Community CS", "city": "Philadelphia", "level": 1, "low_grade": 0, "high_grade": 8, "enrollment": 699, "teachers": 41, "lunch_pct": 81.8, "charter": true, "lat": 40.013042, "lng": -75.13093, "ratio": 17.0}, {"name": "Franklin Towne Charter Elementary School", "district": "Franklin Towne Charter Elementary School", "city": "Philadelphia", "level": 1, "low_grade": 0, "high_grade": 8, "enrollment": 955, "teachers": 57, "lunch_pct": 64.0, "charter": true, "lat": 39.99562, "lng": -75.07497, "ratio": 16.8}, {"name": "Mastery CS-Harrity Campus", "district": "Mastery CS-Harrity Campus", "city": "Philadelphia", "level": 1, "low_grade": 0, "high_grade": 8, "enrollment": 813, "teachers": 47, "lunch_pct": 0.0, "charter": true, "lat": 39.9488, "lng": -75.2358, "ratio": 17.3}, {"name": "Mastery CS-Smedley Campus", "district": "Mastery CS-Smedley Campus", "city": "Philadelphia", "level": 1, "low_grade": 0, "high_grade": 6, "enrollment": 753, "teachers": 48, "lunch_pct": 0.0, "charter": true, "lat": 40.019699, "lng": -75.073998, "ratio": 15.7}, {"name": "Frederick Douglass Mastery CS", "district": "Frederick Douglass Mastery CS", "city": "Philadelphia", "level": 1, "low_grade": 0, "high_grade": 8, "enrollment": 581, "teachers": 37, "lunch_pct": 0.0, "charter": true, "lat": 39.9845, "lng": -75.1694, "ratio": 15.7}, {"name": "Mastery CS - Mann Campus", "district": "Mastery CS-Mann Campus", "city": "Philadelphia", "level": 1, "low_grade": 0, "high_grade": 6, "enrollment": 532, "teachers": 34, "lunch_pct": 99.4, "charter": true, "lat": 39.9856, "lng": -75.2314, "ratio": 15.6}, {"name": "Bluford CS", "district": "Bluford CS", "city": "Philadelphia", "level": 1, "low_grade": 0, "high_grade": 8, "enrollment": 525, "teachers": 17, "lunch_pct": 0.0, "charter": true, "lat": 39.973849, "lng": -75.236084, "ratio": 30.9}, {"name": "Mastery CS-Clymer Elementary", "district": "Mastery CS-Clymer Elementary", "city": "Philadelphia", "level": 1, "low_grade": 0, "high_grade": 6, "enrollment": 448, "teachers": 31, "lunch_pct": 0.0, "charter": true, "lat": 39.9958, "lng": -75.1507, "ratio": 14.5}, {"name": "Lindley Academy CS at Birney", "district": "Lindley Academy CS at Birney", "city": "Philadelphia", "level": 1, "low_grade": 0, "high_grade": 8, "enrollment": 710, "teachers": 52, "lunch_pct": 100.0, "charter": true, "lat": 40.0292, "lng": -75.1385, "ratio": 13.7}, {"name": "Mastery CS-Cleveland Elementary", "district": "Mastery CS-Cleveland Elementary", "city": "Philadelphia", "level": 1, "low_grade": 0, "high_grade": 8, "enrollment": 704, "teachers": 40, "lunch_pct": 98.9, "charter": true, "lat": 40.011, "lng": -75.1587, "ratio": 17.6}, {"name": "The Philadelphia CS for Arts and Science", "district": "The Philadelphia CS for Arts and Sciences at HR Edmunds", "city": "Philadelphia", "level": 1, "low_grade": 0, "high_grade": 8, "enrollment": 985, "teachers": 71, "lunch_pct": 86.5, "charter": true, "lat": 40.0251, "lng": -75.087, "ratio": 13.9}, {"name": "Universal Creighton CS", "district": "Universal Creighton CS", "city": "Philadelphia", "level": 1, "low_grade": 0, "high_grade": 8, "enrollment": 713, "teachers": 46, "lunch_pct": 84.3, "charter": true, "lat": 40.034318, "lng": -75.105221, "ratio": 15.5}, {"name": "Universal Alcorn CS", "district": "Universal Alcorn CS", "city": "Philadelphia", "level": 1, "low_grade": 0, "high_grade": 8, "enrollment": 461, "teachers": 32, "lunch_pct": 99.8, "charter": true, "lat": 39.9352, "lng": -75.1977, "ratio": 14.4}, {"name": "Mastery CS-Francis D. Pastorius Elementa", "district": "Mastery CS-Francis D. Pastorius Elementary", "city": "Philadelphia", "level": 1, "low_grade": 0, "high_grade": 8, "enrollment": 658, "teachers": 39, "lunch_pct": 0.0, "charter": true, "lat": 40.048143, "lng": -75.161641, "ratio": 16.9}, {"name": "KIPP West Philadelphia CS", "district": "KIPP West Philadelphia CS", "city": "Philadelphia", "level": 1, "low_grade": 0, "high_grade": 8, "enrollment": 805, "teachers": 57, "lunch_pct": 0.0, "charter": true, "lat": 39.98, "lng": -75.221122, "ratio": 14.1}, {"name": "Mastery CS John Wister Elementary", "district": "Mastery CS John Wister Elementary", "city": "Philadelphia", "level": 1, "low_grade": 0, "high_grade": 5, "enrollment": 513, "teachers": 28, "lunch_pct": 0.0, "charter": true, "lat": 40.033462, "lng": -75.167065, "ratio": 18.3}, {"name": "Global Leadership Academy CS Southwest a", "district": "Global Leadership Academy CS Southwest at Huey", "city": "Philadelphia", "level": 1, "low_grade": 0, "high_grade": 8, "enrollment": 532, "teachers": 18, "lunch_pct": 91.9, "charter": true, "lat": 39.95332, "lng": -75.226851, "ratio": 29.6}, {"name": "Independence CS West", "district": "Independence CS West", "city": "Philadelphia", "level": 1, "low_grade": 0, "high_grade": 8, "enrollment": 833, "teachers": 58, "lunch_pct": 99.8, "charter": true, "lat": 39.93709, "lng": -75.225581, "ratio": 14.4}, {"name": "Deep Roots CS", "district": "Deep Roots CS", "city": "Philadelphia", "level": 1, "low_grade": 0, "high_grade": 7, "enrollment": 284, "teachers": 24, "lunch_pct": 0.0, "charter": true, "lat": 39.998186, "lng": -75.101852, "ratio": 11.8}, {"name": "Mastery Prep Elementary CS", "district": "Mastery Prep Elementary CS", "city": "Philadelphia", "level": 1, "low_grade": 0, "high_grade": 6, "enrollment": 549, "teachers": 31, "lunch_pct": 0.0, "charter": true, "lat": 40.013454, "lng": -75.155996, "ratio": 17.7}, {"name": "KIPP North Philadelphia CS", "district": "KIPP North Philadelphia CS", "city": "Philadelphia", "level": 1, "low_grade": 0, "high_grade": 8, "enrollment": 588, "teachers": 41, "lunch_pct": 0.0, "charter": true, "lat": 39.992034, "lng": -75.157974, "ratio": 14.3}, {"name": "Philadelphia Hebrew Public CS", "district": "Philadelphia Hebrew Public CS", "city": "Philadelphia", "level": 1, "low_grade": 0, "high_grade": 4, "enrollment": 418, "teachers": 34, "lunch_pct": 99.8, "charter": true, "lat": 40.011919, "lng": -75.184154, "ratio": 12.3}, {"name": "MaST Community CS III", "district": "MaST Community CS III", "city": "Philadelphia", "level": 1, "low_grade": 0, "high_grade": 8, "enrollment": 1220, "teachers": 78, "lunch_pct": 100.0, "charter": true, "lat": 40.109451, "lng": -74.991696, "ratio": 15.6}, {"name": "Cayuga School", "district": "Philadelphia City SD", "city": "Philadelphia", "level": 1, "low_grade": 0, "high_grade": 5, "enrollment": 333, "teachers": 29, "lunch_pct": 100.0, "charter": false, "lat": 40.0178, "lng": -75.1351, "ratio": 11.5}, {"name": "Overbrook Elementary School", "district": "Philadelphia City SD", "city": "Philadelphia", "level": 1, "low_grade": -1, "high_grade": 8, "enrollment": 202, "teachers": 16, "lunch_pct": 100.0, "charter": false, "lat": 39.981918, "lng": -75.245545, "ratio": 12.6}, {"name": "Marshall Thurgood", "district": "Philadelphia City SD", "city": "Philadelphia", "level": 1, "low_grade": -1, "high_grade": 8, "enrollment": 619, "teachers": 46, "lunch_pct": 100.0, "charter": false, "lat": 40.0301, "lng": -75.1345, "ratio": 13.5}, {"name": "Munoz-Marin Luis", "district": "Philadelphia City SD", "city": "Philadelphia", "level": 1, "low_grade": -1, "high_grade": 8, "enrollment": 520, "teachers": 48, "lunch_pct": 99.8, "charter": false, "lat": 40.001832, "lng": -75.135382, "ratio": 10.8}, {"name": "Penn Alexander Sch", "district": "Philadelphia City SD", "city": "Philadelphia", "level": 1, "low_grade": 0, "high_grade": 8, "enrollment": 579, "teachers": 36, "lunch_pct": 100.0, "charter": false, "lat": 39.9532, "lng": -75.2082, "ratio": 16.1}, {"name": "Bryant William C Sch", "district": "Philadelphia City SD", "city": "Philadelphia", "level": 1, "low_grade": -1, "high_grade": 8, "enrollment": 358, "teachers": 23, "lunch_pct": 100.0, "charter": false, "lat": 39.9528, "lng": -75.2434, "ratio": 15.6}, {"name": "Catharine Joseph Sch", "district": "Philadelphia City SD", "city": "Philadelphia", "level": 1, "low_grade": -1, "high_grade": 5, "enrollment": 440, "teachers": 34, "lunch_pct": 100.0, "charter": false, "lat": 39.9276, "lng": -75.2397, "ratio": 12.9}, {"name": "McMichael Morton Sch", "district": "Philadelphia City SD", "city": "Philadelphia", "level": 1, "low_grade": -1, "high_grade": 8, "enrollment": 294, "teachers": 29, "lunch_pct": 100.0, "charter": false, "lat": 39.9663, "lng": -75.1945, "ratio": 10.1}, {"name": "Patterson John M Sch", "district": "Philadelphia City SD", "city": "Philadelphia", "level": 1, "low_grade": -1, "high_grade": 4, "enrollment": 404, "teachers": 27, "lunch_pct": 100.0, "charter": false, "lat": 39.9161, "lng": -75.2368, "ratio": 15.0}, {"name": "Rhoads James Sch", "district": "Philadelphia City SD", "city": "Philadelphia", "level": 1, "low_grade": 0, "high_grade": 8, "enrollment": 420, "teachers": 44, "lunch_pct": 100.0, "charter": false, "lat": 39.9673, "lng": -75.22, "ratio": 9.5}, {"name": "Washington Martha Sch", "district": "Philadelphia City SD", "city": "Philadelphia", "level": 1, "low_grade": 0, "high_grade": 8, "enrollment": 223, "teachers": 25, "lunch_pct": 100.0, "charter": false, "lat": 39.9658, "lng": -75.2114, "ratio": 8.9}, {"name": "Penrose Sch", "district": "Philadelphia City SD", "city": "Philadelphia", "level": 1, "low_grade": 0, "high_grade": 8, "enrollment": 403, "teachers": 40, "lunch_pct": 100.0, "charter": false, "lat": 39.9075, "lng": -75.2484, "ratio": 10.1}, {"name": "Bache-Martin Sch", "district": "Philadelphia City SD", "city": "Philadelphia", "level": 1, "low_grade": -1, "high_grade": 8, "enrollment": 530, "teachers": 52, "lunch_pct": 100.0, "charter": false, "lat": 39.9698, "lng": -75.1735, "ratio": 10.2}, {"name": "Bregy F Amedee Sch", "district": "Philadelphia City SD", "city": "Philadelphia", "level": 1, "low_grade": -1, "high_grade": 8, "enrollment": 248, "teachers": 27, "lunch_pct": 100.0, "charter": false, "lat": 39.914571, "lng": -75.176744, "ratio": 9.2}, {"name": "Childs George W Sch", "district": "Philadelphia City SD", "city": "Philadelphia", "level": 1, "low_grade": -1, "high_grade": 8, "enrollment": 425, "teachers": 39, "lunch_pct": 100.0, "charter": false, "lat": 39.9316, "lng": -75.1728, "ratio": 10.9}, {"name": "Gideon Edward Sch", "district": "Philadelphia City SD", "city": "Philadelphia", "level": 1, "low_grade": -1, "high_grade": 8, "enrollment": 217, "teachers": 17, "lunch_pct": 100.0, "charter": false, "lat": 39.9843, "lng": -75.1808, "ratio": 12.8}, {"name": "Kelley William D Sch", "district": "Philadelphia City SD", "city": "Philadelphia", "level": 1, "low_grade": -1, "high_grade": 8, "enrollment": 228, "teachers": 20, "lunch_pct": 100.0, "charter": false, "lat": 39.9804, "lng": -75.1801, "ratio": 11.4}, {"name": "McDaniel Delaplaine Sch", "district": "Philadelphia City SD", "city": "Philadelphia", "level": 1, "low_grade": 0, "high_grade": 8, "enrollment": 224, "teachers": 21, "lunch_pct": 100.0, "charter": false, "lat": 39.9295, "lng": -75.1814, "ratio": 10.7}, {"name": "Meade Gen George C Sch", "district": "Philadelphia City SD", "city": "Philadelphia", "level": 1, "low_grade": -1, "high_grade": 8, "enrollment": 296, "teachers": 29, "lunch_pct": 100.0, "charter": false, "lat": 39.9784, "lng": -75.1648, "ratio": 10.2}, {"name": "Stanton Edwin M Sch", "district": "Philadelphia City SD", "city": "Philadelphia", "level": 1, "low_grade": -1, "high_grade": 8, "enrollment": 322, "teachers": 24, "lunch_pct": 100.0, "charter": false, "lat": 39.9404, "lng": -75.1708, "ratio": 13.4}, {"name": "Waring Laura W Sch", "district": "Philadelphia City SD", "city": "Philadelphia", "level": 1, "low_grade": -1, "high_grade": 8, "enrollment": 197, "teachers": 18, "lunch_pct": 100.0, "charter": false, "lat": 39.9648, "lng": -75.1677, "ratio": 10.9}, {"name": "Fell D Newlin Sch", "district": "Philadelphia City SD", "city": "Philadelphia", "level": 1, "low_grade": 0, "high_grade": 8, "enrollment": 486, "teachers": 36, "lunch_pct": 100.0, "charter": false, "lat": 39.9154, "lng": -75.1634, "ratio": 13.5}, {"name": "Fanny Jackson Coppin Sch", "district": "Philadelphia City SD", "city": "Philadelphia", "level": 1, "low_grade": -1, "high_grade": 8, "enrollment": 520, "teachers": 35, "lunch_pct": 100.0, "charter": false, "lat": 39.9346, "lng": -75.1634, "ratio": 14.9}, {"name": "Jenks Abram Sch", "district": "Philadelphia City SD", "city": "Philadelphia", "level": 1, "low_grade": 0, "high_grade": 5, "enrollment": 241, "teachers": 19, "lunch_pct": 100.0, "charter": false, "lat": 39.9189, "lng": -75.1684, "ratio": 12.7}, {"name": "Kearny Gen Philip Sch", "district": "Philadelphia City SD", "city": "Philadelphia", "level": 1, "low_grade": 0, "high_grade": 8, "enrollment": 194, "teachers": 21, "lunch_pct": 100.0, "charter": false, "lat": 39.9639, "lng": -75.1483, "ratio": 9.2}, {"name": "Key Francis Scott Sch", "district": "Philadelphia City SD", "city": "Philadelphia", "level": 1, "low_grade": 0, "high_grade": 6, "enrollment": 376, "teachers": 33, "lunch_pct": 100.0, "charter": false, "lat": 39.9208, "lng": -75.1607, "ratio": 11.4}, {"name": "Kirkbride Eliza B Sch", "district": "Philadelphia City SD", "city": "Philadelphia", "level": 1, "low_grade": -1, "high_grade": 8, "enrollment": 509, "teachers": 39, "lunch_pct": 100.0, "charter": false, "lat": 39.93, "lng": -75.1563, "ratio": 13.1}, {"name": "McCall Gen George A Sch", "district": "Philadelphia City SD", "city": "Philadelphia", "level": 1, "low_grade": 0, "high_grade": 8, "enrollment": 628, "teachers": 37, "lunch_pct": 100.0, "charter": false, "lat": 39.9446, "lng": -75.1527, "ratio": 17.0}, {"name": "Meredith William M Sch", "district": "Philadelphia City SD", "city": "Philadelphia", "level": 1, "low_grade": 0, "high_grade": 8, "enrollment": 516, "teachers": 29, "lunch_pct": 100.0, "charter": false, "lat": 39.9395, "lng": -75.1509, "ratio": 17.8}, {"name": "Nebinger George W Sch", "district": "Philadelphia City SD", "city": "Philadelphia", "level": 1, "low_grade": -1, "high_grade": 8, "enrollment": 405, "teachers": 37, "lunch_pct": 100.0, "charter": false, "lat": 39.9367, "lng": -75.1539, "ratio": 10.9}, {"name": "Sharswood George Sch", "district": "Philadelphia City SD", "city": "Philadelphia", "level": 1, "low_grade": -1, "high_grade": 8, "enrollment": 356, "teachers": 31, "lunch_pct": 100.0, "charter": false, "lat": 39.9188, "lng": -75.1509, "ratio": 11.5}, {"name": "Southwark Sch", "district": "Philadelphia City SD", "city": "Philadelphia", "level": 1, "low_grade": -1, "high_grade": 8, "enrollment": 920, "teachers": 62, "lunch_pct": 100.0, "charter": false, "lat": 39.926, "lng": -75.1604, "ratio": 14.8}, {"name": "Spring Garden Sch", "district": "Philadelphia City SD", "city": "Philadelphia", "level": 1, "low_grade": 0, "high_grade": 8, "enrollment": 239, "teachers": 18, "lunch_pct": 99.2, "charter": false, "lat": 39.96516, "lng": -75.156191, "ratio": 13.3}, {"name": "Taggart John H Sch", "district": "Philadelphia City SD", "city": "Philadelphia", "level": 1, "low_grade": -1, "high_grade": 8, "enrollment": 538, "teachers": 40, "lunch_pct": 100.0, "charter": false, "lat": 39.9171, "lng": -75.1548, "ratio": 13.4}, {"name": "Blaine James G Sch", "district": "Philadelphia City SD", "city": "Philadelphia", "level": 1, "low_grade": -1, "high_grade": 8, "enrollment": 341, "teachers": 30, "lunch_pct": 100.0, "charter": false, "lat": 39.9853, "lng": -75.1834, "ratio": 11.4}, {"name": "Blankenburg Rudolph Sch", "district": "Philadelphia City SD", "city": "Philadelphia", "level": 1, "low_grade": -1, "high_grade": 8, "enrollment": 244, "teachers": 31, "lunch_pct": 100.0, "charter": false, "lat": 39.9726, "lng": -75.2153, "ratio": 7.9}, {"name": "Lewis C Cassidy Academics Plus Sch", "district": "Philadelphia City SD", "city": "Philadelphia", "level": 1, "low_grade": 0, "high_grade": 8, "enrollment": 232, "teachers": 17, "lunch_pct": 98.7, "charter": false, "lat": 39.9751, "lng": -75.250737, "ratio": 13.6}, {"name": "Samuel Gompers Sch", "district": "Philadelphia City SD", "city": "Philadelphia", "level": 1, "low_grade": 0, "high_grade": 8, "enrollment": 251, "teachers": 22, "lunch_pct": 100.0, "charter": false, "lat": 39.9928, "lng": -75.2383, "ratio": 11.4}, {"name": "Lamberton Robert E Sch", "district": "Philadelphia City SD", "city": "Philadelphia", "level": 1, "low_grade": -1, "high_grade": 8, "enrollment": 310, "teachers": 27, "lunch_pct": 100.0, "charter": false, "lat": 39.9754, "lng": -75.2666, "ratio": 11.5}, {"name": "Peirce Thomas M Sch", "district": "Philadelphia City SD", "city": "Philadelphia", "level": 1, "low_grade": -1, "high_grade": 6, "enrollment": 242, "teachers": 18, "lunch_pct": 100.0, "charter": false, "lat": 39.9986, "lng": -75.1683, "ratio": 13.4}, {"name": "Brown Henry A Sch", "district": "Philadelphia City SD", "city": "Philadelphia", "level": 1, "low_grade": -1, "high_grade": 8, "enrollment": 313, "teachers": 28, "lunch_pct": 100.0, "charter": false, "lat": 39.9867, "lng": -75.1276, "ratio": 11.2}, {"name": "Dunbar Paul L Sch", "district": "Philadelphia City SD", "city": "Philadelphia", "level": 1, "low_grade": -1, "high_grade": 8, "enrollment": 239, "teachers": 24, "lunch_pct": 100.0, "charter": false, "lat": 39.979, "lng": -75.1542, "ratio": 10.0}, {"name": "Elkin Lewis Sch", "district": "Philadelphia City SD", "city": "Philadelphia", "level": 1, "low_grade": 0, "high_grade": 4, "enrollment": 539, "teachers": 49, "lunch_pct": 100.0, "charter": false, "lat": 39.997, "lng": -75.1209, "ratio": 11.0}, {"name": "Hunter William H Sch", "district": "Philadelphia City SD", "city": "Philadelphia", "level": 1, "low_grade": -1, "high_grade": 8, "enrollment": 438, "teachers": 37, "lunch_pct": 100.0, "charter": false, "lat": 39.987456, "lng": -75.13207, "ratio": 11.8}, {"name": "Ludlow James R Sch", "district": "Philadelphia City SD", "city": "Philadelphia", "level": 1, "low_grade": -1, "high_grade": 8, "enrollment": 202, "teachers": 24, "lunch_pct": 100.0, "charter": false, "lat": 39.9725, "lng": -75.146, "ratio": 8.4}, {"name": "Moffet John Sch", "district": "Philadelphia City SD", "city": "Philadelphia", "level": 1, "low_grade": 0, "high_grade": 5, "enrollment": 250, "teachers": 21, "lunch_pct": 100.0, "charter": false, "lat": 39.9749, "lng": -75.1359, "ratio": 11.9}, {"name": "Richmond Sch", "district": "Philadelphia City SD", "city": "Philadelphia", "level": 1, "low_grade": 0, "high_grade": 5, "enrollment": 362, "teachers": 28, "lunch_pct": 100.0, "charter": false, "lat": 39.9834, "lng": -75.1104, "ratio": 12.9}, {"name": "Sheppard Isaac Sch", "district": "Philadelphia City SD", "city": "Philadelphia", "level": 1, "low_grade": 0, "high_grade": 4, "enrollment": 140, "teachers": 15, "lunch_pct": 100.0, "charter": false, "lat": 39.9937, "lng": -75.1316, "ratio": 9.3}, {"name": "Welsh John Sch", "district": "Philadelphia City SD", "city": "Philadelphia", "level": 1, "low_grade": 0, "high_grade": 8, "enrollment": 253, "teachers": 21, "lunch_pct": 100.0, "charter": false, "lat": 39.9867, "lng": -75.1393, "ratio": 12.0}, {"name": "Day Anna B Sch", "district": "Philadelphia City SD", "city": "Philadelphia", "level": 1, "low_grade": -1, "high_grade": 8, "enrollment": 394, "teachers": 29, "lunch_pct": 100.0, "charter": false, "lat": 40.0587, "lng": -75.1682, "ratio": 13.6}, {"name": "Franklin S Edmonds Sch", "district": "Philadelphia City SD", "city": "Philadelphia", "level": 1, "low_grade": -1, "high_grade": 8, "enrollment": 476, "teachers": 33, "lunch_pct": 100.0, "charter": false, "lat": 40.0731, "lng": -75.171, "ratio": 14.4}, {"name": "Emlen Eleanor C Sch", "district": "Philadelphia City SD", "city": "Philadelphia", "level": 1, "low_grade": -1, "high_grade": 5, "enrollment": 319, "teachers": 27, "lunch_pct": 100.0, "charter": false, "lat": 40.0541, "lng": -75.1782, "ratio": 11.8}, {"name": "Henry Charles W Sch", "district": "Philadelphia City SD", "city": "Philadelphia", "level": 1, "low_grade": 0, "high_grade": 8, "enrollment": 489, "teachers": 33, "lunch_pct": 100.0, "charter": false, "lat": 40.046, "lng": -75.1968, "ratio": 14.8}, {"name": "Houston Henry E Sch", "district": "Philadelphia City SD", "city": "Philadelphia", "level": 1, "low_grade": 0, "high_grade": 8, "enrollment": 365, "teachers": 29, "lunch_pct": 100.0, "charter": false, "lat": 40.0591, "lng": -75.1948, "ratio": 12.6}, {"name": "John Story Jenks Academy for the Arts an", "district": "Philadelphia City SD", "city": "Philadelphia", "level": 1, "low_grade": 0, "high_grade": 8, "enrollment": 422, "teachers": 28, "lunch_pct": 100.0, "charter": false, "lat": 40.075, "lng": -75.2033, "ratio": 15.1}, {"name": "Lingelbach Anna L Sch", "district": "Philadelphia City SD", "city": "Philadelphia", "level": 1, "low_grade": 0, "high_grade": 8, "enrollment": 301, "teachers": 25, "lunch_pct": 100.0, "charter": false, "lat": 40.0374, "lng": -75.1898, "ratio": 12.0}, {"name": "Logan James Sch", "district": "Philadelphia City SD", "city": "Philadelphia", "level": 1, "low_grade": -1, "high_grade": 5, "enrollment": 255, "teachers": 25, "lunch_pct": 100.0, "charter": false, "lat": 40.031, "lng": -75.152, "ratio": 10.2}, {"name": "McCloskey John F Sch", "district": "Philadelphia City SD", "city": "Philadelphia", "level": 1, "low_grade": -1, "high_grade": 8, "enrollment": 250, "teachers": 20, "lunch_pct": 100.0, "charter": false, "lat": 40.081, "lng": -75.1748, "ratio": 12.5}, {"name": "Mifflin Thomas Sch", "district": "Philadelphia City SD", "city": "Philadelphia", "level": 1, "low_grade": -1, "high_grade": 8, "enrollment": 363, "teachers": 25, "lunch_pct": 100.0, "charter": false, "lat": 40.0134, "lng": -75.1917, "ratio": 14.5}, {"name": "Pennell Joseph Sch", "district": "Philadelphia City SD", "city": "Philadelphia", "level": 1, "low_grade": -1, "high_grade": 5, "enrollment": 311, "teachers": 24, "lunch_pct": 100.0, "charter": false, "lat": 40.0434, "lng": -75.1508, "ratio": 13.0}, {"name": "Rowen William Sch", "district": "Philadelphia City SD", "city": "Philadelphia", "level": 1, "low_grade": 0, "high_grade": 5, "enrollment": 326, "teachers": 23, "lunch_pct": 100.0, "charter": false, "lat": 40.0587, "lng": -75.1483, "ratio": 14.2}, {"name": "Shawmont Sch", "district": "Philadelphia City SD", "city": "Philadelphia", "level": 1, "low_grade": -1, "high_grade": 8, "enrollment": 409, "teachers": 31, "lunch_pct": 100.0, "charter": false, "lat": 40.0515, "lng": -75.2386, "ratio": 13.2}, {"name": "Dobson James Sch", "district": "Philadelphia City SD", "city": "Philadelphia", "level": 1, "low_grade": 0, "high_grade": 8, "enrollment": 241, "teachers": 21, "lunch_pct": 100.0, "charter": false, "lat": 40.0314, "lng": -75.2304, "ratio": 11.5}, {"name": "Steel Edward Sch", "district": "Philadelphia City SD", "city": "Philadelphia", "level": 1, "low_grade": -1, "high_grade": 8, "enrollment": 331, "teachers": 35, "lunch_pct": 100.0, "charter": false, "lat": 40.0185, "lng": -75.1574, "ratio": 9.5}, {"name": "Barton Clara Sch", "district": "Philadelphia City SD", "city": "Philadelphia", "level": 1, "low_grade": 0, "high_grade": 2, "enrollment": 522, "teachers": 40, "lunch_pct": 100.0, "charter": false, "lat": 40.0204, "lng": -75.1195, "ratio": 13.1}, {"name": "Carnell Laura H Sch", "district": "Philadelphia City SD", "city": "Philadelphia", "level": 1, "low_grade": 0, "high_grade": 5, "enrollment": 707, "teachers": 43, "lunch_pct": 100.0, "charter": false, "lat": 40.039, "lng": -75.0843, "ratio": 16.4}, {"name": "Ellwood Sch", "district": "Philadelphia City SD", "city": "Philadelphia", "level": 1, "low_grade": -1, "high_grade": 5, "enrollment": 298, "teachers": 22, "lunch_pct": 100.0, "charter": false, "lat": 40.0551, "lng": -75.1386, "ratio": 13.5}, {"name": "Finletter Thomas K Sch", "district": "Philadelphia City SD", "city": "Philadelphia", "level": 1, "low_grade": -1, "high_grade": 8, "enrollment": 616, "teachers": 40, "lunch_pct": 100.0, "charter": false, "lat": 40.0439, "lng": -75.119, "ratio": 15.4}, {"name": "Hopkinson Francis Sch", "district": "Philadelphia City SD", "city": "Philadelphia", "level": 1, "low_grade": 0, "high_grade": 8, "enrollment": 602, "teachers": 47, "lunch_pct": 99.8, "charter": false, "lat": 40.0084, "lng": -75.1023, "ratio": 12.8}, {"name": "Howe Julia Ward Sch", "district": "Philadelphia City SD", "city": "Philadelphia", "level": 1, "low_grade": 0, "high_grade": 5, "enrollment": 206, "teachers": 21, "lunch_pct": 100.0, "charter": false, "lat": 40.0415, "lng": -75.1422, "ratio": 9.8}, {"name": "Lawton Henry W Sch", "district": "Philadelphia City SD", "city": "Philadelphia", "level": 1, "low_grade": -1, "high_grade": 5, "enrollment": 605, "teachers": 43, "lunch_pct": 100.0, "charter": false, "lat": 40.0203, "lng": -75.0586, "ratio": 14.1}, {"name": "Bridesburg Sch", "district": "Philadelphia City SD", "city": "Philadelphia", "level": 1, "low_grade": 0, "high_grade": 8, "enrollment": 597, "teachers": 40, "lunch_pct": 100.0, "charter": false, "lat": 40.0004, "lng": -75.0669, "ratio": 14.9}, {"name": "Lowell James R Sch", "district": "Philadelphia City SD", "city": "Philadelphia", "level": 1, "low_grade": -1, "high_grade": 4, "enrollment": 530, "teachers": 37, "lunch_pct": 100.0, "charter": false, "lat": 40.0408, "lng": -75.1291, "ratio": 14.3}, {"name": "Morrison Andrew J Sch", "district": "Philadelphia City SD", "city": "Philadelphia", "level": 1, "low_grade": 0, "high_grade": 8, "enrollment": 526, "teachers": 38, "lunch_pct": 100.0, "charter": false, "lat": 40.0295, "lng": -75.1296, "ratio": 13.8}, {"name": "Olney El Sch", "district": "Philadelphia City SD", "city": "Philadelphia", "level": 1, "low_grade": 0, "high_grade": 8, "enrollment": 717, "teachers": 46, "lunch_pct": 100.0, "charter": false, "lat": 40.031, "lng": -75.1206, "ratio": 15.6}, {"name": "Feltonville Intermediate School", "district": "Philadelphia City SD", "city": "Philadelphia", "level": 1, "low_grade": 3, "high_grade": 5, "enrollment": 525, "teachers": 30, "lunch_pct": 100.0, "charter": false, "lat": 40.0204, "lng": -75.1211, "ratio": 17.5}, {"name": "Sullivan James J Sch", "district": "Philadelphia City SD", "city": "Philadelphia", "level": 1, "low_grade": 0, "high_grade": 5, "enrollment": 408, "teachers": 34, "lunch_pct": 100.0, "charter": false, "lat": 40.016026, "lng": -75.067, "ratio": 12.0}, {"name": "Ziegler William H Sch", "district": "Philadelphia City SD", "city": "Philadelphia", "level": 1, "low_grade": 0, "high_grade": 8, "enrollment": 492, "teachers": 37, "lunch_pct": 100.0, "charter": false, "lat": 40.0302, "lng": -75.0753, "ratio": 13.3}, {"name": "Taylor Bayard Sch", "district": "Philadelphia City SD", "city": "Philadelphia", "level": 1, "low_grade": 0, "high_grade": 5, "enrollment": 384, "teachers": 41, "lunch_pct": 100.0, "charter": false, "lat": 40.0071, "lng": -75.1382, "ratio": 9.4}, {"name": "Allen Ethan Sch", "district": "Philadelphia City SD", "city": "Philadelphia", "level": 1, "low_grade": 0, "high_grade": 8, "enrollment": 920, "teachers": 55, "lunch_pct": 99.9, "charter": false, "lat": 40.0298, "lng": -75.0618, "ratio": 16.7}, {"name": "Comly Watson Sch", "district": "Philadelphia City SD", "city": "Philadelphia", "level": 1, "low_grade": 0, "high_grade": 5, "enrollment": 565, "teachers": 34, "lunch_pct": 100.0, "charter": false, "lat": 40.1208, "lng": -75.0096, "ratio": 16.6}, {"name": "Crossan Kennedy C Sch", "district": "Philadelphia City SD", "city": "Philadelphia", "level": 1, "low_grade": 0, "high_grade": 5, "enrollment": 314, "teachers": 20, "lunch_pct": 100.0, "charter": false, "lat": 40.0622, "lng": -75.0812, "ratio": 15.7}, {"name": "Disston Hamilton Sch", "district": "Philadelphia City SD", "city": "Philadelphia", "level": 1, "low_grade": 0, "high_grade": 8, "enrollment": 713, "teachers": 41, "lunch_pct": 100.0, "charter": false, "lat": 40.0282, "lng": -75.0469, "ratio": 17.4}, {"name": "Forrest Edwin Sch", "district": "Philadelphia City SD", "city": "Philadelphia", "level": 1, "low_grade": -1, "high_grade": 5, "enrollment": 799, "teachers": 55, "lunch_pct": 100.0, "charter": false, "lat": 40.0345, "lng": -75.036, "ratio": 14.5}, {"name": "Fox Chase Sch", "district": "Philadelphia City SD", "city": "Philadelphia", "level": 1, "low_grade": 0, "high_grade": 5, "enrollment": 447, "teachers": 32, "lunch_pct": 100.0, "charter": false, "lat": 40.075, "lng": -75.0809, "ratio": 14.0}, {"name": "Holme Thomas Sch", "district": "Philadelphia City SD", "city": "Philadelphia", "level": 1, "low_grade": -1, "high_grade": 8, "enrollment": 813, "teachers": 53, "lunch_pct": 100.0, "charter": false, "lat": 40.054842, "lng": -75.009286, "ratio": 15.3}, {"name": "Mayfair Sch", "district": "Philadelphia City SD", "city": "Philadelphia", "level": 1, "low_grade": 0, "high_grade": 8, "enrollment": 1682, "teachers": 84, "lunch_pct": 100.0, "charter": false, "lat": 40.0393, "lng": -75.0519, "ratio": 20.0}, {"name": "Moore J Hampton Sch", "district": "Philadelphia City SD", "city": "Philadelphia", "level": 1, "low_grade": 0, "high_grade": 5, "enrollment": 1134, "teachers": 70, "lunch_pct": 100.0, "charter": false, "lat": 40.049177, "lng": -75.077007, "ratio": 16.2}, {"name": "Rhawnhurst Sch", "district": "Philadelphia City SD", "city": "Philadelphia", "level": 1, "low_grade": -1, "high_grade": 5, "enrollment": 623, "teachers": 37, "lunch_pct": 100.0, "charter": false, "lat": 40.0586, "lng": -75.058, "ratio": 16.8}, {"name": "Solis-Cohen Solomon Sch", "district": "Philadelphia City SD", "city": "Philadelphia", "level": 1, "low_grade": 0, "high_grade": 5, "enrollment": 1250, "teachers": 79, "lunch_pct": 100.0, "charter": false, "lat": 40.044478, "lng": -75.063172, "ratio": 15.8}, {"name": "Spruance Gilbert Sch", "district": "Philadelphia City SD", "city": "Philadelphia", "level": 1, "low_grade": -1, "high_grade": 8, "enrollment": 1275, "teachers": 77, "lunch_pct": 100.0, "charter": false, "lat": 40.0374, "lng": -75.0728, "ratio": 16.6}, {"name": "Girard Stephen Sch", "district": "Philadelphia City SD", "city": "Philadelphia", "level": 1, "low_grade": 0, "high_grade": 4, "enrollment": 293, "teachers": 21, "lunch_pct": 100.0, "charter": false, "lat": 39.9246, "lng": -75.177, "ratio": 14.0}, {"name": "Farrell Louis H Sch", "district": "Philadelphia City SD", "city": "Philadelphia", "level": 1, "low_grade": 0, "high_grade": 8, "enrollment": 1102, "teachers": 66, "lunch_pct": 100.0, "charter": false, "lat": 40.0669, "lng": -75.0518, "ratio": 16.7}, {"name": "Fitzpatrick Aloysius L Sch", "district": "Philadelphia City SD", "city": "Philadelphia", "level": 1, "low_grade": -1, "high_grade": 8, "enrollment": 821, "teachers": 48, "lunch_pct": 100.0, "charter": false, "lat": 40.0805, "lng": -74.9766, "ratio": 17.1}, {"name": "Comegys Benjamin B Sch", "district": "Philadelphia City SD", "city": "Philadelphia", "level": 1, "low_grade": 0, "high_grade": 8, "enrollment": 320, "teachers": 21, "lunch_pct": 100.0, "charter": false, "lat": 39.9406, "lng": -75.2164, "ratio": 15.2}, {"name": "Powel Samuel Sch", "district": "Philadelphia City SD", "city": "Philadelphia", "level": 1, "low_grade": 0, "high_grade": 4, "enrollment": 290, "teachers": 19, "lunch_pct": 100.0, "charter": false, "lat": 39.957728, "lng": -75.194177, "ratio": 15.3}, {"name": "Dick William Sch", "district": "Philadelphia City SD", "city": "Philadelphia", "level": 1, "low_grade": 0, "high_grade": 8, "enrollment": 356, "teachers": 26, "lunch_pct": 100.0, "charter": false, "lat": 39.986668, "lng": -75.173647, "ratio": 13.7}, {"name": "Marshall John Sch", "district": "Philadelphia City SD", "city": "Philadelphia", "level": 1, "low_grade": 0, "high_grade": 5, "enrollment": 245, "teachers": 23, "lunch_pct": 100.0, "charter": false, "lat": 40.0146, "lng": -75.0875, "ratio": 10.7}, {"name": "Mitchell El Sch", "district": "Philadelphia City SD", "city": "Philadelphia", "level": 1, "low_grade": -1, "high_grade": 8, "enrollment": 337, "teachers": 30, "lunch_pct": 100.0, "charter": false, "lat": 39.9368, "lng": -75.2235, "ratio": 11.2}, {"name": "Gloria Casarez El Sch", "district": "Philadelphia City SD", "city": "Philadelphia", "level": 1, "low_grade": 0, "high_grade": 5, "enrollment": 461, "teachers": 36, "lunch_pct": 99.8, "charter": false, "lat": 39.9996, "lng": -75.1145, "ratio": 12.8}, {"name": "Pollock Robert B Sch", "district": "Philadelphia City SD", "city": "Philadelphia", "level": 1, "low_grade": 0, "high_grade": 8, "enrollment": 685, "teachers": 46, "lunch_pct": 100.0, "charter": false, "lat": 40.045837, "lng": -75.04415, "ratio": 14.9}, {"name": "Frank Anne Sch", "district": "Philadelphia City SD", "city": "Philadelphia", "level": 1, "low_grade": -1, "high_grade": 5, "enrollment": 1347, "teachers": 75, "lunch_pct": 99.9, "charter": false, "lat": 40.0882, "lng": -75.0284, "ratio": 18.0}, {"name": "Anderson Add B Sch", "district": "Philadelphia City SD", "city": "Philadelphia", "level": 1, "low_grade": -1, "high_grade": 8, "enrollment": 401, "teachers": 31, "lunch_pct": 99.8, "charter": false, "lat": 39.9468, "lng": -75.2458, "ratio": 12.9}, {"name": "Arthur Chester A Sch", "district": "Philadelphia City SD", "city": "Philadelphia", "level": 1, "low_grade": 0, "high_grade": 8, "enrollment": 307, "teachers": 27, "lunch_pct": 100.0, "charter": false, "lat": 39.9418, "lng": -75.1761, "ratio": 11.4}, {"name": "Cooke Jay MS", "district": "Philadelphia City SD", "city": "Philadelphia", "level": 1, "low_grade": 0, "high_grade": 8, "enrollment": 369, "teachers": 38, "lunch_pct": 100.0, "charter": false, "lat": 40.0256, "lng": -75.1461, "ratio": 9.7}, {"name": "Greenberg Joseph Sch", "district": "Philadelphia City SD", "city": "Philadelphia", "level": 1, "low_grade": 0, "high_grade": 8, "enrollment": 831, "teachers": 47, "lunch_pct": 100.0, "charter": false, "lat": 40.0957, "lng": -75.0574, "ratio": 17.7}, {"name": "Decatur Stephen Sch", "district": "Philadelphia City SD", "city": "Philadelphia", "level": 1, "low_grade": 0, "high_grade": 8, "enrollment": 889, "teachers": 62, "lunch_pct": 100.0, "charter": false, "lat": 40.0958, "lng": -74.9707, "ratio": 14.3}, {"name": "Locke Alain Sch", "district": "Philadelphia City SD", "city": "Philadelphia", "level": 1, "low_grade": 0, "high_grade": 8, "enrollment": 282, "teachers": 33, "lunch_pct": 100.0, "charter": false, "lat": 39.9621, "lng": -75.2124, "ratio": 8.5}, {"name": "Morris Robert Sch", "district": "Philadelphia City SD", "city": "Philadelphia", "level": 1, "low_grade": -1, "high_grade": 8, "enrollment": 159, "teachers": 18, "lunch_pct": 100.0, "charter": false, "lat": 39.9755, "lng": -75.1788, "ratio": 8.8}, {"name": "Loesche William H Sch", "district": "Philadelphia City SD", "city": "Philadelphia", "level": 1, "low_grade": -1, "high_grade": 5, "enrollment": 1012, "teachers": 69, "lunch_pct": 100.0, "charter": false, "lat": 40.114192, "lng": -75.023576, "ratio": 14.7}, {"name": "Stearne Allen M Sch", "district": "Philadelphia City SD", "city": "Philadelphia", "level": 1, "low_grade": 0, "high_grade": 8, "enrollment": 380, "teachers": 22, "lunch_pct": 100.0, "charter": false, "lat": 40.0118, "lng": -75.0852, "ratio": 17.3}, {"name": "Duckrey Tanner Sch", "district": "Philadelphia City SD", "city": "Philadelphia", "level": 1, "low_grade": 0, "high_grade": 8, "enrollment": 436, "teachers": 31, "lunch_pct": 100.0, "charter": false, "lat": 39.9854, "lng": -75.1589, "ratio": 14.1}, {"name": "John Hancock Demonstration Sch", "district": "Philadelphia City SD", "city": "Philadelphia", "level": 1, "low_grade": 0, "high_grade": 8, "enrollment": 689, "teachers": 55, "lunch_pct": 100.0, "charter": false, "lat": 40.0674, "lng": -74.9891, "ratio": 12.5}, {"name": "Hackett Horatio B Sch", "district": "Philadelphia City SD", "city": "Philadelphia", "level": 1, "low_grade": -1, "high_grade": 5, "enrollment": 411, "teachers": 31, "lunch_pct": 100.0, "charter": false, "lat": 39.9812, "lng": -75.1268, "ratio": 13.3}, {"name": "Potter-Thomas Sch", "district": "Philadelphia City SD", "city": "Philadelphia", "level": 1, "low_grade": 0, "high_grade": 8, "enrollment": 405, "teachers": 34, "lunch_pct": 100.0, "charter": false, "lat": 39.9973, "lng": -75.1406, "ratio": 11.9}, {"name": "Cook-Wissahickon Sch", "district": "Philadelphia City SD", "city": "Philadelphia", "level": 1, "low_grade": -1, "high_grade": 8, "enrollment": 442, "teachers": 33, "lunch_pct": 100.0, "charter": false, "lat": 40.0226, "lng": -75.2069, "ratio": 13.4}, {"name": "Cramp William Sch", "district": "Philadelphia City SD", "city": "Philadelphia", "level": 1, "low_grade": -1, "high_grade": 5, "enrollment": 372, "teachers": 32, "lunch_pct": 100.0, "charter": false, "lat": 40.0028, "lng": -75.13, "ratio": 11.6}, {"name": "Webster Sch", "district": "Philadelphia City SD", "city": "Philadelphia", "level": 1, "low_grade": -1, "high_grade": 5, "enrollment": 515, "teachers": 41, "lunch_pct": 100.0, "charter": false, "lat": 39.9962, "lng": -75.1056, "ratio": 12.6}, {"name": "Hartranft John F Sch", "district": "Philadelphia City SD", "city": "Philadelphia", "level": 1, "low_grade": 0, "high_grade": 8, "enrollment": 299, "teachers": 31, "lunch_pct": 100.0, "charter": false, "lat": 39.9892, "lng": -75.1451, "ratio": 9.6}, {"name": "Bethune Mary McLeod Sch", "district": "Philadelphia City SD", "city": "Philadelphia", "level": 1, "low_grade": -1, "high_grade": 8, "enrollment": 478, "teachers": 36, "lunch_pct": 100.0, "charter": false, "lat": 40.0035, "lng": -75.1481, "ratio": 13.3}, {"name": "Hamilton Andrew Sch", "district": "Philadelphia City SD", "city": "Philadelphia", "level": 1, "low_grade": 0, "high_grade": 8, "enrollment": 346, "teachers": 29, "lunch_pct": 100.0, "charter": false, "lat": 39.9554, "lng": -75.2356, "ratio": 11.9}, {"name": "Greenfield Albert M Sch", "district": "Philadelphia City SD", "city": "Philadelphia", "level": 1, "low_grade": 0, "high_grade": 8, "enrollment": 683, "teachers": 38, "lunch_pct": 100.0, "charter": false, "lat": 39.9523, "lng": -75.1776, "ratio": 18.0}, {"name": "Heston Edward Sch", "district": "Philadelphia City SD", "city": "Philadelphia", "level": 1, "low_grade": -1, "high_grade": 8, "enrollment": 374, "teachers": 27, "lunch_pct": 100.0, "charter": false, "lat": 39.9779, "lng": -75.2295, "ratio": 13.9}, {"name": "Wright Richard R Sch", "district": "Philadelphia City SD", "city": "Philadelphia", "level": 1, "low_grade": -1, "high_grade": 5, "enrollment": 276, "teachers": 27, "lunch_pct": 100.0, "charter": false, "lat": 39.9903, "lng": -75.1776, "ratio": 10.2}, {"name": "Allen Dr Ethel Sch", "district": "Philadelphia City SD", "city": "Philadelphia", "level": 1, "low_grade": -1, "high_grade": 8, "enrollment": 349, "teachers": 31, "lunch_pct": 100.0, "charter": false, "lat": 39.9974, "lng": -75.1837, "ratio": 11.3}, {"name": "McKinley William Sch", "district": "Philadelphia City SD", "city": "Philadelphia", "level": 1, "low_grade": -1, "high_grade": 8, "enrollment": 355, "teachers": 27, "lunch_pct": 100.0, "charter": false, "lat": 39.9834, "lng": -75.1411, "ratio": 13.1}, {"name": "Kelly John B Sch", "district": "Philadelphia City SD", "city": "Philadelphia", "level": 1, "low_grade": 0, "high_grade": 5, "enrollment": 336, "teachers": 32, "lunch_pct": 100.0, "charter": false, "lat": 40.0252, "lng": -75.1725, "ratio": 10.5}, {"name": "Juniata Park Academy", "district": "Philadelphia City SD", "city": "Philadelphia", "level": 1, "low_grade": 0, "high_grade": 8, "enrollment": 872, "teachers": 59, "lunch_pct": 100.0, "charter": false, "lat": 40.0126, "lng": -75.1118, "ratio": 14.8}, {"name": "Adaire Alexander Sch", "district": "Philadelphia City SD", "city": "Philadelphia", "level": 1, "low_grade": 0, "high_grade": 8, "enrollment": 394, "teachers": 26, "lunch_pct": 100.0, "charter": false, "lat": 39.972269, "lng": -75.130164, "ratio": 15.2}, {"name": "Harrington Avery D Sch", "district": "Philadelphia City SD", "city": "Philadelphia", "level": 1, "low_grade": 0, "high_grade": 8, "enrollment": 340, "teachers": 29, "lunch_pct": 100.0, "charter": false, "lat": 39.9474, "lng": -75.2301, "ratio": 11.7}, {"name": "Brown Joseph H Sch", "district": "Philadelphia City SD", "city": "Philadelphia", "level": 1, "low_grade": 0, "high_grade": 8, "enrollment": 383, "teachers": 30, "lunch_pct": 100.0, "charter": false, "lat": 40.0435, "lng": -75.0246, "ratio": 12.8}, {"name": "Lea Henry C Sch", "district": "Philadelphia City SD", "city": "Philadelphia", "level": 1, "low_grade": -1, "high_grade": 8, "enrollment": 475, "teachers": 41, "lunch_pct": 100.0, "charter": false, "lat": 39.9545, "lng": -75.2163, "ratio": 11.6}, {"name": "Longstreth William C Sch", "district": "Philadelphia City SD", "city": "Philadelphia", "level": 1, "low_grade": -1, "high_grade": 8, "enrollment": 271, "teachers": 23, "lunch_pct": 98.9, "charter": false, "lat": 39.9405, "lng": -75.2325, "ratio": 11.8}, {"name": "McClure Alexander K Sch", "district": "Philadelphia City SD", "city": "Philadelphia", "level": 1, "low_grade": -1, "high_grade": 5, "enrollment": 509, "teachers": 36, "lunch_pct": 100.0, "charter": false, "lat": 40.0151, "lng": -75.1376, "ratio": 14.1}, {"name": "Morton Thomas G Sch", "district": "Philadelphia City SD", "city": "Philadelphia", "level": 1, "low_grade": 0, "high_grade": 5, "enrollment": 365, "teachers": 32, "lunch_pct": 99.7, "charter": false, "lat": 39.9238, "lng": -75.227, "ratio": 11.4}, {"name": "Samuel Pennypacker Sch", "district": "Philadelphia City SD", "city": "Philadelphia", "level": 1, "low_grade": -1, "high_grade": 8, "enrollment": 348, "teachers": 25, "lunch_pct": 100.0, "charter": false, "lat": 40.06531, "lng": -75.158915, "ratio": 13.9}, {"name": "Willard Frances E Sch", "district": "Philadelphia City SD", "city": "Philadelphia", "level": 1, "low_grade": 0, "high_grade": 4, "enrollment": 444, "teachers": 34, "lunch_pct": 100.0, "charter": false, "lat": 39.993242, "lng": -75.11643, "ratio": 13.1}, {"name": "Prince Hall", "district": "Philadelphia City SD", "city": "Philadelphia", "level": 1, "low_grade": -1, "high_grade": 5, "enrollment": 413, "teachers": 29, "lunch_pct": 100.0, "charter": false, "lat": 40.0478, "lng": -75.1494, "ratio": 14.2}, {"name": "Barry Comm John Sch", "district": "Philadelphia City SD", "city": "Philadelphia", "level": 1, "low_grade": -1, "high_grade": 8, "enrollment": 527, "teachers": 37, "lunch_pct": 100.0, "charter": false, "lat": 39.96437, "lng": -75.238601, "ratio": 14.2}, {"name": "Fitler Academics Plus", "district": "Philadelphia City SD", "city": "Philadelphia", "level": 1, "low_grade": 0, "high_grade": 8, "enrollment": 162, "teachers": 17, "lunch_pct": 100.0, "charter": false, "lat": 40.0262, "lng": -75.1665, "ratio": 9.5}, {"name": "Overbrook Edu Ctr", "district": "Philadelphia City SD", "city": "Philadelphia", "level": 1, "low_grade": 0, "high_grade": 8, "enrollment": 266, "teachers": 24, "lunch_pct": 100.0, "charter": false, "lat": 39.9738, "lng": -75.2549, "ratio": 11.1}, {"name": "DeBurgos Bilingual Magnet MS", "district": "Philadelphia City SD", "city": "Philadelphia", "level": 1, "low_grade": 0, "high_grade": 8, "enrollment": 628, "teachers": 56, "lunch_pct": 100.0, "charter": false, "lat": 39.9925, "lng": -75.1387, "ratio": 11.2}, {"name": "Roosevelt Theodore MS", "district": "Philadelphia City SD", "city": "Philadelphia", "level": 1, "low_grade": 0, "high_grade": 8, "enrollment": 449, "teachers": 33, "lunch_pct": 99.3, "charter": false, "lat": 40.0482, "lng": -75.175, "ratio": 13.6}, {"name": "Vare-Washington El Sch", "district": "Philadelphia City SD", "city": "Philadelphia", "level": 1, "low_grade": -1, "high_grade": 8, "enrollment": 339, "teachers": 35, "lunch_pct": 100.0, "charter": false, "lat": 39.9337, "lng": -75.1528, "ratio": 9.7}, {"name": "Rhodes E Washington Sch", "district": "Philadelphia City SD", "city": "Philadelphia", "level": 1, "low_grade": 0, "high_grade": 8, "enrollment": 396, "teachers": 34, "lunch_pct": 100.0, "charter": false, "lat": 40.0028, "lng": -75.1781, "ratio": 11.6}, {"name": "Kenderton El Sch", "district": "Philadelphia City SD", "city": "Philadelphia", "level": 1, "low_grade": 0, "high_grade": 8, "enrollment": 354, "teachers": 29, "lunch_pct": 100.0, "charter": false, "lat": 40.005103, "lng": -75.154168, "ratio": 12.2}, {"name": "Northeast Community Propel Academy", "district": "Philadelphia City SD", "city": "Philadelphia", "level": 1, "low_grade": 0, "high_grade": 8, "enrollment": 1731, "teachers": 79, "lunch_pct": 100.0, "charter": false, "lat": 40.046195, "lng": -75.041407, "ratio": 21.9}, {"name": "Franklin Benjamin Sch", "district": "Philadelphia City SD", "city": "Philadelphia", "level": 1, "low_grade": 0, "high_grade": 8, "enrollment": 602, "teachers": 36, "lunch_pct": 100.0, "charter": false, "lat": 40.0423, "lng": -75.1042, "ratio": 16.7}, {"name": "KIPP Philadelphia Octavius Catto CS", "district": "KIPP Philadelphia Octavius Catto CS", "city": "Philadelphia", "level": 1, "low_grade": 0, "high_grade": 1, "enrollment": 199, "teachers": 13, "lunch_pct": 0.0, "charter": true, "lat": 39.959699, "lng": -75.214714, "ratio": 15.3}], "middle": [{"name": "Young Scholars CS", "district": "Young Scholars CS", "city": "Philadelphia", "level": 2, "low_grade": 5, "high_grade": 8, "enrollment": 267, "teachers": 10, "lunch_pct": 99.3, "charter": true, "lat": 39.9678, "lng": -75.148251, "ratio": 26.7}, {"name": "Richard Allen Preparatory CS", "district": "Richard Allen Preparatory CS", "city": "Philadelphia", "level": 2, "low_grade": 5, "high_grade": 9, "enrollment": 414, "teachers": 30, "lunch_pct": 96.9, "charter": true, "lat": 39.9283, "lng": -75.2186, "ratio": 13.8}, {"name": "Universal Vare CS", "district": "Universal Vare CS", "city": "Philadelphia", "level": 2, "low_grade": 5, "high_grade": 8, "enrollment": 150, "teachers": 11, "lunch_pct": 90.7, "charter": true, "lat": 39.925811, "lng": -75.185693, "ratio": 13.6}, {"name": "Memphis Street Academy CS @ JP Jones", "district": "Memphis Street Academy CS @ JP Jones", "city": "Philadelphia", "level": 2, "low_grade": 5, "high_grade": 8, "enrollment": 538, "teachers": 29, "lunch_pct": 100.0, "charter": true, "lat": 39.9863, "lng": -75.1129, "ratio": 18.6}, {"name": "Feltonville Sch of Arts & Sciences", "district": "Philadelphia City SD", "city": "Philadelphia", "level": 2, "low_grade": 6, "high_grade": 8, "enrollment": 535, "teachers": 34, "lunch_pct": 100.0, "charter": false, "lat": 40.0194, "lng": -75.1219, "ratio": 15.7}, {"name": "Washington Grover Jr Sch", "district": "Philadelphia City SD", "city": "Philadelphia", "level": 2, "low_grade": 5, "high_grade": 8, "enrollment": 443, "teachers": 26, "lunch_pct": 100.0, "charter": false, "lat": 40.0354, "lng": -75.1179, "ratio": 17.0}, {"name": "Harding Warren G MS", "district": "Philadelphia City SD", "city": "Philadelphia", "level": 2, "low_grade": 6, "high_grade": 8, "enrollment": 622, "teachers": 43, "lunch_pct": 100.0, "charter": false, "lat": 40.0129, "lng": -75.0743, "ratio": 14.5}, {"name": "Wagner Gen Louis MS", "district": "Philadelphia City SD", "city": "Philadelphia", "level": 2, "low_grade": 6, "high_grade": 8, "enrollment": 364, "teachers": 26, "lunch_pct": 100.0, "charter": false, "lat": 40.0518, "lng": -75.1477, "ratio": 14.0}, {"name": "Castor Gardens MS", "district": "Philadelphia City SD", "city": "Philadelphia", "level": 2, "low_grade": 6, "high_grade": 8, "enrollment": 1260, "teachers": 72, "lunch_pct": 100.0, "charter": false, "lat": 40.0524, "lng": -75.069, "ratio": 17.5}, {"name": "Conwell Russell MS", "district": "Philadelphia City SD", "city": "Philadelphia", "level": 2, "low_grade": 5, "high_grade": 8, "enrollment": 175, "teachers": 14, "lunch_pct": 100.0, "charter": false, "lat": 39.9943, "lng": -75.1147, "ratio": 12.5}, {"name": "Clemente Roberto MS", "district": "Philadelphia City SD", "city": "Philadelphia", "level": 2, "low_grade": 6, "high_grade": 8, "enrollment": 206, "teachers": 9, "lunch_pct": 100.0, "charter": false, "lat": 40.0068, "lng": -75.1296, "ratio": 22.9}, {"name": "Amy At Martin", "district": "Philadelphia City SD", "city": "Philadelphia", "level": 2, "low_grade": 6, "high_grade": 8, "enrollment": 240, "teachers": 23, "lunch_pct": 100.0, "charter": false, "lat": 39.9856, "lng": -75.0972, "ratio": 10.4}, {"name": "Baldi C C A MS", "district": "Philadelphia City SD", "city": "Philadelphia", "level": 2, "low_grade": 6, "high_grade": 8, "enrollment": 1462, "teachers": 85, "lunch_pct": 100.0, "charter": false, "lat": 40.0919, "lng": -75.0526, "ratio": 17.2}, {"name": "Middle Years Alternative", "district": "Philadelphia City SD", "city": "Philadelphia", "level": 2, "low_grade": 6, "high_grade": 8, "enrollment": 171, "teachers": 12, "lunch_pct": 100.0, "charter": false, "lat": 39.964735, "lng": -75.215878, "ratio": 14.2}, {"name": "Amy NW", "district": "Philadelphia City SD", "city": "Philadelphia", "level": 2, "low_grade": 6, "high_grade": 8, "enrollment": 209, "teachers": 12, "lunch_pct": 100.0, "charter": false, "lat": 40.0595, "lng": -75.1748, "ratio": 17.4}, {"name": "Tilden William T MS", "district": "Philadelphia City SD", "city": "Philadelphia", "level": 2, "low_grade": 5, "high_grade": 8, "enrollment": 332, "teachers": 24, "lunch_pct": 99.1, "charter": false, "lat": 39.92173, "lng": -75.232631, "ratio": 13.8}, {"name": "Science Leadership Academy MS", "district": "Philadelphia City SD", "city": "Philadelphia", "level": 2, "low_grade": 5, "high_grade": 8, "enrollment": 359, "teachers": 19, "lunch_pct": 100.0, "charter": false, "lat": 39.957728, "lng": -75.194177, "ratio": 18.9}, {"name": "John B Stetson MS", "district": "Philadelphia City SD", "city": "Philadelphia", "level": 2, "low_grade": 5, "high_grade": 8, "enrollment": 630, "teachers": 22, "lunch_pct": 99.5, "charter": false, "lat": 39.998818, "lng": -75.125657, "ratio": 28.6}], "high": [{"name": "Youth Build Phila CS", "district": "Youth Build Phila CS", "city": "Philadelphia", "level": 3, "low_grade": 12, "high_grade": 12, "enrollment": 219, "teachers": 11, "lunch_pct": 100.0, "charter": true, "lat": 39.9729, "lng": -75.158631, "ratio": 19.9}, {"name": "Preparatory CS of Mathematics Science Te", "district": "Preparatory CS of Mathematics Science Tech and Careers", "city": "Philadelphia", "level": 3, "low_grade": 9, "high_grade": 12, "enrollment": 568, "teachers": 40, "lunch_pct": 98.2, "charter": true, "lat": 39.9285, "lng": -75.1868, "ratio": 14.2}, {"name": "Imhotep Institute CHS", "district": "Imhotep Institute CHS", "city": "Philadelphia", "level": 3, "low_grade": 9, "high_grade": 12, "enrollment": 597, "teachers": 29, "lunch_pct": 0.0, "charter": true, "lat": 40.0493, "lng": -75.1549, "ratio": 20.6}, {"name": "Multicultural Academy CS", "district": "Multicultural Academy CS", "city": "Philadelphia", "level": 3, "low_grade": 9, "high_grade": 12, "enrollment": 250, "teachers": 17, "lunch_pct": 0.0, "charter": true, "lat": 40.0114, "lng": -75.1504, "ratio": 14.7}, {"name": "Freire CS", "district": "Freire CS", "city": "Philadelphia", "level": 3, "low_grade": 5, "high_grade": 12, "enrollment": 934, "teachers": 85, "lunch_pct": 0.0, "charter": true, "lat": 39.9524, "lng": -75.1745, "ratio": 11.0}, {"name": "Franklin Towne CHS", "district": "Franklin Towne CHS", "city": "Philadelphia", "level": 3, "low_grade": 9, "high_grade": 12, "enrollment": 1282, "teachers": 70, "lunch_pct": 66.9, "charter": true, "lat": 40.0076, "lng": -75.065, "ratio": 18.3}, {"name": "Mastery CHS-Lenfest Campus", "district": "Mastery CHS-Lenfest Campus", "city": "Philadelphia", "level": 3, "low_grade": 7, "high_grade": 12, "enrollment": 610, "teachers": 42, "lunch_pct": 98.7, "charter": true, "lat": 39.9496, "lng": -75.1472, "ratio": 14.5}, {"name": "Philadelphia Electrical & Tech CHS", "district": "Philadelphia Electrical & Tech CHS", "city": "Philadelphia", "level": 3, "low_grade": 9, "high_grade": 12, "enrollment": 610, "teachers": 38, "lunch_pct": 0.0, "charter": true, "lat": 39.956667, "lng": -75.168191, "ratio": 16.1}, {"name": "Mastery CS -Shoemaker Campus", "district": "Mastery CS-Shoemaker Campus", "city": "Philadelphia", "level": 3, "low_grade": 7, "high_grade": 12, "enrollment": 782, "teachers": 52, "lunch_pct": 0.0, "charter": true, "lat": 39.9761, "lng": -75.2286, "ratio": 15.0}, {"name": "Boys Latin of Philadelphia CS", "district": "Boys Latin of Philadelphia CS", "city": "Philadelphia", "level": 3, "low_grade": 6, "high_grade": 12, "enrollment": 774, "teachers": 52, "lunch_pct": 99.5, "charter": true, "lat": 39.9518, "lng": -75.2334, "ratio": 14.9}, {"name": "Mastery CS-Pickett Campus", "district": "Mastery CS-Pickett Campus", "city": "Philadelphia", "level": 3, "low_grade": 6, "high_grade": 12, "enrollment": 938, "teachers": 61, "lunch_pct": 0.0, "charter": true, "lat": 40.032161, "lng": -75.180554, "ratio": 15.4}, {"name": "Mastery CS-Gratz Campus", "district": "Mastery CS-Gratz Campus", "city": "Philadelphia", "level": 3, "low_grade": 7, "high_grade": 12, "enrollment": 1160, "teachers": 67, "lunch_pct": 0.0, "charter": true, "lat": 40.014137, "lng": -75.155828, "ratio": 17.3}, {"name": "Universal Audenried CS", "district": "Universal Audenried CS", "city": "Philadelphia", "level": 3, "low_grade": 9, "high_grade": 12, "enrollment": 546, "teachers": 33, "lunch_pct": 85.7, "charter": true, "lat": 39.9339, "lng": -75.1986, "ratio": 16.5}, {"name": "KIPP DuBois CS", "district": "KIPP DuBois CS", "city": "Philadelphia", "level": 3, "low_grade": 9, "high_grade": 12, "enrollment": 497, "teachers": 35, "lunch_pct": 0.0, "charter": true, "lat": 39.98, "lng": -75.221122, "ratio": 14.2}, {"name": "TECH Freire CS", "district": "TECH Freire CS", "city": "Philadelphia", "level": 3, "low_grade": 9, "high_grade": 12, "enrollment": 461, "teachers": 41, "lunch_pct": 0.0, "charter": true, "lat": 39.98693, "lng": -75.155553, "ratio": 11.2}, {"name": "Gamp", "district": "Philadelphia City SD", "city": "Philadelphia", "level": 3, "low_grade": 5, "high_grade": 12, "enrollment": 579, "teachers": 32, "lunch_pct": 100.0, "charter": false, "lat": 39.9221, "lng": -75.1831, "ratio": 18.1}, {"name": "Swenson Arts & Technology HS", "district": "Philadelphia City SD", "city": "Philadelphia", "level": 3, "low_grade": 9, "high_grade": 12, "enrollment": 771, "teachers": 53, "lunch_pct": 100.0, "charter": false, "lat": 40.0923, "lng": -75.0143, "ratio": 14.5}, {"name": "Paul Robeson HS for Human Services", "district": "Philadelphia City SD", "city": "Philadelphia", "level": 3, "low_grade": 9, "high_grade": 12, "enrollment": 314, "teachers": 19, "lunch_pct": 100.0, "charter": false, "lat": 39.957, "lng": -75.2057, "ratio": 16.5}, {"name": "Parkway Center City Middle College", "district": "Philadelphia City SD", "city": "Philadelphia", "level": 3, "low_grade": 9, "high_grade": 12, "enrollment": 436, "teachers": 19, "lunch_pct": 100.0, "charter": false, "lat": 39.962919, "lng": -75.159519, "ratio": 22.9}, {"name": "Parkway West", "district": "Philadelphia City SD", "city": "Philadelphia", "level": 3, "low_grade": 9, "high_grade": 12, "enrollment": 228, "teachers": 17, "lunch_pct": 100.0, "charter": false, "lat": 39.964735, "lng": -75.215878, "ratio": 13.4}, {"name": "Lankenau HS", "district": "Philadelphia City SD", "city": "Philadelphia", "level": 3, "low_grade": 9, "high_grade": 12, "enrollment": 336, "teachers": 22, "lunch_pct": 100.0, "charter": false, "lat": 40.0624, "lng": -75.2526, "ratio": 15.3}, {"name": "Randolph A. Philip AVT HS", "district": "Philadelphia City SD", "city": "Philadelphia", "level": 3, "low_grade": 9, "high_grade": 12, "enrollment": 392, "teachers": 31, "lunch_pct": 100.0, "charter": false, "lat": 40.009, "lng": -75.1792, "ratio": 12.6}, {"name": "Motivation HS", "district": "Philadelphia City SD", "city": "Philadelphia", "level": 3, "low_grade": 9, "high_grade": 12, "enrollment": 332, "teachers": 16, "lunch_pct": 99.1, "charter": false, "lat": 39.944603, "lng": -75.242628, "ratio": 20.8}, {"name": "Philadelphia Military Acad at Elverson", "district": "Philadelphia City SD", "city": "Philadelphia", "level": 3, "low_grade": 9, "high_grade": 12, "enrollment": 336, "teachers": 18, "lunch_pct": 100.0, "charter": false, "lat": 39.9857, "lng": -75.1544, "ratio": 18.7}, {"name": "Kensington Creative & Performing Arts HS", "district": "Philadelphia City SD", "city": "Philadelphia", "level": 3, "low_grade": 9, "high_grade": 12, "enrollment": 469, "teachers": 33, "lunch_pct": 99.8, "charter": false, "lat": 39.9778, "lng": -75.1333, "ratio": 14.2}, {"name": "Kensington Health Sciences", "district": "Philadelphia City SD", "city": "Philadelphia", "level": 3, "low_grade": 9, "high_grade": 12, "enrollment": 434, "teachers": 38, "lunch_pct": 100.0, "charter": false, "lat": 39.9846, "lng": -75.1282, "ratio": 11.4}, {"name": "Science Leadership Academy", "district": "Philadelphia City SD", "city": "Philadelphia", "level": 3, "low_grade": 9, "high_grade": 12, "enrollment": 497, "teachers": 27, "lunch_pct": 100.0, "charter": false, "lat": 39.964468, "lng": -75.162306, "ratio": 18.4}, {"name": "Academy at Palumbo", "district": "Philadelphia City SD", "city": "Philadelphia", "level": 3, "low_grade": 9, "high_grade": 12, "enrollment": 1179, "teachers": 52, "lunch_pct": 99.7, "charter": false, "lat": 39.94, "lng": -75.1618, "ratio": 22.7}, {"name": "School of the Future", "district": "Philadelphia City SD", "city": "Philadelphia", "level": 3, "low_grade": 9, "high_grade": 12, "enrollment": 568, "teachers": 41, "lunch_pct": 100.0, "charter": false, "lat": 39.9753, "lng": -75.2035, "ratio": 13.9}, {"name": "Constitution HS", "district": "Philadelphia City SD", "city": "Philadelphia", "level": 3, "low_grade": 9, "high_grade": 12, "enrollment": 383, "teachers": 21, "lunch_pct": 100.0, "charter": false, "lat": 39.9503, "lng": -75.1524, "ratio": 18.2}, {"name": "Hill Freedman World Academy", "district": "Philadelphia City SD", "city": "Philadelphia", "level": 3, "low_grade": 6, "high_grade": 12, "enrollment": 638, "teachers": 53, "lunch_pct": 100.0, "charter": false, "lat": 40.07103, "lng": -75.174811, "ratio": 12.0}, {"name": "Masterman Julia R Sec Sch", "district": "Philadelphia City SD", "city": "Philadelphia", "level": 3, "low_grade": 5, "high_grade": 12, "enrollment": 1186, "teachers": 53, "lunch_pct": 100.0, "charter": false, "lat": 39.9635, "lng": -75.1658, "ratio": 22.4}, {"name": "Fels Samuel HS", "district": "Philadelphia City SD", "city": "Philadelphia", "level": 3, "low_grade": 9, "high_grade": 12, "enrollment": 1053, "teachers": 71, "lunch_pct": 100.0, "charter": false, "lat": 40.036534, "lng": -75.092611, "ratio": 14.8}, {"name": "Furness Horace HS", "district": "Philadelphia City SD", "city": "Philadelphia", "level": 3, "low_grade": 9, "high_grade": 12, "enrollment": 741, "teachers": 52, "lunch_pct": 100.0, "charter": false, "lat": 39.9238, "lng": -75.1509, "ratio": 14.2}, {"name": "Sayre William L MS", "district": "Philadelphia City SD", "city": "Philadelphia", "level": 3, "low_grade": 9, "high_grade": 12, "enrollment": 355, "teachers": 33, "lunch_pct": 99.7, "charter": false, "lat": 39.9577, "lng": -75.2387, "ratio": 10.8}, {"name": "Strawberry Mansion HS", "district": "Philadelphia City SD", "city": "Philadelphia", "level": 3, "low_grade": 9, "high_grade": 12, "enrollment": 203, "teachers": 20, "lunch_pct": 100.0, "charter": false, "lat": 39.9902, "lng": -75.1839, "ratio": 10.2}, {"name": "Dobbins AVT HS", "district": "Philadelphia City SD", "city": "Philadelphia", "level": 3, "low_grade": 9, "high_grade": 12, "enrollment": 896, "teachers": 51, "lunch_pct": 99.9, "charter": false, "lat": 39.995, "lng": -75.1669, "ratio": 17.6}, {"name": "Mastbaum Jules E AVTS", "district": "Philadelphia City SD", "city": "Philadelphia", "level": 3, "low_grade": 9, "high_grade": 12, "enrollment": 571, "teachers": 43, "lunch_pct": 100.0, "charter": false, "lat": 39.9925, "lng": -75.1121, "ratio": 13.3}, {"name": "Girls HS", "district": "Philadelphia City SD", "city": "Philadelphia", "level": 3, "low_grade": 9, "high_grade": 12, "enrollment": 894, "teachers": 46, "lunch_pct": 100.0, "charter": false, "lat": 40.0384, "lng": -75.1462, "ratio": 19.4}, {"name": "Roxborough HS", "district": "Philadelphia City SD", "city": "Philadelphia", "level": 3, "low_grade": 9, "high_grade": 12, "enrollment": 710, "teachers": 61, "lunch_pct": 99.7, "charter": false, "lat": 40.0376, "lng": -75.2228, "ratio": 11.6}, {"name": "Lincoln HS", "district": "Philadelphia City SD", "city": "Philadelphia", "level": 3, "low_grade": 9, "high_grade": 12, "enrollment": 2207, "teachers": 145, "lunch_pct": 99.9, "charter": false, "lat": 40.044097, "lng": -75.042461, "ratio": 15.2}, {"name": "Bartram John - Main", "district": "Philadelphia City SD", "city": "Philadelphia", "level": 3, "low_grade": 9, "high_grade": 12, "enrollment": 478, "teachers": 37, "lunch_pct": 100.0, "charter": false, "lat": 39.921825, "lng": -75.233847, "ratio": 12.9}, {"name": "Central HS", "district": "Philadelphia City SD", "city": "Philadelphia", "level": 3, "low_grade": 9, "high_grade": 12, "enrollment": 2364, "teachers": 116, "lunch_pct": 100.0, "charter": false, "lat": 40.0375, "lng": -75.1501, "ratio": 20.4}, {"name": "Edison HS/Fareira Skills", "district": "Philadelphia City SD", "city": "Philadelphia", "level": 3, "low_grade": 9, "high_grade": 12, "enrollment": 886, "teachers": 72, "lunch_pct": 100.0, "charter": false, "lat": 40.0122, "lng": -75.1293, "ratio": 12.3}, {"name": "Frankford HS", "district": "Philadelphia City SD", "city": "Philadelphia", "level": 3, "low_grade": 9, "high_grade": 12, "enrollment": 923, "teachers": 71, "lunch_pct": 99.9, "charter": false, "lat": 40.0216, "lng": -75.0854, "ratio": 13.0}, {"name": "Franklin Benjamin HS", "district": "Philadelphia City SD", "city": "Philadelphia", "level": 3, "low_grade": 9, "high_grade": 12, "enrollment": 466, "teachers": 42, "lunch_pct": 100.0, "charter": false, "lat": 39.9637, "lng": -75.1621, "ratio": 11.1}, {"name": "Northeast HS", "district": "Philadelphia City SD", "city": "Philadelphia", "level": 3, "low_grade": 9, "high_grade": 12, "enrollment": 3352, "teachers": 183, "lunch_pct": 100.0, "charter": false, "lat": 40.0559, "lng": -75.071, "ratio": 18.3}, {"name": "Overbrook HS", "district": "Philadelphia City SD", "city": "Philadelphia", "level": 3, "low_grade": 9, "high_grade": 12, "enrollment": 387, "teachers": 20, "lunch_pct": 99.7, "charter": false, "lat": 39.9811, "lng": -75.2385, "ratio": 19.4}, {"name": "South Philadelphia HS", "district": "Philadelphia City SD", "city": "Philadelphia", "level": 3, "low_grade": 9, "high_grade": 12, "enrollment": 611, "teachers": 51, "lunch_pct": 100.0, "charter": false, "lat": 39.9234, "lng": -75.1682, "ratio": 12.0}, {"name": "West Philadelphia HS", "district": "Philadelphia City SD", "city": "Philadelphia", "level": 3, "low_grade": 9, "high_grade": 12, "enrollment": 543, "teachers": 41, "lunch_pct": 100.0, "charter": false, "lat": 39.95841, "lng": -75.21955, "ratio": 13.2}, {"name": "Saul W B Agricultural School", "district": "Philadelphia City SD", "city": "Philadelphia", "level": 3, "low_grade": 9, "high_grade": 12, "enrollment": 501, "teachers": 32, "lunch_pct": 100.0, "charter": false, "lat": 40.0493, "lng": -75.2215, "ratio": 15.7}, {"name": "Washington George HS", "district": "Philadelphia City SD", "city": "Philadelphia", "level": 3, "low_grade": 9, "high_grade": 12, "enrollment": 1707, "teachers": 111, "lunch_pct": 100.0, "charter": false, "lat": 40.1057, "lng": -75.0261, "ratio": 15.4}, {"name": "Parkway Northwest", "district": "Philadelphia City SD", "city": "Philadelphia", "level": 3, "low_grade": 9, "high_grade": 12, "enrollment": 258, "teachers": 17, "lunch_pct": 100.0, "charter": false, "lat": 40.056419, "lng": -75.165367, "ratio": 15.2}, {"name": "King Martin Luther HS", "district": "Philadelphia City SD", "city": "Philadelphia", "level": 3, "low_grade": 9, "high_grade": 12, "enrollment": 498, "teachers": 44, "lunch_pct": 100.0, "charter": false, "lat": 40.0564, "lng": -75.1615, "ratio": 11.3}, {"name": "Franklin LC", "district": "Philadelphia City SD", "city": "Philadelphia", "level": 3, "low_grade": 9, "high_grade": 12, "enrollment": 881, "teachers": 53, "lunch_pct": 99.7, "charter": false, "lat": 39.9651, "lng": -75.1631, "ratio": 16.6}, {"name": "Arts Academy at Benjamin Rush", "district": "Philadelphia City SD", "city": "Philadelphia", "level": 3, "low_grade": 9, "high_grade": 12, "enrollment": 616, "teachers": 35, "lunch_pct": 100.0, "charter": false, "lat": 40.082741, "lng": -74.973869, "ratio": 17.6}, {"name": "Creative and Performing Arts", "district": "Philadelphia City SD", "city": "Philadelphia", "level": 3, "low_grade": 9, "high_grade": 12, "enrollment": 743, "teachers": 37, "lunch_pct": 100.0, "charter": false, "lat": 39.9394, "lng": -75.1655, "ratio": 20.1}, {"name": "Carver HS", "district": "Philadelphia City SD", "city": "Philadelphia", "level": 3, "low_grade": 7, "high_grade": 12, "enrollment": 897, "teachers": 51, "lunch_pct": 100.0, "charter": false, "lat": 39.9835, "lng": -75.1615, "ratio": 17.6}, {"name": "Bodine William W HS", "district": "Philadelphia City SD", "city": "Philadelphia", "level": 3, "low_grade": 9, "high_grade": 12, "enrollment": 547, "teachers": 35, "lunch_pct": 100.0, "charter": false, "lat": 39.9681, "lng": -75.1432, "ratio": 15.6}, {"name": "Penn Treaty Sch", "district": "Philadelphia City SD", "city": "Philadelphia", "level": 3, "low_grade": 6, "high_grade": 12, "enrollment": 468, "teachers": 43, "lunch_pct": 100.0, "charter": false, "lat": 39.9728, "lng": -75.1272, "ratio": 10.9}, {"name": "The Science Leadership Academy at Beeber", "district": "Philadelphia City SD", "city": "Philadelphia", "level": 3, "low_grade": 5, "high_grade": 12, "enrollment": 642, "teachers": 39, "lunch_pct": 100.0, "charter": false, "lat": 39.986548, "lng": -75.24218, "ratio": 16.5}, {"name": "The Linc", "district": "Philadelphia City SD", "city": "Philadelphia", "level": 3, "low_grade": 9, "high_grade": 12, "enrollment": 221, "teachers": 16, "lunch_pct": 100.0, "charter": false, "lat": 40.006624, "lng": -75.130209, "ratio": 13.8}, {"name": "Building 21", "district": "Philadelphia City SD", "city": "Philadelphia", "level": 3, "low_grade": 9, "high_grade": 12, "enrollment": 388, "teachers": 20, "lunch_pct": 100.0, "charter": false, "lat": 40.05363, "lng": -75.152541, "ratio": 19.4}, {"name": "The U School: Innovative Lab", "district": "Philadelphia City SD", "city": "Philadelphia", "level": 3, "low_grade": 9, "high_grade": 12, "enrollment": 229, "teachers": 20, "lunch_pct": 100.0, "charter": false, "lat": 39.98221, "lng": -75.146191, "ratio": 11.4}, {"name": "The Workshop School", "district": "Philadelphia City SD", "city": "Philadelphia", "level": 3, "low_grade": 9, "high_grade": 12, "enrollment": 194, "teachers": 15, "lunch_pct": 100.0, "charter": false, "lat": 39.955195, "lng": -75.218596, "ratio": 12.9}, {"name": "Philadelphia Learning Academy - South", "district": "Philadelphia City SD", "city": "Philadelphia", "level": 3, "low_grade": 9, "high_grade": 12, "enrollment": 58, "teachers": 11, "lunch_pct": 100.0, "charter": false, "lat": 39.969374, "lng": -75.210677, "ratio": 5.3}, {"name": "Kensington HS", "district": "Philadelphia City SD", "city": "Philadelphia", "level": 3, "low_grade": 9, "high_grade": 12, "enrollment": 459, "teachers": 45, "lunch_pct": 100.0, "charter": false, "lat": 39.984302, "lng": -75.126458, "ratio": 10.2}, {"name": "Philadelphia Learning Academy - North", "district": "Philadelphia City SD", "city": "Philadelphia", "level": 3, "low_grade": 9, "high_grade": 12, "enrollment": 42, "teachers": 10, "lunch_pct": 100.0, "charter": false, "lat": 40.015417, "lng": -75.126757, "ratio": 4.2}, {"name": "Vaux HS: A Big Picture School", "district": "Philadelphia City SD", "city": "Philadelphia", "level": 3, "low_grade": 9, "high_grade": 12, "enrollment": 270, "teachers": 20, "lunch_pct": 98.9, "charter": false, "lat": 39.97628, "lng": -75.174261, "ratio": 13.5}]}, "pittsburgh": {"elem": [{"name": "Manchester Academic CS", "district": "Manchester Academic CS", "city": "Pittsburgh", "level": 1, "low_grade": 0, "high_grade": 8, "enrollment": 393, "teachers": 15, "lunch_pct": 100.0, "charter": true, "lat": 40.4565, "lng": -80.0265, "ratio": 26.2}, {"name": "Urban Academy of Greater Pittsburgh CS", "district": "Urban Academy of Greater Pittsburgh CS", "city": "Pittsburgh", "level": 1, "low_grade": 0, "high_grade": 5, "enrollment": 328, "teachers": 28, "lunch_pct": 99.1, "charter": true, "lat": 40.462363, "lng": -79.909825, "ratio": 11.7}, {"name": "Young Scholars of Western Pennsylvania C", "district": "Young Scholars of Western Pennsylvania CS", "city": "Pittsburgh", "level": 1, "low_grade": 0, "high_grade": 8, "enrollment": 299, "teachers": 38, "lunch_pct": 100.0, "charter": true, "lat": 40.376383, "lng": -80.018995, "ratio": 7.9}, {"name": "Urban Pathways K-5 College CS", "district": "Urban Pathways K-5 College CS", "city": "Pittsburgh", "level": 1, "low_grade": 0, "high_grade": 5, "enrollment": 311, "teachers": 21, "lunch_pct": 99.4, "charter": true, "lat": 40.444164, "lng": -79.997136, "ratio": 14.8}, {"name": "Propel CS-Northside", "district": "Propel CS-Northside", "city": "Pittsburgh", "level": 1, "low_grade": 0, "high_grade": 8, "enrollment": 379, "teachers": 24, "lunch_pct": 0.0, "charter": true, "lat": 40.460079, "lng": -80.015907, "ratio": 15.8}, {"name": "Penn Hills CS of Entrepreneurship", "district": "Penn Hills CS of Entrepreneurship", "city": "Pittsburgh", "level": 1, "low_grade": 0, "high_grade": 8, "enrollment": 456, "teachers": 38, "lunch_pct": 100.0, "charter": true, "lat": 40.472539, "lng": -79.791726, "ratio": 12.0}, {"name": "Propel CS-Pitcairn", "district": "Propel CS-Pitcairn", "city": "Pittsburgh", "level": 1, "low_grade": 0, "high_grade": 8, "enrollment": 209, "teachers": 19, "lunch_pct": 0.0, "charter": true, "lat": 40.4042, "lng": -79.7793, "ratio": 11.0}, {"name": "Propel CS-Hazelwood", "district": "Propel CS-Hazelwood", "city": "Pittsburgh", "level": 1, "low_grade": 0, "high_grade": 8, "enrollment": 271, "teachers": 17, "lunch_pct": 0.0, "charter": true, "lat": 40.404016, "lng": -79.938357, "ratio": 15.9}, {"name": "Young Scholars of Greater Allegheny CS", "district": "Young Scholars of Greater Allegheny CS", "city": "Pittsburgh", "level": 1, "low_grade": -1, "high_grade": 8, "enrollment": 305, "teachers": 28, "lunch_pct": 100.0, "charter": true, "lat": 40.314116, "lng": -79.831491, "ratio": 10.9}, {"name": "Catalyst Academy CS", "district": "Catalyst Academy CS", "city": "Pittsburgh", "level": 1, "low_grade": 0, "high_grade": 3, "enrollment": 247, "teachers": 17, "lunch_pct": 98.8, "charter": true, "lat": 40.470102, "lng": -79.896586, "ratio": 14.5}, {"name": "Avonworth El Sch", "district": "Avonworth SD", "city": "Pittsburgh", "level": 1, "low_grade": 3, "high_grade": 6, "enrollment": 612, "teachers": 37, "lunch_pct": 12.7, "charter": false, "lat": 40.5423, "lng": -80.0942, "ratio": 16.5}, {"name": "Avonworth Primary Center", "district": "Avonworth SD", "city": "Pittsburgh", "level": 1, "low_grade": 0, "high_grade": 2, "enrollment": 464, "teachers": 35, "lunch_pct": 11.2, "charter": false, "lat": 40.542342, "lng": -80.092306, "ratio": 13.3}, {"name": "McAnnulty El Sch", "district": "Baldwin-Whitehall SD", "city": "Pittsburgh", "level": 1, "low_grade": 0, "high_grade": 1, "enrollment": 435, "teachers": 28, "lunch_pct": 43.9, "charter": false, "lat": 40.3452, "lng": -79.9957, "ratio": 15.5}, {"name": "Whitehall El Sch", "district": "Baldwin-Whitehall SD", "city": "Pittsburgh", "level": 1, "low_grade": 2, "high_grade": 5, "enrollment": 862, "teachers": 47, "lunch_pct": 48.7, "charter": false, "lat": 40.3528, "lng": -79.9939, "ratio": 18.3}, {"name": "J.E. Harrison Education Ctr", "district": "Baldwin-Whitehall SD", "city": "Pittsburgh", "level": 1, "low_grade": 0, "high_grade": 6, "enrollment": 1143, "teachers": 73, "lunch_pct": 58.4, "charter": false, "lat": 40.3508, "lng": -80.0002, "ratio": 15.7}, {"name": "Abraham Lincoln El Sch", "district": "Bethel Park SD", "city": "Pittsburgh", "level": 1, "low_grade": 0, "high_grade": 4, "enrollment": 348, "teachers": 23, "lunch_pct": 16.7, "charter": false, "lat": 40.3542, "lng": -80.018, "ratio": 15.1}, {"name": "Moore Sch", "district": "Brentwood Borough SD", "city": "Pittsburgh", "level": 1, "low_grade": 0, "high_grade": 5, "enrollment": 207, "teachers": 18, "lunch_pct": 62.8, "charter": false, "lat": 40.3688, "lng": -79.9743, "ratio": 11.5}, {"name": "Elroy Avenue El Sch", "district": "Brentwood Borough SD", "city": "Pittsburgh", "level": 1, "low_grade": 0, "high_grade": 5, "enrollment": 317, "teachers": 23, "lunch_pct": 70.7, "charter": false, "lat": 40.3793, "lng": -79.9732, "ratio": 13.8}, {"name": "Crafton El Sch", "district": "Carlynton SD", "city": "Pittsburgh", "level": 1, "low_grade": 0, "high_grade": 6, "enrollment": 288, "teachers": 25, "lunch_pct": 100.0, "charter": false, "lat": 40.4311, "lng": -80.067, "ratio": 11.5}, {"name": "Chartiers Valley Intrmd School", "district": "Chartiers Valley SD", "city": "Pittsburgh", "level": 1, "low_grade": 3, "high_grade": 5, "enrollment": 797, "teachers": 51, "lunch_pct": 33.6, "charter": false, "lat": 40.3968, "lng": -80.0794, "ratio": 15.6}, {"name": "Fairview El Sch", "district": "Fox Chapel Area SD", "city": "Pittsburgh", "level": 1, "low_grade": 0, "high_grade": 5, "enrollment": 377, "teachers": 26, "lunch_pct": 8.8, "charter": false, "lat": 40.5467, "lng": -79.8999, "ratio": 14.5}, {"name": "Kerr El Sch", "district": "Fox Chapel Area SD", "city": "Pittsburgh", "level": 1, "low_grade": 0, "high_grade": 5, "enrollment": 431, "teachers": 39, "lunch_pct": 100.0, "charter": false, "lat": 40.513, "lng": -79.9187, "ratio": 11.1}, {"name": "OHara El Sch", "district": "Fox Chapel Area SD", "city": "Pittsburgh", "level": 1, "low_grade": 0, "high_grade": 5, "enrollment": 679, "teachers": 52, "lunch_pct": 14.4, "charter": false, "lat": 40.5152, "lng": -79.8636, "ratio": 13.1}, {"name": "Hartwood El Sch", "district": "Fox Chapel Area SD", "city": "Pittsburgh", "level": 1, "low_grade": 0, "high_grade": 5, "enrollment": 412, "teachers": 34, "lunch_pct": 30.8, "charter": false, "lat": 40.5766, "lng": -79.8864, "ratio": 12.1}, {"name": "Dormont El Sch", "district": "Keystone Oaks SD", "city": "Pittsburgh", "level": 1, "low_grade": 0, "high_grade": 5, "enrollment": 351, "teachers": 25, "lunch_pct": 38.2, "charter": false, "lat": 40.3947, "lng": -80.044, "ratio": 14.0}, {"name": "Fred L Aiken El Sch", "district": "Keystone Oaks SD", "city": "Pittsburgh", "level": 1, "low_grade": 0, "high_grade": 5, "enrollment": 228, "teachers": 19, "lunch_pct": 27.2, "charter": false, "lat": 40.4238, "lng": -80.0426, "ratio": 12.0}, {"name": "Myrtle Ave Sch", "district": "Keystone Oaks SD", "city": "Pittsburgh", "level": 1, "low_grade": 0, "high_grade": 5, "enrollment": 324, "teachers": 23, "lunch_pct": 59.3, "charter": false, "lat": 40.3677, "lng": -80.0242, "ratio": 14.1}, {"name": "Washington El Sch", "district": "Mt Lebanon SD", "city": "Pittsburgh", "level": 1, "low_grade": 0, "high_grade": 5, "enrollment": 391, "teachers": 33, "lunch_pct": 17.9, "charter": false, "lat": 40.3787, "lng": -80.0452, "ratio": 11.8}, {"name": "Lincoln El Sch", "district": "Mt Lebanon SD", "city": "Pittsburgh", "level": 1, "low_grade": 0, "high_grade": 5, "enrollment": 438, "teachers": 28, "lunch_pct": 20.3, "charter": false, "lat": 40.3886, "lng": -80.0486, "ratio": 15.6}, {"name": "Markham El Sch", "district": "Mt Lebanon SD", "city": "Pittsburgh", "level": 1, "low_grade": 0, "high_grade": 5, "enrollment": 300, "teachers": 21, "lunch_pct": 6.7, "charter": false, "lat": 40.367, "lng": -80.0549, "ratio": 14.3}, {"name": "Howe El Sch", "district": "Mt Lebanon SD", "city": "Pittsburgh", "level": 1, "low_grade": 0, "high_grade": 5, "enrollment": 369, "teachers": 24, "lunch_pct": 15.2, "charter": false, "lat": 40.3755, "lng": -80.0311, "ratio": 15.4}, {"name": "Foster El Sch", "district": "Mt Lebanon SD", "city": "Pittsburgh", "level": 1, "low_grade": 0, "high_grade": 5, "enrollment": 288, "teachers": 21, "lunch_pct": 12.2, "charter": false, "lat": 40.363, "lng": -80.0387, "ratio": 13.7}, {"name": "Jefferson El Sch", "district": "Mt Lebanon SD", "city": "Pittsburgh", "level": 1, "low_grade": 0, "high_grade": 5, "enrollment": 314, "teachers": 20, "lunch_pct": 9.9, "charter": false, "lat": 40.3816, "lng": -80.0608, "ratio": 15.7}, {"name": "Hoover El Sch", "district": "Mt Lebanon SD", "city": "Pittsburgh", "level": 1, "low_grade": 0, "high_grade": 5, "enrollment": 281, "teachers": 20, "lunch_pct": 18.5, "charter": false, "lat": 40.3741, "lng": -80.0693, "ratio": 14.1}, {"name": "Edgewood El STEAM Academy", "district": "Woodland Hills SD", "city": "Pittsburgh", "level": 1, "low_grade": -1, "high_grade": 5, "enrollment": 531, "teachers": 47, "lunch_pct": 100.0, "charter": false, "lat": 40.433085, "lng": -79.883598, "ratio": 11.3}, {"name": "Wilkins El STEAM Academy", "district": "Woodland Hills SD", "city": "Pittsburgh", "level": 1, "low_grade": -1, "high_grade": 5, "enrollment": 416, "teachers": 43, "lunch_pct": 100.0, "charter": false, "lat": 40.4308, "lng": -79.8276, "ratio": 9.7}, {"name": "Ingomar El Sch", "district": "North Allegheny SD", "city": "Pittsburgh", "level": 1, "low_grade": 0, "high_grade": 5, "enrollment": 333, "teachers": 26, "lunch_pct": 7.5, "charter": false, "lat": 40.582236, "lng": -80.053045, "ratio": 12.8}, {"name": "McKnight El Sch", "district": "North Allegheny SD", "city": "Pittsburgh", "level": 1, "low_grade": 0, "high_grade": 5, "enrollment": 798, "teachers": 57, "lunch_pct": 16.0, "charter": false, "lat": 40.571, "lng": -80.0286, "ratio": 14.0}, {"name": "Peebles El Sch", "district": "North Allegheny SD", "city": "Pittsburgh", "level": 1, "low_grade": 0, "high_grade": 5, "enrollment": 398, "teachers": 27, "lunch_pct": 11.6, "charter": false, "lat": 40.5652, "lng": -80.0104, "ratio": 14.7}, {"name": "McIntyre El Sch", "district": "North Hills SD", "city": "Pittsburgh", "level": 1, "low_grade": 0, "high_grade": 5, "enrollment": 618, "teachers": 41, "lunch_pct": 20.2, "charter": false, "lat": 40.549372, "lng": -80.003808, "ratio": 15.1}, {"name": "West View El Sch", "district": "North Hills SD", "city": "Pittsburgh", "level": 1, "low_grade": 0, "high_grade": 5, "enrollment": 457, "teachers": 31, "lunch_pct": 35.7, "charter": false, "lat": 40.5211, "lng": -80.0324, "ratio": 14.7}, {"name": "Ross El Sch", "district": "North Hills SD", "city": "Pittsburgh", "level": 1, "low_grade": 0, "high_grade": 5, "enrollment": 501, "teachers": 45, "lunch_pct": 20.4, "charter": false, "lat": 40.5257, "lng": -80.0007, "ratio": 11.1}, {"name": "Highcliff El Sch", "district": "North Hills SD", "city": "Pittsburgh", "level": 1, "low_grade": 0, "high_grade": 5, "enrollment": 540, "teachers": 42, "lunch_pct": 28.1, "charter": false, "lat": 40.525129, "lng": -80.055863, "ratio": 12.9}, {"name": "Avalon El Sch", "district": "Northgate SD", "city": "Pittsburgh", "level": 1, "low_grade": 0, "high_grade": 6, "enrollment": 262, "teachers": 24, "lunch_pct": 100.0, "charter": false, "lat": 40.5009, "lng": -80.0664, "ratio": 10.9}, {"name": "Bellevue El Sch", "district": "Northgate SD", "city": "Pittsburgh", "level": 1, "low_grade": -1, "high_grade": 6, "enrollment": 317, "teachers": 26, "lunch_pct": 100.0, "charter": false, "lat": 40.4942, "lng": -80.0546, "ratio": 12.2}, {"name": "Penn Hills El Sch", "district": "Penn Hills SD", "city": "Pittsburgh", "level": 1, "low_grade": 0, "high_grade": 5, "enrollment": 1279, "teachers": 93, "lunch_pct": 99.9, "charter": false, "lat": 40.45046, "lng": -79.806361, "ratio": 13.8}, {"name": "Pittsburgh Spring Hill K-5", "district": "Pittsburgh SD", "city": "Pittsburgh", "level": 1, "low_grade": -1, "high_grade": 5, "enrollment": 104, "teachers": 11, "lunch_pct": 100.0, "charter": false, "lat": 40.4652, "lng": -79.9893, "ratio": 9.5}, {"name": "Pittsburgh Banksville K-5", "district": "Pittsburgh SD", "city": "Pittsburgh", "level": 1, "low_grade": 0, "high_grade": 5, "enrollment": 263, "teachers": 22, "lunch_pct": 100.0, "charter": false, "lat": 40.4071, "lng": -80.037, "ratio": 12.0}, {"name": "Pittsburgh Woolslair K-5", "district": "Pittsburgh SD", "city": "Pittsburgh", "level": 1, "low_grade": 0, "high_grade": 5, "enrollment": 179, "teachers": 17, "lunch_pct": 100.0, "charter": false, "lat": 40.4634, "lng": -79.9571, "ratio": 10.5}, {"name": "Pittsburgh Carmalt K-8", "district": "Pittsburgh SD", "city": "Pittsburgh", "level": 1, "low_grade": -1, "high_grade": 8, "enrollment": 558, "teachers": 39, "lunch_pct": 97.8, "charter": false, "lat": 40.3874, "lng": -80.0068, "ratio": 14.3}, {"name": "Pittsburgh Concord K-5", "district": "Pittsburgh SD", "city": "Pittsburgh", "level": 1, "low_grade": -1, "high_grade": 5, "enrollment": 430, "teachers": 37, "lunch_pct": 97.4, "charter": false, "lat": 40.38748, "lng": -79.984599, "ratio": 11.6}, {"name": "Pittsburgh Montessori K-5", "district": "Pittsburgh SD", "city": "Pittsburgh", "level": 1, "low_grade": -1, "high_grade": 5, "enrollment": 324, "teachers": 21, "lunch_pct": 81.2, "charter": false, "lat": 40.4622, "lng": -79.9356, "ratio": 15.4}, {"name": "Pittsburgh Minadeo K-5", "district": "Pittsburgh SD", "city": "Pittsburgh", "level": 1, "low_grade": -1, "high_grade": 5, "enrollment": 293, "teachers": 29, "lunch_pct": 95.2, "charter": false, "lat": 40.4236, "lng": -79.9254, "ratio": 10.1}, {"name": "Pittsburgh Morrow K-8", "district": "Pittsburgh SD", "city": "Pittsburgh", "level": 1, "low_grade": -1, "high_grade": 8, "enrollment": 510, "teachers": 43, "lunch_pct": 98.0, "charter": false, "lat": 40.48, "lng": -80.0398, "ratio": 11.9}, {"name": "Pittsburgh Phillips K-5", "district": "Pittsburgh SD", "city": "Pittsburgh", "level": 1, "low_grade": 0, "high_grade": 5, "enrollment": 201, "teachers": 18, "lunch_pct": 100.0, "charter": false, "lat": 40.4279, "lng": -79.9782, "ratio": 11.2}, {"name": "Pittsburgh Grandview K-5", "district": "Pittsburgh SD", "city": "Pittsburgh", "level": 1, "low_grade": 0, "high_grade": 5, "enrollment": 178, "teachers": 17, "lunch_pct": 100.0, "charter": false, "lat": 40.4245, "lng": -79.9926, "ratio": 10.5}, {"name": "Pittsburgh Allegheny K-5", "district": "Pittsburgh SD", "city": "Pittsburgh", "level": 1, "low_grade": -1, "high_grade": 5, "enrollment": 655, "teachers": 42, "lunch_pct": 93.4, "charter": false, "lat": 40.452683, "lng": -80.008314, "ratio": 15.6}, {"name": "Pittsburgh West Liberty K-5", "district": "Pittsburgh SD", "city": "Pittsburgh", "level": 1, "low_grade": 0, "high_grade": 5, "enrollment": 155, "teachers": 19, "lunch_pct": 100.0, "charter": false, "lat": 40.403, "lng": -80.01, "ratio": 8.2}, {"name": "Pittsburgh Roosevelt K -5", "district": "Pittsburgh SD", "city": "Pittsburgh", "level": 1, "low_grade": -1, "high_grade": 5, "enrollment": 252, "teachers": 19, "lunch_pct": 95.6, "charter": false, "lat": 40.3979, "lng": -79.988896, "ratio": 13.3}, {"name": "Pittsburgh Miller K-5", "district": "Pittsburgh SD", "city": "Pittsburgh", "level": 1, "low_grade": -1, "high_grade": 5, "enrollment": 213, "teachers": 19, "lunch_pct": 94.4, "charter": false, "lat": 40.4473, "lng": -79.9815, "ratio": 11.2}, {"name": "Pittsburgh Lincoln K-5", "district": "Pittsburgh SD", "city": "Pittsburgh", "level": 1, "low_grade": -1, "high_grade": 5, "enrollment": 213, "teachers": 19, "lunch_pct": 96.2, "charter": false, "lat": 40.4601, "lng": -79.9116, "ratio": 11.2}, {"name": "Pittsburgh Weil K-5", "district": "Pittsburgh SD", "city": "Pittsburgh", "level": 1, "low_grade": -1, "high_grade": 5, "enrollment": 198, "teachers": 19, "lunch_pct": 95.5, "charter": false, "lat": 40.4444, "lng": -79.9738, "ratio": 10.4}, {"name": "Pittsburgh Arsenal K-5", "district": "Pittsburgh SD", "city": "Pittsburgh", "level": 1, "low_grade": -1, "high_grade": 5, "enrollment": 296, "teachers": 25, "lunch_pct": 93.6, "charter": false, "lat": 40.4673, "lng": -79.9631, "ratio": 11.8}, {"name": "Pittsburgh Beechwood K-5", "district": "Pittsburgh SD", "city": "Pittsburgh", "level": 1, "low_grade": -1, "high_grade": 5, "enrollment": 359, "teachers": 32, "lunch_pct": 96.1, "charter": false, "lat": 40.4146, "lng": -80.0207, "ratio": 11.2}, {"name": "Pittsburgh Colfax K-8", "district": "Pittsburgh SD", "city": "Pittsburgh", "level": 1, "low_grade": 0, "high_grade": 8, "enrollment": 732, "teachers": 54, "lunch_pct": 100.0, "charter": false, "lat": 40.4331, "lng": -79.9154, "ratio": 13.6}, {"name": "Pittsburgh Dilworth K-5", "district": "Pittsburgh SD", "city": "Pittsburgh", "level": 1, "low_grade": -1, "high_grade": 5, "enrollment": 448, "teachers": 29, "lunch_pct": 96.0, "charter": false, "lat": 40.4682, "lng": -79.9175, "ratio": 15.4}, {"name": "Pittsburgh Fulton K-5", "district": "Pittsburgh SD", "city": "Pittsburgh", "level": 1, "low_grade": -1, "high_grade": 5, "enrollment": 299, "teachers": 24, "lunch_pct": 96.7, "charter": false, "lat": 40.4772, "lng": -79.9289, "ratio": 12.5},